[
  {
    "name": "Dinius Park",
    "street": "1435 E Glenn Ave",
    "city": "Auburn",
    "state": "AL",
    "zip": "36830",
    "latitude": 32.6089964,
    "longitude": -85.4513085,
    "description": "At 1435 E Glenn Ave in Auburn, Dinius Park has built a loyal following—4.9 stars from 65 dog owner reviews. For dog owners in the area, this park has become a trusted spot for time with their pups. Dog owners can also take their pups to nearby Town Creek Park (2.2 miles) or Floral Dog Park (4.7 miles)."
  },
  {
    "name": "Kiesel Park",
    "street": "520 Chadwick Ln",
    "city": "Auburn",
    "state": "AL",
    "zip": "36832",
    "latitude": 32.5999813,
    "longitude": -85.5414654,
    "description": "Kiesel Park at 520 Chadwick Ln is well-regarded by Auburn dog owners, holding 4.8 stars across 760 reviews. Open from 6am to 6:30pm daily, the park offers flexibility for dog owners with varying routines. For a change of scenery, Town Creek Park is another dog-friendly destination 4.0 miles from here."
  },
  {
    "name": "Town Creek Park",
    "street": "1150 S Gay St",
    "city": "Auburn",
    "state": "AL",
    "zip": "36832",
    "latitude": 32.5852188,
    "longitude": -85.4751898,
    "description": "For dog owners in the Auburn area, Town Creek Park (1150 S Gay St) offers a 4.7-star experience based on 837 reviews. Open from 7am to 8pm daily, there's plenty of opportunity for dog owners to find a time that works. For a change of scenery, Dinius Park is another dog-friendly destination 2.2 miles from here."
  },
  {
    "name": "Floral Dog Park",
    "street": "704 Shamrock St",
    "city": "Auburn",
    "state": "AL",
    "zip": "36801",
    "latitude": 32.652675,
    "longitude": -85.390076,
    "description": "Located at 704 Shamrock St in Auburn, Floral Dog Park earns strong marks from local dog owners—4.5 stars from 37 reviews. Dog owners in the area consistently choose this park as a go-to destination for their pups. Dog owners exploring the neighborhood can also bring their furry friends to Dinius Park (4.7 miles)."
  },
  {
    "name": "Good Dog Pet Resort & Bar",
    "street": "2307 1st Ave S",
    "city": "Birmingham",
    "state": "AL",
    "zip": "35233",
    "latitude": 33.5136482,
    "longitude": -86.799307,
    "description": "With 4.8 stars from 248 reviews, Good Dog Pet Resort & Bar at 2307 1st Ave S has become a favorite among Birmingham dog owners. For dog owners in the area, this park has become a trusted spot for time with their pups. For variety, the neighborhood offers more dog parks to explore: Rotary Trail Birmingham (0.2 miles) and Cherry Parmer Memorial Dog (0.5 miles)."
  },
  {
    "name": "Veterans Park",
    "street": "4800 Valleydale Rd",
    "city": "Birmingham",
    "state": "AL",
    "zip": "35242",
    "latitude": 33.4055989,
    "longitude": -86.7064043,
    "description": "For Birmingham dog owners, Veterans Park at 4800 Valleydale Rd has become a reliable favorite—4.7 stars from 1,460 reviews. Open from 5am to 8pm daily, dog owners can plan visits around their pup's favorite times to be active. For more dog park adventures, explore Cahaba Beach Dog Park (2.8 miles) or Hoover Dog Park (4.1 miles) with your furry companion."
  },
  {
    "name": "Black Creek Dog Park",
    "street": "2408 Stouts Rd",
    "city": "Birmingham",
    "state": "AL",
    "zip": "35068",
    "latitude": 33.6192496,
    "longitude": -86.8022844,
    "description": "At 2408 Stouts Rd in Birmingham, Black Creek Dog Park has built a loyal following—4.7 stars from 386 dog owner reviews. Open from 5am to 10pm daily, the park works well for dog owners with different schedules. The reviews indicate this is a trusted destination for dog owners in the area."
  },
  {
    "name": "Cahaba River Walk Park",
    "street": "3529 Overton Rd",
    "city": "Birmingham",
    "state": "AL",
    "zip": "35223",
    "latitude": 33.479729,
    "longitude": -86.7144534,
    "description": "At 3529 Overton Rd in Birmingham, Cahaba River Walk Park has built a loyal following—4.7 stars from 185 dog owner reviews. Open from 6am to 9pm daily, the park offers flexibility for dog owners with varying routines. For variety, the neighborhood offers more dog parks to explore: Cahaba Beach Dog Park (2.4 miles) and Retreat Dog Park (2.8 miles)."
  },
  {
    "name": "Rotary Trail Birmingham",
    "street": "2098 1st Ave S",
    "city": "Birmingham",
    "state": "AL",
    "zip": "35233",
    "latitude": 33.512562,
    "longitude": -86.802721,
    "description": "At 2098 1st Ave S in Birmingham, Rotary Trail Birmingham has built a loyal following—4.7 stars from 170 dog owner reviews. Open from 7am to 11pm daily, the park offers flexibility for dog owners with varying routines. For variety, the neighborhood offers more dog parks to explore: Good Dog Pet Resort & Bar (0.2 miles) and Cherry Parmer Memorial Dog (0.6 miles)."
  },
  {
    "name": "Hoover Dog Park",
    "street": "3469 Loch Haven Dr",
    "city": "Birmingham",
    "state": "AL",
    "zip": "35216",
    "latitude": 33.4056618,
    "longitude": -86.7768743,
    "description": "Dog owners in Birmingham have made Hoover Dog Park at 3469 Loch Haven Dr a go-to spot, rating it 4.6 stars across 547 reviews. Open from 7am to 7pm daily, there's room in the day for dog owners to bring their furry friends. Looking for more places to take your pup? Veterans Park is another popular dog park just 4.1 miles away."
  },
  {
    "name": "Rufus Rhodes Park",
    "street": "2800 Highland Ave",
    "city": "Birmingham",
    "state": "AL",
    "zip": "35205",
    "latitude": 33.505965,
    "longitude": -86.782919,
    "description": "For dog owners in the Birmingham area, Rufus Rhodes Park (2800 Highland Ave) offers a 4.6-star experience based on 203 reviews. Open from 6am to 10pm daily, dog owners can easily fit a visit into busy schedules. Dog owners can also take their pups to nearby Caldwell Park (0.3 miles) or Good Dog Pet Resort & Bar (1.1 miles)."
  },
  {
    "name": "Moody Dog Park",
    "street": "663 Park Ave",
    "city": "Birmingham",
    "state": "AL",
    "zip": "35004",
    "latitude": 33.5886153,
    "longitude": -86.4902365,
    "description": "Dog owners in Birmingham have made Moody Dog Park at 663 Park Ave a go-to spot, rating it 4.6 stars across 102 reviews. Local dog owners appreciate what this park offers their four-legged friends. The consistent ratings suggest dog owners know what to expect here."
  },
  {
    "name": "Adamsville Bark Park",
    "street": "",
    "city": "Birmingham",
    "state": "AL",
    "zip": "",
    "latitude": 33.6009389,
    "longitude": -86.9561059,
    "description": "In Birmingham, Adamsville Bark Park earns strong marks from local dog owners—4.5 stars from 34 reviews. The park has earned its reputation among dog owners in the neighborhood as a reliable choice. The consistent ratings suggest dog owners know what to expect here."
  },
  {
    "name": "‍ Cahaba Beach Dog Park",
    "street": "3555 Cahaba Beach Rd",
    "city": "Birmingham",
    "state": "AL",
    "zip": "35242",
    "latitude": 33.4460659,
    "longitude": -86.7032694,
    "description": "Dog owners in Birmingham have made Cahaba Beach Dog Park at 3555 Cahaba Beach Rd a go-to spot, rating it 4.5 stars across 164 reviews. The park has earned its reputation among dog owners in the neighborhood as a reliable choice. Other dog parks in the area include Cahaba River Walk Park (2.4 miles) and Veterans Park (2.8 miles)—both great for exploring with your four-legged friend."
  },
  {
    "name": "Caldwell Park",
    "street": "2500 Highland Ave",
    "city": "Birmingham",
    "state": "AL",
    "zip": "35205",
    "latitude": 33.5020444,
    "longitude": -86.7861561,
    "description": "Caldwell Park (4.5 stars from 176 reviews) is a popular destination for Birmingham dog owners, located at 2500 Highland Ave. Local dog owners appreciate what this park offers their four-legged friends. For variety, the neighborhood offers more dog parks to explore: Rufus Rhodes Park (0.3 miles) and Good Dog Pet Resort & Bar (1.1 miles)."
  },
  {
    "name": "City Walk Birmingham",
    "street": "2200 9th Ave N",
    "city": "Birmingham",
    "state": "AL",
    "zip": "35203",
    "latitude": 33.524398,
    "longitude": -86.808569,
    "description": "City Walk Birmingham at 2200 9th Ave N holds a 4.3-star rating from 62 Birmingham dog owner visits. This park provides dog owners in the community with a place to visit with their dogs. For pups who want more adventure, CityWalk Barkery is a nearby dog park worth visiting (0.2 miles)."
  },
  {
    "name": "Cahaba Dog Park",
    "street": "531 Cherokee Dr",
    "city": "Birmingham",
    "state": "AL",
    "zip": "35173",
    "latitude": 33.6305533,
    "longitude": -86.6010315,
    "description": "Cahaba Dog Park at 531 Cherokee Dr holds a 4.3-star rating from 93 Birmingham dog owner visits. Open from 8am to 5pm daily, dog owners can stop by when it fits their schedule. Dog owners new to the area may find the visitor reviews useful for learning about this park."
  },
  {
    "name": "‍ Retreat Dog Park",
    "street": "",
    "city": "Birmingham",
    "state": "AL",
    "zip": "",
    "latitude": 33.5019459,
    "longitude": -86.7556834,
    "description": "Birmingham dog owners have access to Retreat Dog Park for outings with their four-legged friends. The neighborhood benefits from having this park as an option for dog owners and their pups. Looking to explore more? Rufus Rhodes Park is another dog-friendly park 1.6 miles from here."
  },
  {
    "name": "Cherry Parmer Memorial Dog",
    "street": "",
    "city": "Birmingham",
    "state": "AL",
    "zip": "",
    "latitude": 33.5206824,
    "longitude": -86.8024326,
    "description": "In Birmingham, Cherry Parmer Memorial Dog offers dog owners a neighborhood destination for their four-legged friends. This park provides dog owners in the community with a place to visit with their dogs. Dog owners might also enjoy Green Springs Dog Park, another dog park just 0.0 miles away."
  },
  {
    "name": "Green Springs Dog Park",
    "street": "",
    "city": "Birmingham",
    "state": "AL",
    "zip": "",
    "latitude": 33.5206824,
    "longitude": -86.8024326,
    "description": "For dog owners in Birmingham, Green Springs Dog Park has a 4.1-star rating (279 reviews). Open from 6am to 7pm daily, the park fits conveniently into different routines. For pups who want more adventure, Cherry Parmer Memorial Dog is a nearby dog park worth visiting (0.0 miles)."
  },
  {
    "name": "Forever Wild Trails",
    "street": "3636 Fortner St",
    "city": "Dothan",
    "state": "AL",
    "zip": "36305",
    "latitude": 31.2098363,
    "longitude": -85.4466569,
    "description": "Forever Wild Trails at 3636 Fortner St is well-regarded by Dothan dog owners, holding 4.7 stars across 256 reviews. Open from 6:30am to 8pm daily, dog owners can plan visits around work or their pup's energy level. More dog-friendly parks nearby include Westgate Park (2.0 miles) and Westgate Walking Trails (2.4 miles)—perfect for pups who love adventure."
  },
  {
    "name": "Westgate Memorial Park",
    "street": "",
    "city": "Dothan",
    "state": "AL",
    "zip": "",
    "latitude": 31.2237285,
    "longitude": -85.3934375,
    "description": "Westgate Memorial Park (4.7 stars from 245 reviews) is a popular destination for Dothan dog owners. The steady stream of dog owner visits speaks to the park's appeal. Dog owners exploring the neighborhood can also bring their furry friends to James O. Oates Park (0.0 miles)."
  },
  {
    "name": "Westgate Walking Trails",
    "street": "1002 Deerpath Rd",
    "city": "Dothan",
    "state": "AL",
    "zip": "36303",
    "latitude": 31.2448197,
    "longitude": -85.4432107,
    "description": "Dog owners in Dothan have made Westgate Walking Trails at 1002 Deerpath Rd a go-to spot, rating it 4.7 stars across 67 reviews. Open from 8am to 6pm daily, there's plenty of opportunity for dog owners to find a time that works. Looking for more places to take your pup? Westgate Park is another popular dog park just 0.6 miles away."
  },
  {
    "name": "Beagle Stadium Dog Park",
    "street": "790 James St",
    "city": "Dothan",
    "state": "AL",
    "zip": "36360",
    "latitude": 31.4520383,
    "longitude": -85.6271321,
    "description": "For dog owners in the Dothan area, Beagle Stadium Dog Park (790 James St) offers a 4.7-star experience based on 23 reviews. Open from 7am to 5pm, every day except Tuesday, the park works well for dog owners with different schedules. Local dog owners have clearly found this to be a worthwhile destination."
  },
  {
    "name": "Morning View Park",
    "street": "213 Cordova Dr",
    "city": "Dothan",
    "state": "AL",
    "zip": "36303",
    "latitude": 31.2454997,
    "longitude": -85.3888936,
    "description": "Dog owners in Dothan have made Morning View Park at 213 Cordova Dr a go-to spot, rating it 4.6 stars across 24 reviews. Dog owners looking for a solid destination will find this park delivers. Nearby, Porter Park (1.5 miles) offers dog owners another great spot to explore with their pups."
  },
  {
    "name": "Porter Park",
    "street": "150 N Foster St",
    "city": "Dothan",
    "state": "AL",
    "zip": "36303",
    "latitude": 31.2243984,
    "longitude": -85.392105,
    "description": "At 150 N Foster St in Dothan, Porter Park has built a loyal following—4.6 stars from 40 dog owner reviews. The steady stream of dog owner visits speaks to the park's appeal. Looking for more places to take your pup? James O. Oates Park is another popular dog park just 0.1 miles away."
  },
  {
    "name": "Westgate Park",
    "street": "501 Recreation Rd",
    "city": "Dothan",
    "state": "AL",
    "zip": "36303",
    "latitude": 31.2376477,
    "longitude": -85.4387891,
    "description": "With 4.6 stars from 490 reviews, Westgate Park at 501 Recreation Rd has become a favorite among Dothan dog owners. The park serves dog owners well, providing a destination the community values. Looking for more places to take your pup? Westgate Walking Trails is another popular dog park just 0.6 miles away."
  },
  {
    "name": "‍ James O. Oates Park",
    "street": "",
    "city": "Dothan",
    "state": "AL",
    "zip": "",
    "latitude": 31.2237285,
    "longitude": -85.3934375,
    "description": "James O. Oates Park is well-regarded by Dothan dog owners, holding 4.6 stars across 495 reviews. For dog owners in the area, this park has become a trusted spot for time with their pups. For variety, the neighborhood offers more dog parks to explore: Westgate Memorial Park (0.0 miles) and Porter Park (0.1 miles)."
  },
  {
    "name": "Ramsey Park",
    "street": "520 Virginia Dr",
    "city": "Dothan",
    "state": "AL",
    "zip": "36301",
    "latitude": 31.2196505,
    "longitude": -85.4069144,
    "description": "Located at 520 Virginia Dr, Ramsey Park in Dothan is rated 4.1 stars by 63 dog owners. Local dog owners use this park as a spot to spend time with their furry companions. Nearby dog parks worth exploring with your pup include James O. Oates Park (0.8 miles) and Westgate Memorial Park (0.8 miles)."
  },
  {
    "name": "‍ Kelly & Buddy's Private Dog",
    "street": "3005 Hood Rd SW",
    "city": "Huntsville",
    "state": "AL",
    "zip": "35805",
    "latitude": 34.6966154,
    "longitude": -86.6043752,
    "description": "Located at 3005 Hood Rd SW in Huntsville, Kelly & Buddy's Private Dog earns strong marks from local dog owners—5.0 stars from 49 reviews. The steady stream of dog owner visits speaks to the park's appeal. Dog owners exploring the neighborhood can also bring their furry friends to Providence Pet Park (2.5 miles)."
  },
  {
    "name": "Dog Splash",
    "street": "1860 Sparkman Dr NW",
    "city": "Huntsville",
    "state": "AL",
    "zip": "35816",
    "latitude": 34.752949,
    "longitude": -86.643166,
    "description": "Huntsville dog owners rate Dog Splash at 1860 Sparkman Dr NW highly, with 4.9 stars from 111 visits. Open from 6am to 8pm, Tuesday through Sunday, the park works well for dog owners with different schedules. Other dog parks in the area include Indian Creek Greenway (3.1 miles) and City of Huntsville Dogspot (3.4 miles)—both great for exploring with your four-legged friend."
  },
  {
    "name": "Southside Park",
    "street": "16159 Chaney Thompson Rd SE",
    "city": "Huntsville",
    "state": "AL",
    "zip": "35803",
    "latitude": 34.5989254,
    "longitude": -86.5499,
    "description": "Located at 16159 Chaney Thompson Rd SE in Huntsville, Southside Park earns strong marks from local dog owners—4.6 stars from 360 reviews. Open from 6am to 9pm daily, dog owners have plenty of flexibility to plan a visit. Nearby, Astro Dog Park (1.3 miles) offers dog owners another great spot to explore with their pups."
  },
  {
    "name": "Indian Creek Greenway",
    "street": "46 Hillcrest Ave NW",
    "city": "Huntsville",
    "state": "AL",
    "zip": "35806",
    "latitude": 34.7558913,
    "longitude": -86.6983503,
    "description": "At 46 Hillcrest Ave NW in Huntsville, Indian Creek Greenway has built a loyal following—4.6 stars from 272 dog owner reviews. Local dog owners appreciate what this park offers their four-legged friends. Dog owners can also take their pups to nearby Indian Creek Greenway (2.0 miles) or Dog Splash (3.1 miles)."
  },
  {
    "name": "Jones Farm Park",
    "street": "Four Mile Post Rd SE",
    "city": "Huntsville",
    "state": "AL",
    "zip": "35802",
    "latitude": 34.6736365,
    "longitude": -86.5637123,
    "description": "Huntsville dog owners rate Jones Farm Park highly, with 4.6 stars from 236 visits. Open from 6am to 8pm daily, there's plenty of opportunity for dog owners to find a time that works. Nearby, Kelly & Buddy's Private Dog (2.8 miles) offers dog owners another great spot to explore with their pups."
  },
  {
    "name": "Astro Dog Park",
    "street": "Chaney Thompson Rd SE",
    "city": "Huntsville",
    "state": "AL",
    "zip": "35803",
    "latitude": 34.6183868,
    "longitude": -86.5493701,
    "description": "Astro Dog Park is well-regarded by Huntsville dog owners, holding 4.6 stars across 83 reviews. Dog owners frequent this park for its consistent quality and welcoming atmosphere. For a change of scenery, Southside Park is another dog-friendly destination 1.3 miles from here."
  },
  {
    "name": "Providence Pet Park",
    "street": "",
    "city": "Huntsville",
    "state": "AL",
    "zip": "",
    "latitude": 34.729847,
    "longitude": -86.5859011,
    "description": "Providence Pet Park (4.6 stars from 8 reviews) is a popular destination for Huntsville dog owners. The steady stream of dog owner visits speaks to the park's appeal. For a change of scenery, City of Huntsville Dogspot is another dog-friendly destination 0.5 miles from here."
  },
  {
    "name": "Mill Creek Dog Park",
    "street": "38 Balch Rd",
    "city": "Huntsville",
    "state": "AL",
    "zip": "35758",
    "latitude": 34.7653736,
    "longitude": -86.7672642,
    "description": "At 38 Balch Rd in Huntsville, Mill Creek Dog Park has built a loyal following—4.5 stars from 276 dog owner reviews. Open from 8am to 8pm daily, the park accommodates early risers and evening visitors alike. Looking for more places to take your pup? Knox Creek Park is another popular dog park just 0.5 miles away."
  },
  {
    "name": "City of Huntsville Dogspot",
    "street": "200 NW Cleveland Ave",
    "city": "Huntsville",
    "state": "AL",
    "zip": "35801",
    "latitude": 34.7373439,
    "longitude": -86.5868913,
    "description": "City of Huntsville Dogspot at 200 NW Cleveland Ave in Huntsville has 4.4 stars from 312 dog owner reviews. Open from 6am to 7pm daily, dog owners in the area can work a visit into their day. Dog owners in the neighborhood can also take their furry friends to Providence Pet Park, 0.5 miles away."
  },
  {
    "name": "Huntsville Dogspot Creekwood",
    "street": "",
    "city": "Huntsville",
    "state": "AL",
    "zip": "",
    "latitude": 34.6928726,
    "longitude": -86.7511427,
    "description": "Huntsville Dogspot Creekwood in Huntsville is rated 4.3 stars by 63 dog owners. The neighborhood benefits from having this park as an option for dog owners and their pups. More dog parks in the area include Dublin Park (1.5 miles) and Mill Creek Greenway (1.6 miles)—great options for mixing up your pup's routine."
  },
  {
    "name": "Cove Dog Park",
    "street": "",
    "city": "Huntsville",
    "state": "AL",
    "zip": "",
    "latitude": 34.5881461,
    "longitude": -86.4588768,
    "description": "Cove Dog Park holds a 4.1-star rating from 70 Huntsville dog owner visits. This park provides dog owners in the community with a place to visit with their dogs. For dog owners considering a visit, the reviews offer firsthand accounts from other visitors."
  },
  {
    "name": "Dublin Park",
    "street": "8324 Old Madison Pike",
    "city": "Madison",
    "state": "AL",
    "zip": "35758",
    "latitude": 34.7065183,
    "longitude": -86.7305315,
    "description": "1,391 dog owners have made Dublin Park (8324 Old Madison Pike) one of Madison's most trusted parks (4.6 stars). Dog owners appreciate the reliable experience this park provides for their four-legged companions. Want to give your pup even more adventure? Huntsville Dogspot Creekwood is another beloved dog park just 1.5 miles away."
  },
  {
    "name": "Mill Creek Greenway",
    "street": "125 Foxfield Dr",
    "city": "Madison",
    "state": "AL",
    "zip": "35758",
    "latitude": 34.7144095,
    "longitude": -86.7632024,
    "description": "Mill Creek Greenway at 125 Foxfield Dr holds a 4.4-star rating from 139 Madison dog owner visits. Open from 5am to 7pm daily, dog owners have flexibility to plan a visit with their four-legged friends. Nearby dog parks worth exploring with your pup include Mill Creek Park (0.5 miles) and Leathertree Park (1.4 miles)."
  },
  {
    "name": "Mill Creek Park",
    "street": "141 Teal Park Ln",
    "city": "Madison",
    "state": "AL",
    "zip": "35758",
    "latitude": 34.7170162,
    "longitude": -86.7555209,
    "description": "Mill Creek Park at 141 Teal Park Ln in Madison has 4.1 stars from 14 dog owner reviews. Open from 8am to 8pm daily, dog owners can stop by when it fits their schedule. Dog owners might also enjoy Mill Creek Greenway, another dog park just 0.5 miles away."
  },
  {
    "name": "Leathertree Park",
    "street": "221 Gillespie Rd",
    "city": "Madison",
    "state": "AL",
    "zip": "35758",
    "latitude": 34.7288068,
    "longitude": -86.7455869,
    "description": "Leathertree Park at 221 Gillespie Rd in Madison has 4.3 stars from 37 dog owner reviews. Open from 8am to 8pm daily, dog owners in the area can work a visit into their day. Dog owners in the neighborhood can also take their furry friends to Mill Creek Park, 1.0 miles away."
  },
  {
    "name": "Knox Creek Park",
    "street": "193 Greenbank Dr NW",
    "city": "Madison",
    "state": "AL",
    "zip": "35757",
    "latitude": 34.7578025,
    "longitude": -86.769748,
    "description": "Knox Creek Park at 193 Greenbank Dr NW holds a 4.1-star rating from 153 Madison dog owner visits. Open from 5am to 9pm daily, local dog owners have time to explore with their furry companions. Looking to explore more? Mill Creek Dog Park is another dog-friendly park 0.5 miles from here."
  },
  {
    "name": "‍ Washington Square Park",
    "street": "251 Chatham St",
    "city": "Mobile",
    "state": "AL",
    "zip": "36604",
    "latitude": 30.6823655,
    "longitude": -88.0574119,
    "description": "Dog owners in Mobile have made Washington Square Park at 251 Chatham St a go-to spot, rating it 4.7 stars across 52 reviews. The park has earned its reputation among dog owners in the neighborhood as a reliable choice. Dog owners exploring the neighborhood can also bring their furry friends to HopHounds Brew Pub & Dog Park (0.4 miles)."
  },
  {
    "name": "Medal of Honor Park",
    "street": "1711 Hillcrest Rd",
    "city": "Mobile",
    "state": "AL",
    "zip": "36609",
    "latitude": 30.6553933,
    "longitude": -88.1905023,
    "description": "At 1711 Hillcrest Rd in Mobile, Medal of Honor Park stands out with 4.6 stars from 2,549 happy dog owners. Open from 8am to 8pm daily, there's always time for dog owners to bring their pup for some quality time. Nearby, Julien Marx Dog Park (0.0 miles) is another dog park favorite where you can take your four-legged friend."
  },
  {
    "name": "Julien Marx Dog Park",
    "street": "1711 Hillcrest Rd",
    "city": "Mobile",
    "state": "AL",
    "zip": "36695",
    "latitude": 30.6553933,
    "longitude": -88.1905023,
    "description": "At 1711 Hillcrest Rd in Mobile, Julien Marx Dog Park has built a loyal following—4.6 stars from 479 dog owner reviews. Open from 6:30am to 8pm daily, there's plenty of opportunity for dog owners to find a time that works. For a change of scenery, Medal of Honor Park is another dog-friendly destination 0.0 miles from here."
  },
  {
    "name": "HopHounds Brew Pub & Dog Park",
    "street": "806 Monroe St",
    "city": "Mobile",
    "state": "AL",
    "zip": "36602",
    "latitude": 30.6845885,
    "longitude": -88.0511918,
    "description": "HopHounds Brew Pub & Dog Park (4.5 stars from 109 reviews) is a popular destination for Mobile dog owners, located at 806 Monroe St. Local dog owners appreciate what this park offers their four-legged friends. Dog owners exploring the neighborhood can also bring their furry friends to British Park (0.2 miles)."
  },
  {
    "name": "Daphne Dog Park",
    "street": "8600 Whispering Pines Rd",
    "city": "Mobile",
    "state": "AL",
    "zip": "36526",
    "latitude": 30.6184919,
    "longitude": -87.897408,
    "description": "Located at 8600 Whispering Pines Rd in Mobile, Daphne Dog Park earns strong marks from local dog owners—4.5 stars from 190 reviews. Open from 7am to 10pm daily, there's plenty of opportunity for dog owners to find a time that works. A solid track record makes this a reliable choice for dog owners."
  },
  {
    "name": "Hackmeyer Park",
    "street": "3751 Amruth Dr",
    "city": "Mobile",
    "state": "AL",
    "zip": "36608",
    "latitude": 30.6805474,
    "longitude": -88.1392489,
    "description": "At 3751 Amruth Dr in Mobile, Hackmeyer Park carries 4.3 stars from 20 dog owner reviews. Open from 6am to 10pm daily, the park fits conveniently into different routines. Dog owners might also enjoy Public Safety Memorial Park, another dog park just 2.6 miles away."
  },
  {
    "name": "British Park",
    "street": "209 S Dearborn St",
    "city": "Mobile",
    "state": "AL",
    "zip": "36602",
    "latitude": 30.6849383,
    "longitude": -88.0482768,
    "description": "Dog owners in Mobile have rated British Park (209 S Dearborn St) 4.3 stars across 72 reviews. Open from 6:30am to 6:30pm daily, local dog owners have time to explore with their furry companions. Dog owners in the neighborhood can also take their furry friends to HopHounds Brew Pub & Dog Park, 0.2 miles away."
  },
  {
    "name": "‍ Dog Park",
    "street": "351 S Ann St",
    "city": "Mobile",
    "state": "AL",
    "zip": "36604",
    "latitude": 30.6772626,
    "longitude": -88.0668958,
    "description": "At 351 S Ann St, Dog Park has 4.3 stars based on 82 reviews from Mobile dog owners. Open from 6:30am to 6:30pm daily, local dog owners have time to explore with their furry companions. Dog owners in the neighborhood can also take their furry friends to Washington Square Park, 0.7 miles away."
  },
  {
    "name": "‍ Fairhope Dog Park",
    "street": "",
    "city": "Mobile",
    "state": "AL",
    "zip": "",
    "latitude": 30.5231647,
    "longitude": -87.9028458,
    "description": "Fairhope Dog Park in Mobile is rated 4.3 stars by 173 dog owners. Dog owners in the area appreciate having a local spot to bring their pups. For dog owners considering a visit, the reviews offer firsthand accounts from other visitors."
  },
  {
    "name": "Dog River Park",
    "street": "2459 Dog River Dr N",
    "city": "Mobile",
    "state": "AL",
    "zip": "36605",
    "latitude": 30.6322387,
    "longitude": -88.1023168,
    "description": "At 2459 Dog River Dr N in Mobile, Dog River Park carries 4.3 stars from 283 dog owner reviews. For dog owners in the neighborhood, this park offers a place to take their pups. Looking to explore more? Public Safety Memorial Park is another dog-friendly park 3.1 miles from here."
  },
  {
    "name": "Public Safety Memorial Park",
    "street": "2301 Airport Blvd",
    "city": "Mobile",
    "state": "AL",
    "zip": "36606",
    "latitude": 30.6765259,
    "longitude": -88.094967,
    "description": "Dog owners in Mobile have rated Public Safety Memorial Park (2301 Airport Blvd) 4.3 stars across 302 reviews. Open from 6am to 8:30pm daily, the park is accessible for dog owners in the area. Dog owners might also enjoy Dog Park, another dog park just 1.7 miles away."
  },
  {
    "name": "‍ Hannah Daye Ridling Bark Park",
    "street": "6055 Vaughn Rd",
    "city": "Montgomery",
    "state": "AL",
    "zip": "36116",
    "latitude": 32.341531,
    "longitude": -86.2111796,
    "description": "With 4.7 stars from 406 reviews, Hannah Daye Ridling Bark Park at 6055 Vaughn Rd has become a favorite among Montgomery dog owners. Open from 6am to 5:45pm daily, there's plenty of opportunity for dog owners to find a time that works. Based on the reviews, dog owners can expect a reliable spot for spending time with their pup."
  },
  {
    "name": "Cooter's Pond Dog Park",
    "street": "",
    "city": "Montgomery",
    "state": "AL",
    "zip": "",
    "latitude": 32.4600136,
    "longitude": -86.4753174,
    "description": "Montgomery dog owners rate Cooter's Pond Dog Park highly, with 4.6 stars from 155 visits. Dog owners in the area consistently choose this park as a go-to destination for their pups. The reviews indicate this is a trusted destination for dog owners in the area."
  },
  {
    "name": "‍ Rotary Dog Park",
    "street": "98 Coosa St",
    "city": "Montgomery",
    "state": "AL",
    "zip": "36104",
    "latitude": 32.379589,
    "longitude": -86.309472,
    "description": "Dog owners in Montgomery have rated Rotary Dog Park (98 Coosa St) 4.2 stars across 26 reviews. Dog owners in the area appreciate having a local spot to bring their pups. Looking to explore more? Downtown Dog Park is another dog-friendly park 0.1 miles from here."
  },
  {
    "name": "Downtown Dog Park",
    "street": "62 Madison Ave",
    "city": "Montgomery",
    "state": "AL",
    "zip": "36104",
    "latitude": 32.3797001,
    "longitude": -86.308154,
    "description": "Downtown Dog Park at 62 Madison Ave holds a 4.2-star rating from 48 Montgomery dog owner visits. The park gives neighborhood dog owners a destination for outings with their four-legged friends. Dog owners in the neighborhood can also take their furry friends to Rotary Dog Park, 0.1 miles away."
  },
  {
    "name": "Will May Dog Park",
    "street": "5901 Watermelon Rd",
    "city": "Tuscaloosa",
    "state": "AL",
    "zip": "35406",
    "latitude": 33.264429,
    "longitude": -87.542052,
    "description": "Tuscaloosa dog owners rate Will May Dog Park at 5901 Watermelon Rd highly, with 4.6 stars from 651 visits. Open from 7:30am to 9pm daily, dog owners can plan visits around work or their pup's energy level. Based on the reviews, dog owners can expect a reliable spot for spending time with their pup."
  }
]