[
  {
    "name": "Carr-Gottstein Park",
    "street": "3130 Discovery Bay Dr",
    "city": "Anchorage",
    "state": "AK",
    "zip": "99515",
    "latitude": 61.1176676,
    "longitude": -149.9379584,
    "description": "Located at 3130 Discovery Bay Dr in Anchorage, Carr-Gottstein Park earns strong marks from local dog owners—4.8 stars from 140 reviews. Open from 6am to 11pm daily, dog owners have plenty of flexibility to plan a visit. Nearby, South Anchorage Sports Park (1.4 miles) offers dog owners another great spot to explore with their pups."
  },
  {
    "name": "University Lake Park",
    "street": "4050 University Lake Dr",
    "city": "Anchorage",
    "state": "AK",
    "zip": "99508",
    "latitude": 61.1862712,
    "longitude": -149.805858,
    "description": "Located at 4050 University Lake Dr in Anchorage, University Lake Park earns strong marks from local dog owners—4.7 stars from 315 reviews. Open from 6am to 11pm daily, dog owners have plenty of flexibility to plan a visit. Nearby, University Lake Park (0.1 miles) offers dog owners another great spot to explore with their pups."
  },
  {
    "name": "Connors Bog Park",
    "street": "5404 Jewel Lake Rd",
    "city": "Anchorage",
    "state": "AK",
    "zip": "99502",
    "latitude": 61.1486181,
    "longitude": -149.9518743,
    "description": "Connors Bog Park at 5404 Jewel Lake Rd is well-regarded by Anchorage dog owners, holding 4.7 stars across 60 reviews. Open from 6am to 11pm daily, the park accommodates early risers and evening visitors alike. Nearby, Wolverine Park (1.8 miles) offers dog owners another great spot to explore with their pups."
  },
  {
    "name": "‍ Far North Bicentennial Park",
    "street": "4970 Campbell Airstrip Road",
    "city": "Anchorage",
    "state": "AK",
    "zip": "99507",
    "latitude": 61.1735626,
    "longitude": -149.7654963,
    "description": "Far North Bicentennial Park (4.6 stars from 602 reviews) is a popular destination for Anchorage dog owners, located at 4970 Campbell Airstrip Road. Open from 6am to 11pm daily, the park accommodates early risers and evening visitors alike. Dog owners exploring the neighborhood can also bring their furry friends to Baxter Bog Park (1.2 miles)."
  },
  {
    "name": "South Anchorage Sports Park",
    "street": "779 W Klatt Rd",
    "city": "Anchorage",
    "state": "AK",
    "zip": "99515",
    "latitude": 61.115794,
    "longitude": -149.8965508,
    "description": "South Anchorage Sports Park at 779 W Klatt Rd is well-regarded by Anchorage dog owners, holding 4.6 stars across 280 reviews. Open from 7am to 10pm daily, dog owners can easily fit a visit into busy schedules. For a change of scenery, South Anchorage Dog Park is another dog-friendly destination 0.6 miles from here."
  },
  {
    "name": "Abbott Loop Community Park",
    "street": "8101 Elmore Rd",
    "city": "Anchorage",
    "state": "AK",
    "zip": "99507",
    "latitude": 61.1692115,
    "longitude": -149.8090393,
    "description": "At 8101 Elmore Rd in Anchorage, Abbott Loop Community Park has built a loyal following—4.6 stars from 224 dog owner reviews. Open from 6am to 11pm daily, the park works well for dog owners with different schedules. Dog owners can also take their pups to nearby University Lake Park (1.2 miles) or University Lake Park (1.2 miles)."
  },
  {
    "name": "South Anchorage Dog Park",
    "street": "799 W Klatt Rd",
    "city": "Anchorage",
    "state": "AK",
    "zip": "99515",
    "latitude": 61.1158019,
    "longitude": -149.8785426,
    "description": "South Anchorage Dog Park at 799 W Klatt Rd is well-regarded by Anchorage dog owners, holding 4.6 stars across 96 reviews. Open from 6am to 11pm daily, there's room in the day for dog owners to bring their furry friends. For variety, the neighborhood offers more dog parks to explore: South Anchorage Sports Park (0.6 miles) and Johns Park (0.7 miles)."
  },
  {
    "name": "Balto Seppala Park",
    "street": "3360 Wisconsin St",
    "city": "Anchorage",
    "state": "AK",
    "zip": "99517",
    "latitude": 61.1902688,
    "longitude": -149.9430197,
    "description": "With 4.5 stars from 267 reviews, Balto Seppala Park at 3360 Wisconsin St has become a favorite among Anchorage dog owners. Open from 6am to 11pm daily, the park works well for dog owners with different schedules. Dog owners can also take their pups to nearby Woodland Park (0.5 miles) or Arctic Benson Park (1.5 miles)."
  },
  {
    "name": "‍ Chanshtnu Muldoon Park",
    "street": "1301 Muldoon Rd",
    "city": "Anchorage",
    "state": "AK",
    "zip": "99504",
    "latitude": 61.2088663,
    "longitude": -149.732625,
    "description": "Anchorage dog owners rate Chanshtnu Muldoon Park at 1301 Muldoon Rd highly, with 4.5 stars from 236 visits. Open from 6am to 11pm daily, there's room in the day for dog owners to bring their furry friends. More dog-friendly parks nearby include Chanshtnu Muldoon Dog Park (0.3 miles) and Creekside Park (0.7 miles)—perfect for pups who love adventure."
  },
  {
    "name": "Chugach Foothills Park",
    "street": "7975 Pioneer Dr",
    "city": "Anchorage",
    "state": "AK",
    "zip": "99504",
    "latitude": 61.1857178,
    "longitude": -149.7315044,
    "description": "Chugach Foothills Park (4.5 stars from 189 reviews) is a popular destination for Anchorage dog owners, located at 7975 Pioneer Dr. Open from 6am to 11pm daily, there's room in the day for dog owners to bring their furry friends. More dog-friendly parks nearby include Baxter Bog Park (0.7 miles) and Pfleiger Park (0.8 miles)—perfect for pups who love adventure."
  },
  {
    "name": "Baxter Bog Park",
    "street": "3424 Lunar Cir",
    "city": "Anchorage",
    "state": "AK",
    "zip": "99504",
    "latitude": 61.1893213,
    "longitude": -149.7519935,
    "description": "With 4.5 stars from 104 reviews, Baxter Bog Park at 3424 Lunar Cir has become a favorite among Anchorage dog owners. Open from 6am to 11pm daily, dog owners have plenty of flexibility to plan a visit. Nearby, Pfleiger Park (0.1 miles) offers dog owners another great spot to explore with their pups."
  },
  {
    "name": "Ray E. Storck Homestead Park",
    "street": "7020 Clarks Rd",
    "city": "Anchorage",
    "state": "AK",
    "zip": "99516",
    "latitude": 61.0895099,
    "longitude": -149.7505495,
    "description": "Ray E. Storck Homestead Park at 7020 Clarks Rd is well-regarded by Anchorage dog owners, holding 4.5 stars across 63 reviews. Open from 6am to 11pm daily, dog owners can easily fit a visit into busy schedules. For variety, the neighborhood offers more dog parks to explore: Rabbit Creek Park (2.8 miles) and Johns Park (4.5 miles)."
  },
  {
    "name": "Chanshtnu Muldoon Dog Park",
    "street": "8231 De",
    "city": "Anchorage",
    "state": "AK",
    "zip": "99504",
    "latitude": 61.209704,
    "longitude": -149.7239473,
    "description": "Located at 8231 DeBarr Rd, Chanshtnu Muldoon Dog Park in Anchorage is rated 4.4 stars by 36 dog owners. Open from 6am to 11pm daily, the park fits conveniently into different routines. Dog owners in the neighborhood can also take their furry friends to Chanshtnu Muldoon Park, 0.3 miles away."
  },
  {
    "name": "Lake Lucille Dog Park",
    "street": "1401 S Endeavor St",
    "city": "Anchorage",
    "state": "AK",
    "zip": "99654",
    "latitude": 61.5691923,
    "longitude": -149.4813229,
    "description": "Dog owners in Anchorage have rated Lake Lucille Dog Park (1401 S Endeavor St) 4.4 stars across 58 reviews. Open from 8am to 10pm daily, dog owners can stop by when it fits their schedule. The reviews from fellow dog owners offer helpful insights about this park."
  },
  {
    "name": "‍ Coffey Park",
    "street": "1520 Coffey Ln",
    "city": "Anchorage",
    "state": "AK",
    "zip": "99501",
    "latitude": 61.2069344,
    "longitude": -149.9042831,
    "description": "Dog owners in Anchorage have rated Coffey Park (1520 Coffey Ln) 4.3 stars across 6 reviews. Open from 6am to 11pm daily, local dog owners have time to explore with their furry companions. Dog owners in the neighborhood can also take their furry friends to Valley of the Moon Park, 0.4 miles away."
  }
]