[
  {
    "name": "Eastside Community Park",
    "street": "5400 Eastside Cir",
    "city": "Anaheim",
    "state": "CA",
    "zip": "92887",
    "latitude": 33.8817249,
    "longitude": -117.7481127,
    "description": "Eastside Community Park (4.8 stars from 173 reviews) is a popular destination for Anaheim dog owners, located at 5400 Eastside Cir. For dog owners in the area, this park has become a trusted spot for time with their pups. Dog owners can also take their pups to nearby Checkers Dog Park (0.0 miles) or Sycamore Park (1.3 miles)."
  },
  {
    "name": "Yorba Regional Park",
    "street": "7600 E La Palma Ave",
    "city": "Anaheim",
    "state": "CA",
    "zip": "92807",
    "latitude": 33.8573063,
    "longitude": -117.8319957,
    "description": "At 7600 E La Palma Ave in Anaheim, Yorba Regional Park stands out with 4.7 stars from 3,821 happy dog owners. Open from 7am to 6pm daily, it's easy for dog owners to stop by whenever works best. Looking to mix things up? Olive Hills Dog Park is a nearby dog park 1.2 miles away that's worth exploring with your pup."
  },
  {
    "name": "Discovery Park",
    "street": "14641 Discovery Park Ave",
    "city": "Anaheim",
    "state": "CA",
    "zip": "91708",
    "latitude": 33.9541301,
    "longitude": -117.615178,
    "description": "With 4.8 stars from 65 reviews, Discovery Park at 14641 Discovery Park Ave has become a favorite among Anaheim dog owners. Open from 6am to 10pm daily, dog owners can plan visits around work or their pup's energy level. The consistent ratings suggest dog owners know what to expect here."
  },
  {
    "name": "Anaheim Coves Trail",
    "street": "Anaheim Coves Trail",
    "city": "Anaheim",
    "state": "CA",
    "zip": "92806",
    "latitude": 33.8412754,
    "longitude": -117.8623103,
    "description": "Anaheim dog owners rate Anaheim Coves Trail highly, with 4.7 stars from 82 visits. Open from 7am to 9pm daily, dog owners have plenty of flexibility to plan a visit. Nearby, Pioneer Park (0.9 miles) offers dog owners another great spot to explore with their pups."
  },
  {
    "name": "‍ Eisenhower Park",
    "street": "2864 N Tustin St",
    "city": "Anaheim",
    "state": "CA",
    "zip": "92865",
    "latitude": 33.836975,
    "longitude": -117.835931,
    "description": "At 2864 N Tustin St in Anaheim, Eisenhower Park stands out with 4.6 stars from 2,256 happy dog owners. Open from 5am to 11pm daily, dog owners can plan visits around their pup's favorite times to be active. For more dog park adventures, explore Olive Hills Dog Park (0.5 miles) or Yorba Regional Park (1.4 miles) with your furry companion."
  },
  {
    "name": "Orange Dog Park",
    "street": "190 S Yorba St",
    "city": "Anaheim",
    "state": "CA",
    "zip": "92869",
    "latitude": 33.7860535,
    "longitude": -117.8286061,
    "description": "Located at 190 S Yorba St in Anaheim, Orange Dog Park earns strong marks from local dog owners—4.6 stars from 838 reviews. Dog owners looking for a solid destination will find this park delivers. Dog owners can also take their pups to nearby Santiago Park (2.2 miles) or Mabury Park (2.4 miles)."
  },
  {
    "name": "La Paws Dog Park",
    "street": "25100 Felipe Rd",
    "city": "Anaheim",
    "state": "CA",
    "zip": "92692",
    "latitude": 33.598157,
    "longitude": -117.6381378,
    "description": "La Paws Dog Park (4.6 stars from 776 reviews) is a popular destination for Anaheim dog owners, located at 25100 Felipe Rd. For dog owners in the area, this park has become a trusted spot for time with their pups. A solid track record makes this a reliable choice for dog owners."
  },
  {
    "name": "Peralta Canyon Park",
    "street": "115 N Pinney Dr",
    "city": "Anaheim",
    "state": "CA",
    "zip": "92807",
    "latitude": 33.8523391,
    "longitude": -117.802113,
    "description": "Located at 115 N Pinney Dr in Anaheim, Peralta Canyon Park earns strong marks from local dog owners—4.6 stars from 548 reviews. Open from 5am to 10:30pm daily, dog owners can plan visits around work or their pup's energy level. For a change of scenery, Yorba Regional Park is another dog-friendly destination 1.7 miles from here."
  },
  {
    "name": "Sycamore Park",
    "street": "8268 E Monte Vista Rd",
    "city": "Anaheim",
    "state": "CA",
    "zip": "92807",
    "latitude": 33.86361,
    "longitude": -117.743345,
    "description": "With 4.6 stars from 242 reviews, Sycamore Park at 8268 E Monte Vista Rd has become a favorite among Anaheim dog owners. Open from 5am to 10:30pm daily, there's plenty of opportunity for dog owners to find a time that works. Nearby, Deer Canyon Park (0.8 miles) offers dog owners another great spot to explore with their pups."
  },
  {
    "name": "Anaheim Coves Park",
    "street": "962 S Rio Vista St",
    "city": "Anaheim",
    "state": "CA",
    "zip": "92806",
    "latitude": 33.8268682,
    "longitude": -117.8716173,
    "description": "For dog owners in the Anaheim area, Anaheim Coves Park (962 S Rio Vista St) offers a 4.6-star experience based on 137 reviews. Open from 5am to 8pm daily, dog owners have plenty of flexibility to plan a visit. Looking for more places to take your pup? Juarez Park is another popular dog park just 0.6 miles away."
  },
  {
    "name": "Pearson Park",
    "street": "400 N Harbor Blvd",
    "city": "Anaheim",
    "state": "CA",
    "zip": "92805",
    "latitude": 33.8396587,
    "longitude": -117.9213708,
    "description": "With 4.5 stars across 2,045 reviews, Pearson Park at 400 N Harbor Blvd has clearly won over Anaheim dog owners. Open from 5am to 10:30pm daily, the park accommodates a variety of dog owner schedules and routines. For more dog park adventures, explore Little Peoples Park (0.7 miles) or La Palma Park (0.7 miles) with your furry companion."
  },
  {
    "name": "Irvine Central Bark",
    "street": "6405 Oak Canyon",
    "city": "Anaheim",
    "state": "CA",
    "zip": "92618",
    "latitude": 33.6761401,
    "longitude": -117.7663975,
    "description": "Located at 6405 Oak Canyon in Anaheim, Irvine Central Bark earns strong marks from local dog owners—4.5 stars from 946 reviews. For dog owners in the area, this park has become a trusted spot for time with their pups. More dog-friendly parks nearby include Jeffrey Open Space Trail (2.0 miles) and San Mateo Park (3.5 miles)—perfect for pups who love adventure."
  },
  {
    "name": "Bark Park",
    "street": "890 Arlington Dr",
    "city": "Anaheim",
    "state": "CA",
    "zip": "92626",
    "latitude": 33.669122,
    "longitude": -117.894865,
    "description": "For dog owners in the Anaheim area, Bark Park (890 Arlington Dr) offers a 4.5-star experience based on 667 reviews. Local dog owners appreciate what this park offers their four-legged friends. Dog owners exploring the neighborhood can also bring their furry friends to TeWinkle Park (0.3 miles)."
  },
  {
    "name": "Olive Hills Dog Park",
    "street": "700 N Nohl Canyon Rd",
    "city": "Anaheim",
    "state": "CA",
    "zip": "92807",
    "latitude": 33.839538,
    "longitude": -117.8285673,
    "description": "At 700 N Nohl Canyon Rd in Anaheim, Olive Hills Dog Park has built a loyal following—4.5 stars from 558 dog owner reviews. Dog owners in the area consistently choose this park as a go-to destination for their pups. Dog owners can also take their pups to nearby Eisenhower Park (0.5 miles) or Yorba Regional Park (1.2 miles)."
  },
  {
    "name": "Maxwell Dog Park",
    "street": "2660 W Broadway",
    "city": "Anaheim",
    "state": "CA",
    "zip": "92804",
    "latitude": 33.8286417,
    "longitude": -117.9783784,
    "description": "Anaheim dog owners rate Maxwell Dog Park at 2660 W Broadway highly, with 4.5 stars from 405 visits. Dog owners looking for a solid destination will find this park delivers. More dog-friendly parks nearby include Maxwell Park (0.3 miles) and Brookhurst Park (1.1 miles)—perfect for pups who love adventure."
  },
  {
    "name": "Barker Ranch Dog Park",
    "street": "25650 Baffin Bay Dr",
    "city": "Anaheim",
    "state": "CA",
    "zip": "92630",
    "latitude": 33.668992,
    "longitude": -117.6821491,
    "description": "At 25650 Baffin Bay Dr in Anaheim, Barker Ranch Dog Park has built a loyal following—4.5 stars from 267 dog owner reviews. Open from 7am to 8pm daily, there's plenty of opportunity for dog owners to find a time that works. Other dog parks in the area include Jeffrey Open Space Trail (4.8 miles) and Irvine Central Bark (4.9 miles)—both great for exploring with your four-legged friend."
  },
  {
    "name": "The Park",
    "street": "11298 Stockdale Hwy",
    "city": "Bakersfield",
    "state": "CA",
    "zip": "93311",
    "latitude": 35.3544595,
    "longitude": -119.0978239,
    "description": "With 4.7 stars across 4,156 reviews, The Park at 11298 Stockdale Hwy has clearly won over Bakersfield dog owners. Open from 5am to 10pm daily, the park accommodates a variety of dog owner schedules and routines. Looking to mix things up? River Walk is a nearby dog park 0.3 miles away that's worth exploring with your pup."
  },
  {
    "name": "River Walk",
    "street": "Stockdale Hwy",
    "city": "Bakersfield",
    "state": "CA",
    "zip": "93311",
    "latitude": 35.3544789,
    "longitude": -119.1023307,
    "description": "River Walk is well-regarded by Bakersfield dog owners, holding 4.6 stars across 380 reviews. For dog owners in the area, this park has become a trusted spot for time with their pups. Other dog parks in the area include The Park (0.3 miles) and Kroll Park (1.0 miles)—both great for exploring with your four-legged friend."
  },
  {
    "name": "Mesa Marin Dog Park",
    "street": "",
    "city": "Bakersfield",
    "state": "CA",
    "zip": "",
    "latitude": 35.3738712,
    "longitude": -119.019463,
    "description": "With 4.6 stars from 173 reviews, Mesa Marin Dog Park has become a favorite among Bakersfield dog owners. Open from 5am to 10pm daily, the park works well for dog owners with different schedules. Nearby, Centennial Dog Park (2.1 miles) offers dog owners another great spot to explore with their pups."
  },
  {
    "name": "Highgate dog park",
    "street": "Highgate Pk Blvd",
    "city": "Bakersfield",
    "state": "CA",
    "zip": "93311",
    "latitude": 35.331822,
    "longitude": -119.1629478,
    "description": "For dog owners in the Bakersfield area, Highgate dog park offers a 4.7-star experience based on 19 reviews. Local dog owners appreciate what this park offers their four-legged friends. For a change of scenery, Campus Park is another dog-friendly destination 3.3 miles from here."
  },
  {
    "name": "Pin Oak Park",
    "street": "3101 Pin Oak Park Blvd",
    "city": "Bakersfield",
    "state": "CA",
    "zip": "93311",
    "latitude": 35.32731,
    "longitude": -119.1036005,
    "description": "Pin Oak Park (4.6 stars from 95 reviews) is a popular destination for Bakersfield dog owners, located at 3101 Pin Oak Park Blvd. Open from 5am to 10pm daily, the park accommodates early risers and evening visitors alike. Dog owners can also take their pups to nearby Campus Park (0.4 miles) or Kroll Park (1.8 miles)."
  },
  {
    "name": "Bridle Creek Dog Park",
    "street": "7100 Pine Flat Dr",
    "city": "Bakersfield",
    "state": "CA",
    "zip": "93311",
    "latitude": 35.2909385,
    "longitude": -119.1065643,
    "description": "Bridle Creek Dog Park at 7100 Pine Flat Dr is well-regarded by Bakersfield dog owners, holding 4.6 stars across 85 reviews. Open from 5am to 10pm daily, there's room in the day for dog owners to bring their furry friends. For variety, the neighborhood offers more dog parks to explore: Campus Park (2.1 miles) and Seasons Dog Park (2.5 miles)."
  },
  {
    "name": "Kroll Park",
    "street": "7501 Kroll Way",
    "city": "Bakersfield",
    "state": "CA",
    "zip": "93309",
    "latitude": 35.349603,
    "longitude": -119.08615,
    "description": "With 4.5 stars from 491 reviews, Kroll Park at 7501 Kroll Way has become a favorite among Bakersfield dog owners. Open from 5am to 10pm daily, dog owners can easily fit a visit into busy schedules. Dog owners exploring the neighborhood can also bring their furry friends to The Park (0.7 miles)."
  },
  {
    "name": "Seasons Park",
    "street": "5425 Harris Rd",
    "city": "Bakersfield",
    "state": "CA",
    "zip": "93313",
    "latitude": 35.3031787,
    "longitude": -119.0630338,
    "description": "125 dog owners have reviewed Seasons Park at 5425 Harris Rd in Bakersfield, averaging 4.3 stars. Open from 5am to 10pm daily, dog owners have a window to spend time with their pups. For dog owners who like to explore, Seasons Dog Park (0.1 miles) and Bridle Creek Dog Park (2.6 miles) are both nearby parks to try with your dog."
  },
  {
    "name": "University Park",
    "street": "4301 University Ave",
    "city": "Bakersfield",
    "state": "CA",
    "zip": "93306",
    "latitude": 35.40505,
    "longitude": -118.945235,
    "description": "Dog owners in Bakersfield have made University Park at 4301 University Ave a go-to spot, rating it 4.3 stars across 764 reviews. Open from 5am to 10pm, every day except Wednesday, there's room in the day for dog owners to bring their furry friends. Looking for more places to take your pup? Mesa Marin Dog Park is another popular dog park just 4.7 miles away."
  },
  {
    "name": "Campus Park",
    "street": "3700 Parkview Dr",
    "city": "Bakersfield",
    "state": "CA",
    "zip": "93311",
    "latitude": 35.3217451,
    "longitude": -119.106212,
    "description": "At 3700 Parkview Dr, Campus Park has 4.2 stars based on 149 reviews from Bakersfield dog owners. Open from 5am to 10pm daily, the park is accessible for dog owners in the area. Dog owners might also enjoy Pin Oak Park, another dog park just 0.4 miles away."
  },
  {
    "name": "Centennial Dog Park",
    "street": "401 Fallbrook St",
    "city": "Bakersfield",
    "state": "CA",
    "zip": "93309",
    "latitude": 35.359882,
    "longitude": -119.053,
    "description": "Centennial Dog Park at 401 Fallbrook St in Bakersfield has 4.2 stars from 217 dog owner reviews. Open from 5am to 10pm daily, local dog owners have time to explore with their furry companions. Dog owners might also enjoy Centennial Park, another dog park just 0.1 miles away."
  },
  {
    "name": "Seasons Dog Park",
    "street": "5601 Harris Rd",
    "city": "Bakersfield",
    "state": "CA",
    "zip": "93313",
    "latitude": 35.3031865,
    "longitude": -119.0645633,
    "description": "Dog owners in Bakersfield have rated Seasons Dog Park (5601 Harris Rd) 4.1 stars across 149 reviews. Open from 5am to 10pm daily, dog owners can stop by when it fits their schedule. Nearby dog parks worth exploring with your pup include Seasons Park (0.1 miles) and Bridle Creek Dog Park (2.5 miles)."
  },
  {
    "name": "Centennial Park",
    "street": "400 Montclair St",
    "city": "Bakersfield",
    "state": "CA",
    "zip": "93309",
    "latitude": 35.359043,
    "longitude": -119.054461,
    "description": "At 400 Montclair St, Centennial Park has 4.1 stars based on 427 reviews from Bakersfield dog owners. Open from 5am to 10pm daily, the park is accessible for dog owners in the area. For pups who want more adventure, Centennial Dog Park is a nearby dog park worth visiting (0.1 miles)."
  },
  {
    "name": "Wilson Park",
    "street": "2400 Wilson Rd",
    "city": "Bakersfield",
    "state": "CA",
    "zip": "93304",
    "latitude": 35.332279,
    "longitude": -119.0291356,
    "description": "At 2400 Wilson Rd in Bakersfield, Wilson Park welcomes dog owners from the surrounding neighborhood. Open from 5am to 10pm daily, dog owners can stop by when it fits their schedule. More dog parks in the area include Centennial Dog Park (2.3 miles) and Centennial Park (2.3 miles)—great options for mixing up your pup's routine."
  },
  {
    "name": "Coffee Road Small Dog Park",
    "street": "6101 Coffee Rd",
    "city": "Bakersfield",
    "state": "CA",
    "zip": "93308",
    "latitude": 35.4142838,
    "longitude": -119.0923208,
    "description": "For dog owners near 6101 Coffee Rd in Bakersfield, Coffee Road Small Dog Park provides a convenient spot to take their dogs. Open from 5am to 10pm daily, dog owners have flexibility to plan a visit with their four-legged friends. Dog owners looking for variety can also visit The Park (4.1 miles) or River Walk (4.2 miles) with their four-legged friends."
  },
  {
    "name": "Mother Miguel Mountain Trailhe",
    "street": "2345 Paseo",
    "city": "Chula Vista",
    "state": "CA",
    "zip": "91914",
    "latitude": 32.6721784,
    "longitude": -116.9719702,
    "description": "With 4.8 stars from 612 reviews, Mother Miguel Mountain Trailhe at 2345 Paseo Los Gatos has become a favorite among Chula Vista dog owners. Open from 6am to 10pm daily, there's room in the day for dog owners to bring their furry friends. Dog owners exploring the neighborhood can also bring their furry friends to Mount San Miguel Park (0.1 miles)."
  },
  {
    "name": "Mount San Miguel Park",
    "street": "2335 Paseo",
    "city": "Chula Vista",
    "state": "CA",
    "zip": "91914",
    "latitude": 32.6709996,
    "longitude": -116.9739436,
    "description": "Dog owners in Chula Vista have made Mount San Miguel Park at 2335 Paseo Veracruz a go-to spot, rating it 4.7 stars across 770 reviews. Open from 5am to 10pm daily, there's room in the day for dog owners to bring their furry friends. Dog owners can also take their pups to nearby Mother Miguel Mountain Trailhe (0.1 miles) or Montevalle Recreation Center (1.8 miles)."
  },
  {
    "name": "Montevalle Recreation Center",
    "street": "840 Duncan Ranch Rd",
    "city": "Chula Vista",
    "state": "CA",
    "zip": "91914",
    "latitude": 32.656424,
    "longitude": -116.949287,
    "description": "Located at 840 Duncan Ranch Rd in Chula Vista, Montevalle Recreation Center earns strong marks from local dog owners—4.7 stars from 539 reviews. Dog owners in the area consistently choose this park as a go-to destination for their pups. For a change of scenery, Mother Miguel Mountain Trailhe is another dog-friendly destination 1.7 miles from here."
  },
  {
    "name": "Otay Lakes County Park",
    "street": "2270 Wueste Rd",
    "city": "Chula Vista",
    "state": "CA",
    "zip": "91915",
    "latitude": 32.6283386,
    "longitude": -116.9333477,
    "description": "Otay Lakes County Park (4.7 stars from 435 reviews) is a popular destination for Chula Vista dog owners, located at 2270 Wueste Rd. Open from 9:30am to 5pm daily, dog owners can easily fit a visit into busy schedules. For variety, the neighborhood offers more dog parks to explore: Chula Vista Community Park (1.8 miles) and Stylus Park (1.8 miles)."
  },
  {
    "name": "Imperial Beach Dog Park",
    "street": "",
    "city": "Chula Vista",
    "state": "CA",
    "zip": "",
    "latitude": 32.583893,
    "longitude": -117.1130487,
    "description": "In Chula Vista, Imperial Beach Dog Park has built a loyal following—4.7 stars from 31 dog owner reviews. Local dog owners appreciate what this park offers their four-legged friends. Looking for more places to take your pup? Harborside Park is another popular dog park just 2.3 miles away."
  },
  {
    "name": "Millenia Park",
    "street": "1902 Millenia Ave",
    "city": "Chula Vista",
    "state": "CA",
    "zip": "91915",
    "latitude": 32.612684,
    "longitude": -116.9667922,
    "description": "Millenia Park at 1902 Millenia Ave is well-regarded by Chula Vista dog owners, holding 4.7 stars across 29 reviews. Dog owners frequent this park for its consistent quality and welcoming atmosphere. Dog owners exploring the neighborhood can also bring their furry friends to Wolf Canyon Park (0.5 miles)."
  },
  {
    "name": "Veterans Park",
    "street": "785 Davies Dr",
    "city": "Chula Vista",
    "state": "CA",
    "zip": "91911",
    "latitude": 32.6147109,
    "longitude": -117.023929,
    "description": "Dog owners in Chula Vista have made Veterans Park at 785 Davies Dr a go-to spot, rating it 4.9 stars across 8 reviews. Dog owners frequent this park for its consistent quality and welcoming atmosphere. Dog owners can also take their pups to nearby Horizon Park (0.7 miles) or Palomar Park (0.9 miles)."
  },
  {
    "name": "Rohr Park",
    "street": "4548 Sweetwater Rd",
    "city": "Chula Vista",
    "state": "CA",
    "zip": "91902",
    "latitude": 32.6722085,
    "longitude": -117.0253551,
    "description": "With 4.6 stars across 2,736 reviews, Rohr Park at 4548 Sweetwater Rd has clearly won over Chula Vista dog owners. Open from 7am to 10pm daily, the park accommodates a variety of dog owner schedules and routines. Other popular dog parks nearby include Rohr Dog Park (1.0 miles) and Southbay Townhome dog park (1.2 miles)—both favorites among local pup parents."
  },
  {
    "name": "Chula Vista Bayfront Park",
    "street": "980 Marina Way",
    "city": "Chula Vista",
    "state": "CA",
    "zip": "91910",
    "latitude": 32.6211843,
    "longitude": -117.0986581,
    "description": "Dog owners in Chula Vista have embraced Chula Vista Bayfront Park (980 Marina Way) as a top destination—4.6 stars from 2,187 visits. Open from 6am to 10:30pm daily, dog owners can easily fit a visit into their day, whether morning or evening. For variety, many dog owners also bring their furry friends to Chula Vista Marina View Park (0.2 miles)—another great dog park in the area."
  },
  {
    "name": "Horizon Park",
    "street": "970 E Palomar St",
    "city": "Chula Vista",
    "state": "CA",
    "zip": "91913",
    "latitude": 32.617342,
    "longitude": -117.01301,
    "description": "With 4.6 stars from 218 reviews, Horizon Park at 970 E Palomar St has become a favorite among Chula Vista dog owners. Open from 6am to 10:30pm daily, there's room in the day for dog owners to bring their furry friends. More dog-friendly parks nearby include Veterans Park (0.7 miles) and Wisteria Park (0.9 miles)—perfect for pups who love adventure."
  },
  {
    "name": "All Seasons Park",
    "street": "1825 Magdalena Ave",
    "city": "Chula Vista",
    "state": "CA",
    "zip": "91913",
    "latitude": 32.6126898,
    "longitude": -116.9757553,
    "description": "Dog owners in Chula Vista have made All Seasons Park at 1825 Magdalena Ave a go-to spot, rating it 4.6 stars across 215 reviews. Open from 6am to 6pm daily, dog owners can plan visits around work or their pup's energy level. For variety, the neighborhood offers more dog parks to explore: Wolf Canyon Park (0.1 miles) and Millenia Park (0.5 miles)."
  },
  {
    "name": "Escaya Park",
    "street": "1075 Camino Prado",
    "city": "Chula Vista",
    "state": "CA",
    "zip": "91913",
    "latitude": 32.5976068,
    "longitude": -116.9997622,
    "description": "For dog owners in the Chula Vista area, Escaya Park (1075 Camino Prado) offers a 4.6-star experience based on 61 reviews. Dog owners frequent this park for its consistent quality and welcoming atmosphere. Other dog parks in the area include Jacaranda Park (1.0 miles) and Horizon Park (1.6 miles)—both great for exploring with your four-legged friend."
  },
  {
    "name": "Santa Cora Park",
    "street": "1365 Santa Cora Ave",
    "city": "Chula Vista",
    "state": "CA",
    "zip": "91913",
    "latitude": 32.630367,
    "longitude": -116.9855742,
    "description": "Chula Vista dog owners rate Santa Cora Park at 1365 Santa Cora Ave highly, with 4.6 stars from 29 visits. Open from 6:30am to 10pm daily, the park works well for dog owners with different schedules. Looking for more places to take your pup? Cottonwood Park is another popular dog park just 0.2 miles away."
  },
  {
    "name": "Mount San Miguel Community",
    "street": "",
    "city": "Chula Vista",
    "state": "CA",
    "zip": "",
    "latitude": 32.6400541,
    "longitude": -117.084195,
    "description": "Mount San Miguel Community is well-regarded by Chula Vista dog owners, holding 4.5 stars across 14 reviews. The park serves dog owners well, providing a destination the community values. For a change of scenery, Town Center Dog Park is another dog-friendly destination 0.0 miles from here."
  },
  {
    "name": "Mulberry Park",
    "street": "Otay Ranch",
    "city": "Chula Vista",
    "state": "CA",
    "zip": "91913",
    "latitude": 32.6247378,
    "longitude": -116.9645581,
    "description": "Chula Vista dog owners rate Mulberry Park highly, with 4.5 stars from 35 visits. Open from 7am to 9pm daily, dog owners can easily fit a visit into busy schedules. Other dog parks in the area include Stylus Park (0.0 miles) and Chula Vista Community Park (0.0 miles)—both great for exploring with your four-legged friend."
  },
  {
    "name": "Stylus Park",
    "street": "Otay Ranch",
    "city": "Chula Vista",
    "state": "CA",
    "zip": "91915",
    "latitude": 32.6247378,
    "longitude": -116.9645581,
    "description": "Dog owners in Chula Vista have made Stylus Park a go-to spot, rating it 4.5 stars across 40 reviews. Open from 7am to 10pm daily, dog owners have plenty of flexibility to plan a visit. Other dog parks in the area include Mulberry Park (0.0 miles) and Chula Vista Community Park (0.0 miles)—both great for exploring with your four-legged friend."
  },
  {
    "name": "Fontana Park",
    "street": "15723 Parkhouse Dr",
    "city": "Fontana",
    "state": "CA",
    "zip": "92336",
    "latitude": 34.1526123,
    "longitude": -117.4619528,
    "description": "Fontana Park (4.8 stars from 275 reviews) is a popular destination for Fontana dog owners, located at 15723 Parkhouse Dr. Open from 6am to 8pm daily, dog owners can easily fit a visit into busy schedules. For variety, the neighborhood offers more dog parks to explore: Fontana Park (0.3 miles) and Coyote Canyon Park (0.8 miles)."
  },
  {
    "name": "‍ Fontana Park",
    "street": "15556 Summit Ave",
    "city": "Fontana",
    "state": "CA",
    "zip": "92336",
    "latitude": 34.1503198,
    "longitude": -117.4669435,
    "description": "Fontana Park (4.7 stars from 297 reviews) is a popular destination for Fontana dog owners, located at 15556 Summit Ave. The park serves dog owners well, providing a destination the community values. Other dog parks in the area include Fontana Park (0.3 miles) and Coyote Canyon Park (0.9 miles)—both great for exploring with your four-legged friend."
  },
  {
    "name": "Oak Park",
    "street": "14180 Live Oak Ave",
    "city": "Fontana",
    "state": "CA",
    "zip": "92337",
    "latitude": 34.0465127,
    "longitude": -117.4806239,
    "description": "Dog owners in Fontana have made Oak Park at 14180 Live Oak Ave a go-to spot, rating it 4.6 stars across 117 reviews. Open from 7am to 10pm daily, there's plenty of opportunity for dog owners to find a time that works. Dog owners can also take their pups to nearby Village Park (1.0 miles) or Chaparral Park (1.2 miles)."
  },
  {
    "name": "Patricia Murray Park",
    "street": "8040 Jamestown Cir",
    "city": "Fontana",
    "state": "CA",
    "zip": "92336",
    "latitude": 34.1076167,
    "longitude": -117.5128037,
    "description": "At 8040 Jamestown Cir in Fontana, Patricia Murray Park has built a loyal following—4.6 stars from 70 dog owner reviews. Local dog owners appreciate what this park offers their four-legged friends. Nearby, Koehler Park (2.4 miles) offers dog owners another great spot to explore with their pups."
  },
  {
    "name": "‍ Gabriella Park",
    "street": "San Jacinto Ave",
    "city": "Fontana",
    "state": "CA",
    "zip": "92336",
    "latitude": 34.1181577,
    "longitude": -117.4547183,
    "description": "For dog owners in the Fontana area, Gabriella Park offers a 4.6-star experience based on 48 reviews. Open from 8am to 5pm, Mon through Thu, dog owners have plenty of flexibility to plan a visit. For a change of scenery, Almeria Park is another dog-friendly destination 0.4 miles from here."
  },
  {
    "name": "‍ Koehler Park",
    "street": "15352 Walnut St",
    "city": "Fontana",
    "state": "CA",
    "zip": "92336",
    "latitude": 34.127697,
    "longitude": -117.4775712,
    "description": "Fontana dog owners rate Koehler Park at 15352 Walnut St highly, with 4.5 stars from 495 visits. Open from 9am to 10pm daily, there's plenty of opportunity for dog owners to find a time that works. For a change of scenery, Almeria Park is another dog-friendly destination 1.1 miles from here."
  },
  {
    "name": "Sierra Crest Park",
    "street": "4860 Condor Ave",
    "city": "Fontana",
    "state": "CA",
    "zip": "92336",
    "latitude": 34.165705,
    "longitude": -117.43335,
    "description": "Sierra Crest Park (4.5 stars from 45 reviews) is a popular destination for Fontana dog owners, located at 4860 Condor Ave. The park serves dog owners well, providing a destination the community values. Other dog parks in the area include Fontana Park (1.9 miles) and Coyote Canyon Park (1.9 miles)—both great for exploring with your four-legged friend."
  },
  {
    "name": "Coyote Canyon Park",
    "street": "5065 Coyote Canyon Rd",
    "city": "Fontana",
    "state": "CA",
    "zip": "92336",
    "latitude": 34.163327,
    "longitude": -117.466371,
    "description": "At 5065 Coyote Canyon Rd, Coyote Canyon Park has 4.4 stars based on 269 reviews from Fontana dog owners. Open from 8am to 10pm daily, the park gives dog owners in the neighborhood time to bring their pups. Nearby dog parks worth exploring with your pup include Fontana Park (0.8 miles) and Fontana Park (0.9 miles)."
  },
  {
    "name": "Fontana Dog Park",
    "street": "",
    "city": "Fontana",
    "state": "CA",
    "zip": "",
    "latitude": 34.0922947,
    "longitude": -117.43433,
    "description": "Fontana Dog Park in Fontana has 4.4 stars from 287 dog owner reviews. Open from 7am to 10pm daily, local dog owners have time to explore with their furry companions. For dog owners who like to explore, Veterans Park (0.4 miles) and Fernandez Park (2.0 miles) are both nearby parks to try with your dog."
  },
  {
    "name": "Village Park",
    "street": "15601 Village Dr E",
    "city": "Fontana",
    "state": "CA",
    "zip": "92337",
    "latitude": 34.0430877,
    "longitude": -117.4644798,
    "description": "At 15601 Village Dr E in Fontana, Village Park carries 4.4 stars from 390 dog owner reviews. The neighborhood benefits from having this park as an option for dog owners and their pups. Nearby dog parks worth exploring with your pup include Oak Park (1.0 miles) and Chaparral Park (2.1 miles)."
  },
  {
    "name": "Almeria Park",
    "street": "7250 Almeria Ave",
    "city": "Fontana",
    "state": "CA",
    "zip": "92336",
    "latitude": 34.121849,
    "longitude": -117.460319,
    "description": "Dog owners in Fontana have made Almeria Park at 7250 Almeria Ave a go-to spot, rating it 4.4 stars across 728 reviews. Open from 7am to 10pm daily, there's room in the day for dog owners to bring their furry friends. Nearby, Gabriella Park (0.4 miles) offers dog owners another great spot to explore with their pups."
  },
  {
    "name": "Fernandez Park",
    "street": "18006 Miller Ave",
    "city": "Fontana",
    "state": "CA",
    "zip": "92336",
    "latitude": 34.1140909,
    "longitude": -117.4117075,
    "description": "392 dog owners have reviewed Fernandez Park at 18006 Miller Ave in Fontana, averaging 4.3 stars. Open from 8am to 6pm daily, dog owners have a window to spend time with their pups. For dog owners who like to explore, Cambria Park (1.7 miles) and Veterans Park (1.8 miles) are both nearby parks to try with your dog."
  },
  {
    "name": "‍ Veterans Park",
    "street": "17255 Merrill Ave",
    "city": "Fontana",
    "state": "CA",
    "zip": "92335",
    "latitude": 34.092073,
    "longitude": -117.4278909,
    "description": "Fontana dog owners rate Veterans Park at 17255 Merrill Ave highly, with 4.3 stars from 1,162 visits. Dog owners frequent this park for its consistent quality and welcoming atmosphere. For variety, the neighborhood offers more dog parks to explore: Fontana Dog Park (0.4 miles) and Fernandez Park (1.8 miles)."
  },
  {
    "name": "Cambria Park",
    "street": "17140 Cambria Ave",
    "city": "Fontana",
    "state": "CA",
    "zip": "92336",
    "latitude": 34.1326715,
    "longitude": -117.430638,
    "description": "Located at 17140 Cambria Ave, Cambria Park in Fontana is rated 4.2 stars by 65 dog owners. Open from 8am to 8pm daily, dog owners have a window to spend time with their pups. Dog owners in the neighborhood can also take their furry friends to Fernandez Park, 1.7 miles away."
  },
  {
    "name": "Chaparral Park",
    "street": "11415 Rancherias Dr",
    "city": "Fontana",
    "state": "CA",
    "zip": "92337",
    "latitude": 34.0455441,
    "longitude": -117.5017283,
    "description": "122 dog owners have reviewed Chaparral Park at 11415 Rancherias Dr in Fontana, averaging 4.2 stars. Open from 8am to 6pm, Mon through Thu, local dog owners have time to explore with their furry companions. Dog owners looking for variety can also visit Oak Park (1.2 miles) or Village Park (2.1 miles) with their four-legged friends."
  },
  {
    "name": "McCandless Park",
    "street": "1576 McCandless Dr",
    "city": "Fremont",
    "state": "CA",
    "zip": "95035",
    "latitude": 37.4087653,
    "longitude": -121.8994756,
    "description": "McCandless Park (4.9 stars from 36 reviews) is a popular destination for Fremont dog owners, located at 1576 McCandless Dr. Open from 7am to 10pm daily, there's room in the day for dog owners to bring their furry friends. Dog owners can also take their pups to nearby Iris Chang Park (1.3 miles) or Moitozo Park (2.1 miles)."
  },
  {
    "name": "Lila Bringhurst Community Park",
    "street": "45051 Wisdom Rd",
    "city": "Fremont",
    "state": "CA",
    "zip": "94538",
    "latitude": 37.5002573,
    "longitude": -121.9452389,
    "description": "Located at 45051 Wisdom Rd in Fremont, Lila Bringhurst Community Park earns strong marks from local dog owners—4.9 stars from 29 reviews. The park has earned its reputation among dog owners in the neighborhood as a reliable choice. For a change of scenery, Mission Peak Regional Preserve is another dog-friendly destination 2.4 miles from here."
  },
  {
    "name": "Dog Park",
    "street": "1990 Stevenson Blvd",
    "city": "Fremont",
    "state": "CA",
    "zip": "94538",
    "latitude": 37.5532177,
    "longitude": -121.9704957,
    "description": "Dog Park (4.9 stars from 9 reviews) is a popular destination for Fremont dog owners, located at 1990 Stevenson Blvd. Local dog owners appreciate what this park offers their four-legged friends. Other dog parks in the area include Central Park (0.1 miles) and Cabrillo Trail Park (1.0 miles)—both great for exploring with your four-legged friend."
  },
  {
    "name": "Mission Peak Regional Preserve",
    "street": "43600 Mission Boulevard",
    "city": "Fremont",
    "state": "CA",
    "zip": "94539",
    "latitude": 37.527815,
    "longitude": -121.918358,
    "description": "Local dog owners love Mission Peak Regional Preserve at 43600 Mission Boulevard in Fremont—4.7 stars from an impressive 4,418 reviews. Open from 6:30am to 9pm daily, it's easy for dog owners to stop by whenever works best. Looking to mix things up? Lila Bringhurst Community Park is a nearby dog park 2.4 miles away that's worth exploring with your pup."
  },
  {
    "name": "Coyote Hills Regional Park",
    "street": "8000 Patterson Ranch Rd",
    "city": "Fremont",
    "state": "CA",
    "zip": "94555",
    "latitude": 37.5498099,
    "longitude": -122.0858351,
    "description": "With 4.7 stars across 3,092 reviews, Coyote Hills Regional Park at 8000 Patterson Ranch Rd has clearly won over Fremont dog owners. Open from 8am to 8pm daily, dog owners have plenty of flexibility to visit when it suits their schedule. Other popular dog parks nearby include Newbark Dog Park (2.4 miles) and Crandall Creek Park (2.9 miles)—both favorites among local pup parents."
  },
  {
    "name": "Ed R. Levin County Park",
    "street": "3100 Calaveras Rd",
    "city": "Fremont",
    "state": "CA",
    "zip": "95035",
    "latitude": 37.4474469,
    "longitude": -121.8444807,
    "description": "With 4.7 stars across 2,651 reviews, Ed R. Levin County Park at 3100 Calaveras Rd has clearly won over Fremont dog owners. Dog owners in the area know they can count on this park for quality time with their pups. Nearby, City of Milpitas Dog Park (1.1 miles) is another dog park favorite where you can take your four-legged friend."
  },
  {
    "name": "Cabrillo Trail Park",
    "street": "",
    "city": "Fremont",
    "state": "CA",
    "zip": "",
    "latitude": 37.5482697,
    "longitude": -121.988571,
    "description": "Dog owners in Fremont have made Cabrillo Trail Park a go-to spot, rating it 4.6 stars across 25 reviews. Open from 6am to 10pm daily, there's plenty of opportunity for dog owners to find a time that works. For variety, the neighborhood offers more dog parks to explore: Dog Park (1.0 miles) and Central Park (1.2 miles)."
  },
  {
    "name": "Quarry Lakes Regional Recreati",
    "street": "2100 Isherwood Way",
    "city": "Fremont",
    "state": "CA",
    "zip": "94536",
    "latitude": 37.5704897,
    "longitude": -122.0156859,
    "description": "With 4.6 stars across 1,954 reviews, Quarry Lakes Regional Recreati at 2100 Isherwood Way has clearly won over Fremont dog owners. Open from 7am to 5pm daily, the park accommodates a variety of dog owner schedules and routines. Nearby, Patterson Park (1.0 miles) is another dog park favorite where you can take your four-legged friend."
  },
  {
    "name": "Crandall Creek Park",
    "street": "34665 Allegheny Ct",
    "city": "Fremont",
    "state": "CA",
    "zip": "94555",
    "latitude": 37.5695878,
    "longitude": -122.0395937,
    "description": "At 34665 Allegheny Ct in Fremont, Crandall Creek Park has built a loyal following—4.5 stars from 180 dog owner reviews. Dog owners frequent this park for its consistent quality and welcoming atmosphere. Dog owners exploring the neighborhood can also bring their furry friends to Patterson Park (0.6 miles)."
  },
  {
    "name": "Rancho Arroyo Park",
    "street": "Montecito Dr",
    "city": "Fremont",
    "state": "CA",
    "zip": "94536",
    "latitude": 37.5744756,
    "longitude": -121.9946493,
    "description": "Rancho Arroyo Park in Fremont has 4.4 stars based on 99 reviews from dog owners. Open from 6am to 9pm daily, the park gives dog owners in the neighborhood time to bring their pups. Dog owners might also enjoy Quarry Lakes Regional Recreati, another dog park just 1.2 miles away."
  },
  {
    "name": "Blacow Park",
    "street": "40404 Sundale Dr",
    "city": "Fremont",
    "state": "CA",
    "zip": "94538",
    "latitude": 37.5280549,
    "longitude": -121.9765171,
    "description": "Dog owners in Fremont have rated Blacow Park (40404 Sundale Dr) 4.3 stars across 143 reviews. Open from 6am to 8pm daily, the park gives dog owners in the neighborhood time to bring their pups. Dog owners might also enjoy Cabrillo Trail Park, another dog park just 1.5 miles away."
  },
  {
    "name": "Patterson Park",
    "street": "35475 Cabrillo Dr",
    "city": "Fremont",
    "state": "CA",
    "zip": "94536",
    "latitude": 37.5627303,
    "longitude": -122.0318815,
    "description": "Patterson Park at 35475 Cabrillo Dr holds a 4.2-star rating from 90 Fremont dog owner visits. The park gives neighborhood dog owners a destination for outings with their four-legged friends. Dog owners looking for variety can also visit Crandall Creek Park (0.6 miles) or Newbark Dog Park (1.0 miles) with their four-legged friends."
  },
  {
    "name": "Drigon Dog Park",
    "street": "34666 7th StUnion City",
    "city": "Fremont",
    "state": "CA",
    "zip": "94587",
    "latitude": 37.595794,
    "longitude": -122.0126542,
    "description": "259 dog owners have reviewed Drigon Dog Park at 34666 7th St in Fremont, averaging 4.2 stars. Open from 6am to 10pm, Tuesday through Sunday, dog owners in the area can work a visit into their day. For pups who want more adventure, Quarry Lakes Regional Recreati is a nearby dog park worth visiting (1.8 miles)."
  },
  {
    "name": "Woodward Park",
    "street": "7775 N Friant Rd",
    "city": "‍ Fresno",
    "state": "CA",
    "zip": "93720",
    "latitude": 36.7394421,
    "longitude": -119.78483,
    "description": "With 4.6 stars across 1,394 reviews, Woodward Park at 7775 N Friant Rd has clearly won over Fresno dog owners. Open from 7am to 10pm daily, the park is convenient for before work, after work, or weekend adventures. Keep the adventure going at other nearby dog parks like Roeding Park (2.1 miles) or Lafayette Park (2.5 miles)."
  },
  {
    "name": "Figarden Loop Park",
    "street": "4265 N Figarden Dr",
    "city": "‍ Fresno",
    "state": "CA",
    "zip": "93722",
    "latitude": 36.8296491,
    "longitude": -119.8673436,
    "description": "Fresno dog owners rate Figarden Loop Park at 4265 N Figarden Dr highly, with 4.5 stars from 948 visits. Open from 8am to 10pm daily, the park accommodates early risers and evening visitors alike. More dog-friendly parks nearby include Basin \"I\" Park (1.0 miles) and Stallion Park (1.3 miles)—perfect for pups who love adventure."
  },
  {
    "name": "‍ Todd Beamer Park",
    "street": "1890 E Plymouth Way",
    "city": "‍ Fresno",
    "state": "CA",
    "zip": "93720",
    "latitude": 36.877747,
    "longitude": -119.7515742,
    "description": "Todd Beamer Park (4.5 stars from 550 reviews) is a popular destination for Fresno dog owners, located at 1890 E Plymouth Way. Open from 9am to 8pm daily, the park offers flexibility for dog owners with varying routines. Dog owners can also take their pups to nearby Todd Beamer Dog Park (0.1 miles) or First & Bullard (O) Dog Park (1.9 miles)."
  },
  {
    "name": "Bob Belcher Park",
    "street": "2158 E Alluvial Ave",
    "city": "‍ Fresno",
    "state": "CA",
    "zip": "93720",
    "latitude": 36.8447104,
    "longitude": -119.7446817,
    "description": "At 2158 E Alluvial Ave in Fresno, Bob Belcher Park has built a loyal following—4.5 stars from 233 dog owner reviews. Open from 7:45am to 9pm daily, dog owners can plan visits around work or their pup's energy level. More dog-friendly parks nearby include First & Bullard (O) Dog Park (1.6 miles) and Todd Beamer Dog Park (2.3 miles)—perfect for pups who love adventure."
  },
  {
    "name": "Roeding Park",
    "street": "890 W Belmont Ave",
    "city": "‍ Fresno",
    "state": "CA",
    "zip": "93728",
    "latitude": 36.750348,
    "longitude": -119.8207679,
    "description": "At 890 W Belmont Ave in Fresno, Roeding Park has built a loyal following—4.4 stars from 1,586 dog owner reviews. Open from 7am to 7pm daily, dog owners can easily fit a visit into busy schedules. Nearby, Basin XX Park (1.2 miles) offers dog owners another great spot to explore with their pups."
  },
  {
    "name": "Basin AH1 Dog Park",
    "street": "4257 W Alamos Ave",
    "city": "‍ Fresno",
    "state": "CA",
    "zip": "93722",
    "latitude": 36.8053662,
    "longitude": -119.8678304,
    "description": "297 dog owners have reviewed Basin AH1 Dog Park at 4257 W Alamos Ave in Fresno, averaging 4.4 stars. Open from 7am to 10pm daily, the park fits conveniently into different routines. Nearby dog parks worth exploring with your pup include Basin \"I\" Park (1.4 miles) and Figarden Loop Park (1.7 miles)."
  },
  {
    "name": "Koligian Park",
    "street": "5165 W Alluvial Ave",
    "city": "‍ Fresno",
    "state": "CA",
    "zip": "93722",
    "latitude": 36.8441583,
    "longitude": -119.884783,
    "description": "Located at 5165 W Alluvial Ave, Koligian Park in Fresno is rated 4.4 stars by 242 dog owners. Open from 6am to 10:30pm daily, dog owners have flexibility to plan a visit with their four-legged friends. Dog owners might also enjoy Stallion Park, another dog park just 1.3 miles away."
  },
  {
    "name": "Todd Beamer Dog Park",
    "street": "2050 E Plymouth Way",
    "city": "‍ Fresno",
    "state": "CA",
    "zip": "93720",
    "latitude": 36.877753,
    "longitude": -119.7495278,
    "description": "Dog owners in Fresno have rated Todd Beamer Dog Park (2050 E Plymouth Way) 4.4 stars across 172 reviews. This park provides dog owners in the community with a place to visit with their dogs. Dog owners in the neighborhood can also take their furry friends to Todd Beamer Park, 0.1 miles away."
  },
  {
    "name": "Woodward Dog Park",
    "street": "Woodward Park",
    "city": "‍ Fresno",
    "state": "CA",
    "zip": "93720",
    "latitude": 36.8609871,
    "longitude": -119.7829226,
    "description": "Woodward Dog Park in Fresno has 4.3 stars from 14 dog owner reviews. The park gives neighborhood dog owners a destination for outings with their four-legged friends. Dog owners might also enjoy First & Bullard (O) Dog Park, another dog park just 0.8 miles away."
  },
  {
    "name": "Basin \"I\" Park",
    "street": "W Morris Ave",
    "city": "‍ Fresno",
    "state": "CA",
    "zip": "93711",
    "latitude": 36.8219127,
    "longitude": -119.8525366,
    "description": "Basin \"I\" Park in Fresno has 4.1 stars based on 19 reviews from dog owners. Open from 7am to 9pm daily, the park is accessible for dog owners in the area. Dog owners in the neighborhood can also take their furry friends to Figarden Loop Park, 1.0 miles away."
  },
  {
    "name": "Sierra Bicentennial Dog Park",
    "street": "100 N Sunnyside Ave",
    "city": "‍ Fresno",
    "state": "CA",
    "zip": "93612",
    "latitude": 36.8070098,
    "longitude": -119.6907954,
    "description": "Located at 100 N Sunnyside Ave, Sierra Bicentennial Dog Park in Fresno is rated 4.1 stars by 27 dog owners. The neighborhood benefits from having this park as an option for dog owners and their pups. Dog owners might also enjoy Frick Park, another dog park just 3.3 miles away."
  },
  {
    "name": "Stallion Park",
    "street": "6245 N Polk Ave",
    "city": "‍ Fresno",
    "state": "CA",
    "zip": "93722",
    "latitude": 36.8255096,
    "longitude": -119.8897225,
    "description": "Stallion Park at 6245 N Polk Ave in Fresno has 4.2 stars from 234 dog owner reviews. Open from 7am to 10pm daily, the park is accessible for dog owners in the area. Dog owners looking for variety can also visit Figarden Loop Park (1.3 miles) or Koligian Park (1.3 miles) with their four-legged friends."
  },
  {
    "name": "Dr. James W. Thornton Dog Park",
    "street": "3934 N Hayston Ave",
    "city": "‍ Fresno",
    "state": "CA",
    "zip": "93726",
    "latitude": 36.7891598,
    "longitude": -119.747539,
    "description": "At 3934 N Hayston Ave in Fresno, Dr. James W. Thornton Dog Park carries 4.1 stars from 170 dog owner reviews. Open from 7am to 7pm daily, dog owners have flexibility to plan a visit with their four-legged friends. Dog owners in the neighborhood can also take their furry friends to Frick Park, 0.5 miles away."
  },
  {
    "name": "Jaswant Singh Khalra Neighborh",
    "street": "3861 W Clinton Ave",
    "city": "‍ Fresno",
    "state": "CA",
    "zip": "93722",
    "latitude": 36.7706919,
    "longitude": -119.8599895,
    "description": "Located at 3861 W Clinton Ave in Fresno, Jaswant Singh Khalra Neighborh earns strong marks from local dog owners—4.1 stars from 667 reviews. Open from 8am to 10pm daily, dog owners can easily fit a visit into busy schedules. Nearby, Basin XX Park (1.4 miles) offers dog owners another great spot to explore with their pups."
  },
  {
    "name": "First & Bullard (O) Dog Park",
    "street": "5779 N Bond St",
    "city": "‍ Fresno",
    "state": "CA",
    "zip": "93710",
    "latitude": 36.8549775,
    "longitude": -119.7711474,
    "description": "Dog owners in the Fresno area will find First & Bullard (O) Dog Park at 5779 N Bond St—a local option for spending time with their pups. The park gives neighborhood dog owners a destination for outings with their four-legged friends. Dog owners in the neighborhood can also take their furry friends to Woodward Dog Park, 0.8 miles away."
  },
  {
    "name": "‍ Frick Park",
    "street": "4298 N Barton Ave",
    "city": "‍ Fresno",
    "state": "CA",
    "zip": "93726",
    "latitude": 36.795769,
    "longitude": -119.749634,
    "description": "Located at 4298 N Barton Ave, Frick Park offers Fresno dog owners a neighborhood destination for their four-legged friends. Dog owners in the area appreciate having a local spot to bring their pups. For dog owners who like to explore, Dr. James W. Thornton Dog Park (0.5 miles) and Manchester Park (2.0 miles) are both nearby parks to try with your dog."
  },
  {
    "name": "Whitnall Highway Off-Leash",
    "street": "5753 Whitnall Hwy",
    "city": "Glendale",
    "state": "CA",
    "zip": "91601",
    "latitude": 34.175711,
    "longitude": -118.3618038,
    "description": "Glendale dog owners rate Whitnall Highway Off-Leash at 5753 Whitnall Hwy highly, with 4.5 stars from 251 visits. Open from 7am to 10pm daily, there's room in the day for dog owners to bring their furry friends. Other dog parks in the area include Dog Park (2.1 miles) and Laurel Canyon Dog Park (3.8 miles)—both great for exploring with your four-legged friend."
  },
  {
    "name": "Huntington Beach Central Park",
    "street": "6741 Central Park Dr",
    "city": "Huntington Beach",
    "state": "CA",
    "zip": "92647",
    "latitude": 33.7009367,
    "longitude": -118.012927,
    "description": "Huntington Beach Central Park (4.8 stars from 32 reviews) is a popular destination for Huntington Beach dog owners, located at 6741 Central Park Dr. The park serves dog owners well, providing a destination the community values. Looking for more places to take your pup? Central Park is another popular dog park just 0.2 miles away."
  },
  {
    "name": "Rivergate Park",
    "street": "17281 Eucalyptus Ln",
    "city": "Huntington Beach",
    "state": "CA",
    "zip": "92649",
    "latitude": 33.7105073,
    "longitude": -118.0369868,
    "description": "Dog owners in Huntington Beach have made Rivergate Park at 17281 Eucalyptus Ln a go-to spot, rating it 4.8 stars across 28 reviews. Dog owners looking for a solid destination will find this park delivers. More dog-friendly parks nearby include Haven View Park (1.3 miles) and Central Park (1.5 miles)—perfect for pups who love adventure."
  },
  {
    "name": "Schroeder Park",
    "street": "6231 Cornell Dr",
    "city": "Huntington Beach",
    "state": "CA",
    "zip": "92647",
    "latitude": 33.7406759,
    "longitude": -118.0204385,
    "description": "Schroeder Park (4.8 stars from 12 reviews) is a popular destination for Huntington Beach dog owners, located at 6231 Cornell Dr. Open from 5am to 10pm daily, the park offers flexibility for dog owners with varying routines. Nearby, Irby Park (1.5 miles) offers dog owners another great spot to explore with their pups."
  },
  {
    "name": "Huntington State Beach",
    "street": "21601 Pacific Coast Hwy",
    "city": "Huntington Beach",
    "state": "CA",
    "zip": "92646",
    "latitude": 33.6474702,
    "longitude": -117.9874485,
    "description": "Dog owners have made Huntington State Beach at 21601 Pacific Coast Hwy one of Huntington Beach's most popular destinations—4.7 stars from 8,496 visits. Open from 6am to 10pm daily, dog owners have generous hours to visit with their pups. Dog owners exploring the area should also bring their pups to Manning Park (0.9 miles) and Drew Park (1.5 miles)."
  },
  {
    "name": "Dog Beach Bluff Top Parking",
    "street": "",
    "city": "Huntington Beach",
    "state": "CA",
    "zip": "",
    "latitude": 33.6783336,
    "longitude": -118.000016,
    "description": "In Huntington Beach, Dog Beach Bluff Top Parking earns strong marks from local dog owners—4.6 stars from 70 reviews. Open from 5am to 10pm daily, dog owners have plenty of flexibility to plan a visit. More dog-friendly parks nearby include Finley Park (0.6 miles) and Farquhar Park (0.7 miles)—perfect for pups who love adventure."
  },
  {
    "name": "Bluff Top Park",
    "street": "2201 CA-1",
    "city": "Huntington Beach",
    "state": "CA",
    "zip": "92648",
    "latitude": 33.667877,
    "longitude": -118.0165525,
    "description": "Bluff Top Park at 2201 CA-1 is well-regarded by Huntington Beach dog owners, holding 4.6 stars across 117 reviews. Open from 5am to 10pm daily, dog owners can plan visits around work or their pup's energy level. For a change of scenery, Dog Beach | Huntington Beach is another dog-friendly destination 0.0 miles from here."
  },
  {
    "name": "Finley Park",
    "street": "6782 Evening Hill Dr",
    "city": "Huntington Beach",
    "state": "CA",
    "zip": "92648",
    "latitude": 33.6806242,
    "longitude": -118.0097332,
    "description": "Located at 6782 Evening Hill Dr in Huntington Beach, Finley Park earns strong marks from local dog owners—4.5 stars from 15 reviews. Open from 5am to 10pm daily, dog owners can plan visits around work or their pup's energy level. More dog-friendly parks nearby include Dog Beach Bluff Top Parking (0.6 miles) and Dog Beach | Huntington Beach (0.9 miles)—perfect for pups who love adventure."
  },
  {
    "name": "Farquhar Park",
    "street": "898 12th St",
    "city": "Huntington Beach",
    "state": "CA",
    "zip": "92648",
    "latitude": 33.668594,
    "longitude": -118.000964,
    "description": "Farquhar Park (4.6 stars from 157 reviews) is a popular destination for Huntington Beach dog owners, located at 898 12th St. Open from 7am to 10pm daily, the park works well for dog owners with different schedules. Looking for more places to take your pup? Dog Beach Bluff Top Parking is another popular dog park just 0.7 miles away."
  },
  {
    "name": "Arevalos Park",
    "street": "10441 Shalom Dr",
    "city": "Huntington Beach",
    "state": "CA",
    "zip": "92646",
    "latitude": 33.6761436,
    "longitude": -117.9467786,
    "description": "Dog owners in Huntington Beach have made Arevalos Park at 10441 Shalom Dr a go-to spot, rating it 4.5 stars across 22 reviews. Open from 5am to 10pm daily, the park works well for dog owners with different schedules. Looking for more places to take your pup? Fairview Park is another popular dog park just 0.8 miles away."
  },
  {
    "name": "Manning Park",
    "street": "307 Delaware St",
    "city": "Huntington Beach",
    "state": "CA",
    "zip": "92648",
    "latitude": 33.6596983,
    "longitude": -117.9926316,
    "description": "With 4.5 stars from 22 reviews, Manning Park at 307 Delaware St has become a favorite among Huntington Beach dog owners. Open from 5am to 10pm daily, the park offers flexibility for dog owners with varying routines. For variety, the neighborhood offers more dog parks to explore: Farquhar Park (0.8 miles) and Drew Park (0.8 miles)."
  },
  {
    "name": "Wardlow Park",
    "street": "19762 Magnolia St",
    "city": "Huntington Beach",
    "state": "CA",
    "zip": "92646",
    "latitude": 33.6744565,
    "longitude": -117.9710844,
    "description": "Wardlow Park (4.5 stars from 51 reviews) is a popular destination for Huntington Beach dog owners, located at 19762 Magnolia St. Open from 7am to 10pm daily, the park works well for dog owners with different schedules. Looking for more places to take your pup? Newland Park is another popular dog park just 0.4 miles away."
  },
  {
    "name": "Hawes Park",
    "street": "9731 Verdant Dr",
    "city": "Huntington Beach",
    "state": "CA",
    "zip": "92646",
    "latitude": 33.6669512,
    "longitude": -117.9581298,
    "description": "At 9731 Verdant Dr in Huntington Beach, Hawes Park carries 4.4 stars from 30 dog owner reviews. Open from 5am to 10pm daily, dog owners have flexibility to plan a visit with their four-legged friends. Dog owners might also enjoy Gisler Park, another dog park just 0.8 miles away."
  },
  {
    "name": "Harriett M. Wieder Regional",
    "street": "19251 Seapoint Street",
    "city": "Huntington Beach",
    "state": "CA",
    "zip": "92648",
    "latitude": 33.6803419,
    "longitude": -118.0319592,
    "description": "Dog owners in Huntington Beach have made Harriett M. Wieder Regional at 19251 Seapoint Street a go-to spot, rating it 4.5 stars across 299 reviews. Open from 5am to 10pm daily, there's room in the day for dog owners to bring their furry friends. For variety, the neighborhood offers more dog parks to explore: Dog Beach | Huntington Beach (1.2 miles) and Bluff Top Park (1.2 miles)."
  },
  {
    "name": "Seely Park",
    "street": "9711 Surfcrest Dr",
    "city": "Huntington Beach",
    "state": "CA",
    "zip": "92646",
    "latitude": 33.6453585,
    "longitude": -117.9594238,
    "description": "At 9711 Surfcrest Dr in Huntington Beach, Seely Park carries 4.4 stars from 68 dog owner reviews. Open from 7am to 9:30pm daily, the park fits conveniently into different routines. Looking to explore more? Gisler Park is another dog-friendly park 0.7 miles from here."
  },
  {
    "name": "Jeffrey Open Space Trail",
    "street": "13252 Jeffrey Rd",
    "city": "Irvine",
    "state": "CA",
    "zip": "92620",
    "latitude": 33.703224,
    "longitude": -117.7552789,
    "description": "For dog owners in the Irvine area, Jeffrey Open Space Trail (13252 Jeffrey Rd) offers a 4.8-star experience based on 463 reviews. Local dog owners appreciate what this park offers their four-legged friends. Dog owners exploring the neighborhood can also bring their furry friends to Irvine Central Bark (2.0 miles)."
  },
  {
    "name": "Laguna Beach Dog Park",
    "street": "20672 Laguna Canyon RdLaguna Beach",
    "city": "Irvine",
    "state": "CA",
    "zip": "92651",
    "latitude": 33.5871664,
    "longitude": -117.7608097,
    "description": "Laguna Beach Dog Park (4.7 stars from 453 reviews) is a popular destination for Irvine dog owners, located at 20672 Laguna Canyon Rd. The park serves dog owners well, providing a destination the community values. Based on the reviews, dog owners can expect a reliable spot for spending time with their pup."
  },
  {
    "name": "‍ Tustin Legacy Park",
    "street": "",
    "city": "Irvine",
    "state": "CA",
    "zip": "",
    "latitude": 33.7458511,
    "longitude": -117.826166,
    "description": "With 4.6 stars from 33 reviews, Tustin Legacy Park has become a favorite among Irvine dog owners. Open from 6am to 10pm daily, there's room in the day for dog owners to bring their furry friends. Dog owners can also take their pups to nearby Cabrillo Park (1.0 miles) or Mabury Park (1.0 miles)."
  },
  {
    "name": "Gabrielino Park",
    "street": "Gabrielino Dr",
    "city": "Irvine",
    "state": "CA",
    "zip": "92617",
    "latitude": 33.6395998,
    "longitude": -117.8367623,
    "description": "For dog owners in the Irvine area, Gabrielino Park offers a 4.6-star experience based on 64 reviews. Open from 7am to 10pm daily, there's room in the day for dog owners to bring their furry friends. Dog owners can also take their pups to nearby San Mateo Park (2.6 miles) or Brentwood Park (3.5 miles)."
  },
  {
    "name": "El Dorado East Regional Park",
    "street": "7550 E Spring St",
    "city": "Long Beach",
    "state": "CA",
    "zip": "90815",
    "latitude": 33.8103384,
    "longitude": -118.0882698,
    "description": "Dog owners have made El Dorado East Regional Park at 7550 E Spring St one of Long Beach's most popular destinations—4.7 stars from 5,375 visits. Open from 7am to 8pm daily, there's plenty of opportunity for dog owners to experience what makes this park special. For dog owners wanting to explore more with their furry friends, El Dorado Park is another great dog park just 0.0 miles away."
  },
  {
    "name": "Bluff Park",
    "street": "2500 E Ocean Blvd",
    "city": "Long Beach",
    "state": "CA",
    "zip": "90803",
    "latitude": 33.7639253,
    "longitude": -118.1657065,
    "description": "2,477 dog owners have made Bluff Park (2500 E Ocean Blvd) one of Long Beach's most trusted parks (4.6 stars). Open from 6am to 10pm daily, dog owners have room to work around busy schedules. For more dog park adventures, explore Bixby Park (0.2 miles) or Seaside Dog Zone (1.2 miles) with your furry companion."
  },
  {
    "name": "Marina Vista Park",
    "street": "5355 E Eliot St",
    "city": "Long Beach",
    "state": "CA",
    "zip": "90803",
    "latitude": 33.7685241,
    "longitude": -118.1305124,
    "description": "Marina Vista Park at 5355 E Eliot St is well-regarded by Long Beach dog owners, holding 4.6 stars across 440 reviews. Open from 5am to 10pm daily, dog owners have plenty of flexibility to plan a visit. More dog-friendly parks nearby include Recreation Dog Park (0.5 miles) and Recreation Park (0.6 miles)—perfect for pups who love adventure."
  },
  {
    "name": "Whaley Park",
    "street": "5620 E Atherton St",
    "city": "Long Beach",
    "state": "CA",
    "zip": "90815",
    "latitude": 33.7898032,
    "longitude": -118.1337987,
    "description": "With 4.6 stars from 223 reviews, Whaley Park at 5620 E Atherton St has become a favorite among Long Beach dog owners. Open from 7am to 5pm daily, the park works well for dog owners with different schedules. Looking for more places to take your pup? Recreation Dog Park is another popular dog park just 1.0 miles away."
  },
  {
    "name": "Central Park",
    "street": "Edwards St",
    "city": "Long Beach",
    "state": "CA",
    "zip": "92647",
    "latitude": 33.6994522,
    "longitude": -118.0150438,
    "description": "In Long Beach, Central Park has built a loyal following—4.5 stars from 661 dog owner reviews. Open from 6am to 8pm daily, there's plenty of opportunity for dog owners to find a time that works. Dog owners exploring the neighborhood can also bring their furry friends to Huntington Beach Central Park (0.2 miles)."
  },
  {
    "name": "Bixby Park",
    "street": "130 Cherry Ave",
    "city": "Long Beach",
    "state": "CA",
    "zip": "90802",
    "latitude": 33.7658526,
    "longitude": -118.1669433,
    "description": "For Long Beach dog owners, Bixby Park at 130 Cherry Ave has become a reliable favorite—4.5 stars from 3,016 reviews. Open from 6am to 10pm daily, the park is convenient for before work, after work, or weekend adventures. Looking to mix things up? Bluff Park is a nearby dog park 0.2 miles away that's worth exploring with your pup."
  },
  {
    "name": "‍ Coolidge Dog Park",
    "street": "335 E Coolidge St",
    "city": "Long Beach",
    "state": "CA",
    "zip": "90805",
    "latitude": 33.8735434,
    "longitude": -118.1963132,
    "description": "At 335 E Coolidge St, Coolidge Dog Park has 4.4 stars based on 57 reviews from Long Beach dog owners. For dog owners in the neighborhood, this park offers a place to take their pups. More dog parks in the area include Jackson Park (2.0 miles) and Scherer Park (2.2 miles)—great options for mixing up your pup's routine."
  },
  {
    "name": "Recreation Park",
    "street": "4900 E 7th St",
    "city": "Long Beach",
    "state": "CA",
    "zip": "90804",
    "latitude": 33.7752443,
    "longitude": -118.1362978,
    "description": "Recreation Park at 4900 E 7th St in Long Beach has 4.4 stars from 341 dog owner reviews. Dog owners in the area appreciate having a local spot to bring their pups. Dog owners in the neighborhood can also take their furry friends to Recreation Dog Park, 0.3 miles away."
  },
  {
    "name": "Rio San Gabriel Park",
    "street": "9612 Ardine St",
    "city": "Long Beach",
    "state": "CA",
    "zip": "90241",
    "latitude": 33.92993,
    "longitude": -118.1083474,
    "description": "With 4.4 stars from 830 reviews, Rio San Gabriel Park at 9612 Ardine St has become a favorite among Long Beach dog owners. Open from 6am to 10pm daily, dog owners can easily fit a visit into busy schedules. Dog owners can also take their pups to nearby Riverview Park (2.3 miles) or Flora Vista Dog Park (3.1 miles)."
  },
  {
    "name": "Heartwell Park",
    "street": "5801 Parkcrest St",
    "city": "Long Beach",
    "state": "CA",
    "zip": "90808",
    "latitude": 33.8310001,
    "longitude": -118.1246363,
    "description": "Long Beach dog owners rate Heartwell Park at 5801 Parkcrest St highly, with 4.4 stars from 1,056 visits. Open from 6am to 10pm daily, the park accommodates early risers and evening visitors alike. Looking for more places to take your pup? Candleverde Park is another popular dog park just 1.8 miles away."
  },
  {
    "name": "Jack Nichol Park",
    "street": "6200 Costa Del Sol Way",
    "city": "Long Beach",
    "state": "CA",
    "zip": "90803",
    "latitude": 33.766955,
    "longitude": -118.118028,
    "description": "Jack Nichol Park at 6200 Costa Del Sol Way holds a 4.3-star rating from 76 Long Beach dog owner visits. Local dog owners use this park as a spot to spend time with their furry companions. Looking to explore more? Marina Vista Park is another dog-friendly park 0.7 miles from here."
  },
  {
    "name": "Riverview Park",
    "street": "10510 Somerset BlvdBellflower",
    "city": "Long Beach",
    "state": "CA",
    "zip": "90706",
    "latitude": 33.8965877,
    "longitude": -118.1099677,
    "description": "At 10510 Somerset Blvd, Riverview Park has 4.2 stars based on 42 reviews from Long Beach dog owners. Open from 6:30am to 6:30pm daily, dog owners have a window to spend time with their pups. Dog owners in the neighborhood can also take their furry friends to Flora Vista Dog Park, 1.6 miles away."
  },
  {
    "name": "Signal Hill Dog Park",
    "street": "3100 California AveSignal Hill",
    "city": "Long Beach",
    "state": "CA",
    "zip": "90755",
    "latitude": 33.8136939,
    "longitude": -118.1802225,
    "description": "212 dog owners have reviewed Signal Hill Dog Park at 3100 California Ave in Long Beach, averaging 4.3 stars. Open from 6am to 10pm daily, the park fits conveniently into different routines. Dog owners might also enjoy Wrigley Heights Dog Park, another dog park just 1.3 miles away."
  },
  {
    "name": "Jackson Park",
    "street": "1432 E Jackson St",
    "city": "Long Beach",
    "state": "CA",
    "zip": "90805",
    "latitude": 33.8516735,
    "longitude": -118.174228,
    "description": "Jackson Park at 1432 E Jackson St holds a 4.2-star rating from 55 Long Beach dog owner visits. Open from 6:30am to 10pm daily, dog owners have flexibility to plan a visit with their four-legged friends. Dog owners in the neighborhood can also take their furry friends to Scherer Park, 1.2 miles away."
  },
  {
    "name": "Fullerton Pooch Park",
    "street": "201 S Basque Ave",
    "city": "Long Beach",
    "state": "CA",
    "zip": "92833",
    "latitude": 33.869028,
    "longitude": -117.953528,
    "description": "Dog owners in Long Beach have made Fullerton Pooch Park at 201 S Basque Ave a go-to spot, rating it 4.3 stars across 594 reviews. Open from 7am to 8pm, every day except Wednesday, there's plenty of opportunity for dog owners to find a time that works. For a change of scenery, Brookhurst Park is another dog-friendly destination 2.1 miles from here."
  },
  {
    "name": "Scherer Park",
    "street": "4600 Long Beach Blvd",
    "city": "Long Beach",
    "state": "CA",
    "zip": "90805",
    "latitude": 33.84128,
    "longitude": -118.191725,
    "description": "Located at 4600 Long Beach Blvd in Long Beach, Scherer Park earns strong marks from local dog owners—4.3 stars from 1,046 reviews. Open from 4:30am to 10pm daily, dog owners can plan visits around work or their pup's energy level. Other dog parks in the area include Jackson Park (1.2 miles) and Wrigley Heights Dog Park (1.6 miles)—both great for exploring with your four-legged friend."
  },
  {
    "name": "‍ South Park",
    "street": "147 W 24th St",
    "city": "Los Angeles",
    "state": "CA",
    "zip": "90007",
    "latitude": 34.0277536,
    "longitude": -118.2698406,
    "description": "Located at 147 W 24th St in Los Angeles, South Park earns strong marks from local dog owners—4.9 stars from 186 reviews. The park has earned its reputation among dog owners in the neighborhood as a reliable choice. Dog owners can also take their pups to nearby L.A. Live Large Dogs Park (1.2 miles) or Arts District Park (2.2 miles)."
  },
  {
    "name": "Runyon Canyon Park",
    "street": "2000 N Fuller Ave",
    "city": "Los Angeles",
    "state": "CA",
    "zip": "90046",
    "latitude": 34.105366,
    "longitude": -118.348835,
    "description": "Dog owners have made Runyon Canyon Park at 2000 N Fuller Ave one of Los Angeles's most popular destinations—4.8 stars from 5,377 visits. Few parks earn this level of trust from the dog owner community. Dog owners in the area also frequent De Longpre Park (1.0 miles)—another top dog park worth visiting with your pup."
  },
  {
    "name": "Fern Dell Nature Trail",
    "street": "Fern Dell Dr",
    "city": "Los Angeles",
    "state": "CA",
    "zip": "90027",
    "latitude": 34.1100785,
    "longitude": -118.3072733,
    "description": "For Los Angeles dog owners, Fern Dell Nature Trail has become a reliable favorite—4.8 stars from 1,592 reviews. Open from 6am to 10pm daily, it's easy for dog owners to stop by whenever works best. For variety, many dog owners also bring their furry friends to Franklin-Ivar Park (1.2 miles)—another great dog park in the area."
  },
  {
    "name": "Dog Beach | Huntington Beach",
    "street": "100 Goldenwest St",
    "city": "Los Angeles",
    "state": "CA",
    "zip": "92648",
    "latitude": 33.668323,
    "longitude": -118.01709,
    "description": "Dog Beach | Huntington Beach at 100 Goldenwest St in Los Angeles is a community favorite, with 1,489 dog owners giving it 4.8 stars. Dog owners in the area know they can count on this park for quality time with their pups. For more dog park adventures, explore Bluff Top Park (0.0 miles) or Farquhar Park (0.9 miles) with your furry companion."
  },
  {
    "name": "Griffith Park",
    "street": "4730 Crystal Springs Dr",
    "city": "Los Angeles",
    "state": "CA",
    "zip": "90027",
    "latitude": 34.0536909,
    "longitude": -118.242766,
    "description": "Griffith Park at 4730 Crystal Springs Dr in Los Angeles has earned its reputation with 4.7 stars from 67,973 dog owner reviews. Open from 5am to 10:30pm daily, dog owners can visit during quieter hours or join the regular crowd. The neighborhood offers dog owners more places to bring their pups: Westwoof Dog Park (0.0 miles) and GLASSELL LAND (0.0 miles)."
  },
  {
    "name": "Rosie's Dog Beach",
    "street": "5000 E Ocean Blvd",
    "city": "Los Angeles",
    "state": "CA",
    "zip": "90803",
    "latitude": 33.756389,
    "longitude": -118.139112,
    "description": "With 7,767 reviews and a 4.7-star rating, Rosie's Dog Beach (5000 E Ocean Blvd) has become a landmark for Los Angeles dog owners. Open from 6am to 8pm daily, the park accommodates everything from early morning walks to evening adventures. While you're in the area, dog owners also recommend taking your pup to Marina Vista Park, another excellent dog park 1.0 miles away."
  },
  {
    "name": "Lake Hollywood Park",
    "street": "3160 Canyon Lake Dr",
    "city": "Los Angeles",
    "state": "CA",
    "zip": "90068",
    "latitude": 34.127758,
    "longitude": -118.326997,
    "description": "Lake Hollywood Park at 3160 Canyon Lake Dr is one of the most beloved dog parks in Los Angeles—4.7 stars from an incredible 7,005 reviews. Dog owners seeking a premier experience understand why this park stands apart. Dog owners exploring the area should also bring their pups to Franklin-Ivar Park (1.5 miles) and Fern Dell Nature Trail (1.7 miles)."
  },
  {
    "name": "Kenneth Hahn State Recreation",
    "street": "4100 S La Cienega Blvd",
    "city": "Los Angeles",
    "state": "CA",
    "zip": "90056",
    "latitude": 34.0096038,
    "longitude": -118.3729077,
    "description": "Kenneth Hahn State Recreation at 4100 S La Cienega Blvd is one of the most beloved dog parks in Los Angeles—4.7 stars from an incredible 6,735 reviews. Open from 6am to 6pm daily, dog owners have maximum flexibility to plan their visit. Dog owners in this area are lucky to have more great dog parks nearby: Boneyard Dog Park (0.7 miles) and Genesee Avenue Park (1.9 miles)."
  },
  {
    "name": "Vista Hermosa Natural Park",
    "street": "100 N Toluca St",
    "city": "Los Angeles",
    "state": "CA",
    "zip": "90026",
    "latitude": 34.061693,
    "longitude": -118.258395,
    "description": "Vista Hermosa Natural Park at 100 N Toluca St in Los Angeles is a community favorite, with 2,354 dog owners giving it 4.7 stars. Open from 7am to 4:30pm daily, there's always time for dog owners to bring their pup for some quality time. Other popular dog parks nearby include Echo Park (0.7 miles) and Gloria Molina Grand Park (0.7 miles)—both favorites among local pup parents."
  },
  {
    "name": "Elysian Park",
    "street": "Elysian Park Dr",
    "city": "Los Angeles",
    "state": "CA",
    "zip": "90012",
    "latitude": 34.0754637,
    "longitude": -118.2500521,
    "description": "Elysian Park (4.7 stars from 997 reviews) is a popular destination for Los Angeles dog owners. Open from 5am to 9pm daily, dog owners have plenty of flexibility to plan a visit. For variety, the neighborhood offers more dog parks to explore: Echo Park (0.8 miles) and Vista Hermosa Natural Park (1.1 miles)."
  },
  {
    "name": "El Dorado Park",
    "street": "7550 E Spring St",
    "city": "Los Angeles",
    "state": "CA",
    "zip": "90815",
    "latitude": 33.8103384,
    "longitude": -118.0882698,
    "description": "Los Angeles dog owners rate El Dorado Park at 7550 E Spring St highly, with 4.7 stars from 633 visits. Open from 7am to 5pm daily, the park offers flexibility for dog owners with varying routines. For a change of scenery, El Dorado East Regional Park is another dog-friendly destination 0.0 miles from here."
  },
  {
    "name": "Cleland Park",
    "street": "4830 Cleland Ave",
    "city": "Los Angeles",
    "state": "CA",
    "zip": "90065",
    "latitude": 34.1131785,
    "longitude": -118.2128379,
    "description": "Cleland Park at 4830 Cleland Ave is well-regarded by Los Angeles dog owners, holding 4.7 stars across 66 reviews. For dog owners in the area, this park has become a trusted spot for time with their pups. Dog owners can also take their pups to nearby Hermon Park (1.6 miles) or Hermon Dog Park (1.7 miles)."
  },
  {
    "name": "Garvey Paws Dog Park",
    "street": "7933 Emerson PlRosemead",
    "city": "Los Angeles",
    "state": "CA",
    "zip": "91770",
    "latitude": 34.0663335,
    "longitude": -118.0946544,
    "description": "At 7933 Emerson Pl in Los Angeles, Garvey Paws Dog Park has built a loyal following—4.7 stars from 43 dog owner reviews. For dog owners in the area, this park has become a trusted spot for time with their pups. Based on the reviews, dog owners can expect a reliable spot for spending time with their pup."
  },
  {
    "name": "Longwood Dog Park",
    "street": "13077 Villosa PlPlaya Vista",
    "city": "Los Angeles",
    "state": "CA",
    "zip": "90094",
    "latitude": 33.9736296,
    "longitude": -118.4253832,
    "description": "With 4.6 stars from 28 reviews, Longwood Dog Park at 13077 Villosa Pl has become a favorite among Los Angeles dog owners. Open from 7am to 9pm daily, dog owners can easily fit a visit into busy schedules. Dog owners can also take their pups to nearby Bluff Creek Dog Park (0.5 miles) or Oberrieder Dog Park (0.7 miles)."
  },
  {
    "name": "Circle Park",
    "street": "76th St.",
    "city": "Los Angeles",
    "state": "CA",
    "zip": "90047",
    "latitude": 33.9709242,
    "longitude": -118.3046486,
    "description": "Circle Park (4.6 stars from 277 reviews) is a popular destination for Los Angeles dog owners, located at 76th St.. Open from 5:30am to 10pm daily, dog owners have plenty of flexibility to plan a visit. For variety, the neighborhood offers more dog parks to explore: South Park (4.4 miles) and Magic Johnson dog park (4.6 miles)."
  },
  {
    "name": "‍ Crescenta Valley Dog Park",
    "street": "",
    "city": "Los Angeles",
    "state": "CA",
    "zip": "",
    "latitude": 34.1469416,
    "longitude": -118.2478471,
    "description": "Crescenta Valley Dog Park is well-regarded by Los Angeles dog owners, holding 4.6 stars across 449 reviews. For dog owners in the area, this park has become a trusted spot for time with their pups. Dog owners can also take their pups to nearby Griffith Park (0.0 miles) or Cleland Park (3.1 miles)."
  },
  {
    "name": "Freedom Park",
    "street": "3500 Sharon Ave",
    "city": "Modesto",
    "state": "CA",
    "zip": "95355",
    "latitude": 37.67449,
    "longitude": -120.9294836,
    "description": "Dog owners in Modesto have made Freedom Park at 3500 Sharon Ave a go-to spot, rating it 4.6 stars across 531 reviews. Open from 6am to 8:30pm daily, dog owners can plan visits around work or their pup's energy level. Dog owners can also take their pups to nearby Sipherd Park (0.8 miles) or Sherwood Park (3.0 miles)."
  },
  {
    "name": "Elk Park",
    "street": "601 Morris Ave",
    "city": "Modesto",
    "state": "CA",
    "zip": "95350",
    "latitude": 37.651001,
    "longitude": -120.986516,
    "description": "Modesto dog owners rate Elk Park at 601 Morris Ave highly, with 4.6 stars from 368 visits. Open from 6am to 10pm daily, dog owners can easily fit a visit into busy schedules. Nearby, Moose Park (0.5 miles) offers dog owners another great spot to explore with their pups."
  },
  {
    "name": "Patterson Dog Park",
    "street": "",
    "city": "Modesto",
    "state": "CA",
    "zip": "",
    "latitude": 37.471623,
    "longitude": -121.1296949,
    "description": "Patterson Dog Park is well-regarded by Modesto dog owners, holding 4.5 stars across 62 reviews. For dog owners in the area, this park has become a trusted spot for time with their pups. A solid track record makes this a reliable choice for dog owners."
  },
  {
    "name": "Neel Park",
    "street": "2000 Boothe RdCeres",
    "city": "Modesto",
    "state": "CA",
    "zip": "95307",
    "latitude": 37.6004621,
    "longitude": -120.9312733,
    "description": "Located at 2000 Boothe Rd, Neel Park in Modesto is rated 4.4 stars by 268 dog owners. This park provides dog owners in the community with a place to visit with their dogs. Dog owners looking for variety can also visit Moose Park (4.2 miles) or Sipherd Park (4.3 miles) with their four-legged friends."
  },
  {
    "name": "‍ Quaile Rand Norton Dog Park",
    "street": "500 S Berkeley AveTurlock",
    "city": "Modesto",
    "state": "CA",
    "zip": "95380",
    "latitude": 37.487908,
    "longitude": -120.830568,
    "description": "For dog owners in Modesto, Quaile Rand Norton Dog Park at 500 S Berkeley Ave has a 4.3-star rating (104 reviews). Open from 6am to 8pm daily, the park is accessible for dog owners in the area. The reviews from fellow dog owners offer helpful insights about this park."
  },
  {
    "name": "Sherwood Park",
    "street": "3201 Claremont Ave",
    "city": "Modesto",
    "state": "CA",
    "zip": "95350",
    "latitude": 37.684662,
    "longitude": -120.982926,
    "description": "At 3201 Claremont Ave, Sherwood Park has 4.3 stars based on 195 reviews from Modesto dog owners. Open from 6am to 10pm daily, the park fits conveniently into different routines. More dog parks in the area include Davis Community Park (1.2 miles) and Wesson Ranch Park (1.3 miles)—great options for mixing up your pup's routine."
  },
  {
    "name": "Wesson Ranch Park",
    "street": "1001 W Union Ave",
    "city": "Modesto",
    "state": "CA",
    "zip": "95356",
    "latitude": 37.6933206,
    "longitude": -121.0035192,
    "description": "211 dog owners have reviewed Wesson Ranch Park at 1001 W Union Ave in Modesto, averaging 4.3 stars. Open from 6am to 10pm daily, local dog owners have time to explore with their furry companions. For dog owners who like to explore, Davis Community Park (0.9 miles) and Sherwood Park (1.3 miles) are both nearby parks to try with your dog."
  },
  {
    "name": "Sipherd Park",
    "street": "1200 Lillian Dr",
    "city": "Modesto",
    "state": "CA",
    "zip": "95355",
    "latitude": 37.66298,
    "longitude": -120.932451,
    "description": "Dog owners in Modesto have rated Sipherd Park (1200 Lillian Dr) 4.3 stars across 211 reviews. Open from 6am to 10pm daily, dog owners have a window to spend time with their pups. Looking to explore more? Freedom Park is another dog-friendly park 0.8 miles from here."
  },
  {
    "name": "Davis Community Park",
    "street": "2701 College Ave",
    "city": "Modesto",
    "state": "CA",
    "zip": "95350",
    "latitude": 37.6798461,
    "longitude": -121.0047691,
    "description": "With 4.3 stars from 846 reviews, Davis Community Park at 2701 College Ave has become a favorite among Modesto dog owners. Dog owners looking for a solid destination will find this park delivers. Nearby, Wesson Ranch Park (0.9 miles) offers dog owners another great spot to explore with their pups."
  },
  {
    "name": "McKinney Colony Park",
    "street": "2245 Snyder Ave",
    "city": "Modesto",
    "state": "CA",
    "zip": "95356",
    "latitude": 37.6967405,
    "longitude": -121.0364353,
    "description": "Located at 2245 Snyder Ave, McKinney Colony Park in Modesto is rated 4.2 stars by 105 dog owners. Open from 6am to 10pm daily, the park fits conveniently into different routines. Nearby dog parks worth exploring with your pup include Wesson Ranch Park (1.8 miles) and Davis Community Park (2.1 miles)."
  },
  {
    "name": "Moose Park",
    "street": "512 N Morton Blvd",
    "city": "Modesto",
    "state": "CA",
    "zip": "95354",
    "latitude": 37.6446315,
    "longitude": -120.9845229,
    "description": "Moose Park (512 N Morton Blvd) serves dog owners in the Modesto neighborhood looking for a place to visit with their pups. Open from 6am to 10pm daily, local dog owners have time to explore with their furry companions. Dog owners looking for variety can also visit Elk Park (0.5 miles) or Davis Community Park (2.7 miles) with their four-legged friends."
  },
  {
    "name": "Ridge Crest Park",
    "street": "28506 John F Kennedy DrMoreno Valley",
    "city": "‍ Moreno Valley",
    "state": "CA",
    "zip": "92555",
    "latitude": 33.9068532,
    "longitude": -117.1607574,
    "description": "Moreno Valley dog owners rate Ridge Crest Park at 28506 John F Kennedy Dr highly, with 4.5 stars from 142 visits. For dog owners in the area, this park has become a trusted spot for time with their pups. Dog owners exploring the neighborhood can also bring their furry friends to Hound Town (3.6 miles)."
  },
  {
    "name": "‍ Patriot Park",
    "street": "15310 Perris BlvdMoreno Valley",
    "city": "‍ Moreno Valley",
    "state": "CA",
    "zip": "92551",
    "latitude": 33.8986378,
    "longitude": -117.2261821,
    "description": "For dog owners near 15310 Perris Blvd in Moreno Valley, Patriot Park provides a convenient spot to take their dogs. Open from 7am to 9pm daily, the park fits conveniently into different routines. Dog owners in the neighborhood can also take their furry friends to Ridge Crest Park, 3.8 miles away."
  },
  {
    "name": "Reinhardt Redwood Regional",
    "street": "7867 Redwood Rd",
    "city": "Oakland",
    "state": "CA",
    "zip": "94619",
    "latitude": 37.8044557,
    "longitude": -122.271356,
    "description": "At 7867 Redwood Rd in Oakland, Reinhardt Redwood Regional stands out with 4.8 stars from 3,306 happy dog owners. The community of dog owners here is welcoming and the atmosphere consistently positive. Other popular dog parks nearby include Sibley Volcanic Regional Prese (0.0 miles) and Lower Bottoms Park (0.0 miles)—both favorites among local pup parents."
  },
  {
    "name": "Point Isabel Dog Park",
    "street": "2701 Isabel St",
    "city": "Oakland",
    "state": "CA",
    "zip": "94804",
    "latitude": 37.8989507,
    "longitude": -122.324812,
    "description": "Dog owners in Oakland have embraced Point Isabel Dog Park (2701 Isabel St) as a top destination—4.8 stars from 1,192 visits. Open from 5am to 10pm daily, the park accommodates a variety of dog owner schedules and routines. For more dog park adventures, explore Point Isabel Regional Shorelin (0.0 miles) or Bruce King Memorial Dog Park (1.4 miles) with your furry companion."
  },
  {
    "name": "Roberts Regional Recreation",
    "street": "10570 Skyline Blvd",
    "city": "Oakland",
    "state": "CA",
    "zip": "94619",
    "latitude": 37.8075214,
    "longitude": -122.1754467,
    "description": "For dog owners in the Oakland area, Roberts Regional Recreation (10570 Skyline Blvd) offers a 4.8-star experience based on 850 reviews. Open from 8am to 8pm daily, there's plenty of opportunity for dog owners to find a time that works. Nearby, Joaquin Miller Dog Park (0.7 miles) offers dog owners another great spot to explore with their pups."
  },
  {
    "name": "Marina Park",
    "street": "14001 Monarch Bay Dr",
    "city": "Oakland",
    "state": "CA",
    "zip": "94577",
    "latitude": 37.694452,
    "longitude": -122.185508,
    "description": "Dog owners in Oakland have embraced Marina Park (14001 Monarch Bay Dr) as a top destination—4.7 stars from 4,564 visits. Open from 8am to 7pm daily, the park is convenient for before work, after work, or weekend adventures. Dog owners in the area also love bringing their pups to Marina Dog Park (0.0 miles) and Knowland Park (4.8 miles)."
  },
  {
    "name": "‍ Joaquin Miller Park",
    "street": "3300 Joaquin Miller Rd",
    "city": "Oakland",
    "state": "CA",
    "zip": "94602",
    "latitude": 37.80989,
    "longitude": -122.189238,
    "description": "With 4.7 stars across 2,581 reviews, Joaquin Miller Park at 3300 Joaquin Miller Rd has clearly won over Oakland dog owners. Open from 6am to 9pm daily, dog owners have plenty of flexibility to visit when it suits their schedule. Looking to mix things up? Joaquin Miller Dog Park is a nearby dog park 0.2 miles away that's worth exploring with your pup."
  },
  {
    "name": "Cesar Chavez Park",
    "street": "11 Spinnaker Way",
    "city": "Oakland",
    "state": "CA",
    "zip": "94710",
    "latitude": 37.8698678,
    "longitude": -122.3192474,
    "description": "At 11 Spinnaker Way in Oakland, Cesar Chavez Park stands out with 4.7 stars from 1,735 happy dog owners. Open from 6am to 10pm daily, there's always time for dog owners to bring their pup for some quality time. For more dog park adventures, explore Point Isabel Regional Shorelin (2.0 miles) or Point Isabel Dog Park (2.0 miles) with your furry companion."
  },
  {
    "name": "Sibley Volcanic Regional Prese",
    "street": "6800 Skyline Blvd",
    "city": "Oakland",
    "state": "CA",
    "zip": "94611",
    "latitude": 37.8044557,
    "longitude": -122.271356,
    "description": "Sibley Volcanic Regional Prese at 6800 Skyline Blvd in Oakland is a community favorite, with 1,353 dog owners giving it 4.7 stars. Open from 7am to 10pm daily, the park accommodates a variety of dog owner schedules and routines. Nearby, Lower Bottoms Park (0.0 miles) is another dog park favorite where you can take your four-legged friend."
  },
  {
    "name": "Knowland Park",
    "street": "9777 Golf Links Rd",
    "city": "Oakland",
    "state": "CA",
    "zip": "94605",
    "latitude": 37.7531488,
    "longitude": -122.139591,
    "description": "Local dog owners love Knowland Park at 9777 Golf Links Rd in Oakland—4.7 stars from an impressive 1,085 reviews. The park has earned genuine loyalty from dog owners who value what it offers. Looking to mix things up? King Estate Open Space Park is a nearby dog park 0.9 miles away that's worth exploring with your pup."
  },
  {
    "name": "Piedmont Park",
    "street": "356 Highland AvePiedmont",
    "city": "Oakland",
    "state": "CA",
    "zip": "94611",
    "latitude": 37.8245579,
    "longitude": -122.2317446,
    "description": "Oakland dog owners rate Piedmont Park at 356 Highland Ave highly, with 4.7 stars from 742 visits. Dog owners frequent this park for its consistent quality and welcoming atmosphere. For a change of scenery, Blair Park is another dog-friendly destination 0.4 miles from here."
  },
  {
    "name": "Huckleberry Botanic Regional",
    "street": "7087 Skyline Blvd",
    "city": "Oakland",
    "state": "CA",
    "zip": "94611",
    "latitude": 37.8434091,
    "longitude": -122.1956542,
    "description": "At 7087 Skyline Blvd in Oakland, Huckleberry Botanic Regional has built a loyal following—4.7 stars from 518 dog owner reviews. Open from 5am to 10pm daily, there's room in the day for dog owners to bring their furry friends. For a change of scenery, Shepherd Canyon Park is another dog-friendly destination 1.2 miles from here."
  },
  {
    "name": "Joaquin Miller Dog Park",
    "street": "3590 Sanborn Dr",
    "city": "Oakland",
    "state": "CA",
    "zip": "94602",
    "latitude": 37.8124113,
    "longitude": -122.1874709,
    "description": "At 3590 Sanborn Dr in Oakland, Joaquin Miller Dog Park has built a loyal following—4.6 stars from 225 dog owner reviews. Open from 7am to 9pm daily, dog owners can easily fit a visit into busy schedules. Dog owners can also take their pups to nearby Joaquin Miller Park (0.2 miles) or Roberts Regional Recreation (0.7 miles)."
  },
  {
    "name": "Ohlone Dog Park",
    "street": "1800 Hearst Ave",
    "city": "Oakland",
    "state": "CA",
    "zip": "94703",
    "latitude": 37.872957,
    "longitude": -122.275295,
    "description": "Oakland dog owners rate Ohlone Dog Park at 1800 Hearst Ave highly, with 4.6 stars from 395 visits. The steady stream of dog owner visits speaks to the park's appeal. More dog-friendly parks nearby include Garber Park (0.2 miles) and Colby Park (2.0 miles)—perfect for pups who love adventure."
  },
  {
    "name": "King Estate Open Space Park",
    "street": "8501 Fontaine St",
    "city": "Oakland",
    "state": "CA",
    "zip": "94605",
    "latitude": 37.7630119,
    "longitude": -122.1515283,
    "description": "With 4.5 stars from 60 reviews, King Estate Open Space Park at 8501 Fontaine St has become a favorite among Oakland dog owners. Open from 6am to 8pm daily, the park works well for dog owners with different schedules. Nearby, Knowland Park (0.9 miles) offers dog owners another great spot to explore with their pups."
  },
  {
    "name": "Garber Park",
    "street": "",
    "city": "Oakland",
    "state": "CA",
    "zip": "",
    "latitude": 37.8708393,
    "longitude": -122.272863,
    "description": "Garber Park (4.5 stars from 64 reviews) is a popular destination for Oakland dog owners. Open from 6:30am to 8pm daily, the park accommodates early risers and evening visitors alike. Dog owners exploring the neighborhood can also bring their furry friends to Ohlone Dog Park (0.2 miles)."
  },
  {
    "name": "Colby Park",
    "street": "422 61st St",
    "city": "Oakland",
    "state": "CA",
    "zip": "94609",
    "latitude": 37.8478444,
    "longitude": -122.2578257,
    "description": "Located at 422 61st St in Oakland, Colby Park earns strong marks from local dog owners—4.5 stars from 74 reviews. The park has earned its reputation among dog owners in the neighborhood as a reliable choice. Dog owners can also take their pups to nearby Rockridge-Temescal Greenbelt (0.3 miles) or Hardy Dog Park (0.4 miles)."
  },
  {
    "name": "Marina Dog Park",
    "street": "14001 Monarch Bay Dr",
    "city": "Oakland",
    "state": "CA",
    "zip": "94577",
    "latitude": 37.694452,
    "longitude": -122.185508,
    "description": "At 14001 Monarch Bay Dr in Oakland, Marina Dog Park has built a loyal following—4.5 stars from 259 dog owner reviews. Open from 7am to 10pm daily, dog owners can easily fit a visit into busy schedules. Looking for more places to take your pup? Marina Park is another popular dog park just 0.0 miles away."
  },
  {
    "name": "City Of Upland Dog Park",
    "street": "W 11th StUpland",
    "city": "Ontario",
    "state": "CA",
    "zip": "91786",
    "latitude": 34.1033204,
    "longitude": -117.6660458,
    "description": "For dog owners in the Ontario area, City Of Upland Dog Park offers a 4.6-star experience based on 239 reviews. Open from 6:30am to 9pm daily, there's room in the day for dog owners to bring their furry friends. For variety, the neighborhood offers more dog parks to explore: Baldy View Dog Park (0.0 miles) and James R. Bryant Dog Park (2.4 miles)."
  },
  {
    "name": "James R. Bryant Dog Park",
    "street": "664 W Flora St",
    "city": "Ontario",
    "state": "CA",
    "zip": "91762",
    "latitude": 34.0688997,
    "longitude": -117.6598731,
    "description": "James R. Bryant Dog Park at 664 W Flora St in Ontario has 4.4 stars from 182 dog owner reviews. Open from 6:30am to 9pm daily, the park is accessible for dog owners in the area. Looking to explore more? James R. Bryant Park is another dog-friendly park 0.1 miles from here."
  },
  {
    "name": "James R. Bryant Park",
    "street": "648 W D St",
    "city": "Ontario",
    "state": "CA",
    "zip": "91762",
    "latitude": 34.0670698,
    "longitude": -117.6597287,
    "description": "Dog owners in Ontario have rated James R. Bryant Park (648 W D St) 4.2 stars across 354 reviews. Open from 6am to 10pm daily, the park fits conveniently into different routines. For dog owners who like to explore, James R. Bryant Dog Park (0.1 miles) and Dog's Park (0.7 miles) are both nearby parks to try with your dog."
  },
  {
    "name": "'olołkoy Beach Park",
    "street": "1601 Harbor Blvd",
    "city": "Oxnard",
    "state": "CA",
    "zip": "93035",
    "latitude": 34.184995,
    "longitude": -119.23584,
    "description": "2,066 dog owners have made 'olołkoy Beach Park (1601 Harbor Blvd) one of Oxnard's most trusted parks (4.7 stars). Open from 8am to 7pm daily, dog owners can plan visits around their pup's favorite times to be active. Want to give your pup even more adventure? Port Hueneme Naval Base Dog is another beloved dog park just 2.8 miles away."
  },
  {
    "name": "Windrow Off-leash Dog Park",
    "street": "764 Nile River Dr",
    "city": "Oxnard",
    "state": "CA",
    "zip": "93036",
    "latitude": 34.24896,
    "longitude": -119.1766803,
    "description": "With 4.5 stars from 233 reviews, Windrow Off-leash Dog Park at 764 Nile River Dr has become a favorite among Oxnard dog owners. Open from 8am to 5pm daily, the park offers flexibility for dog owners with varying routines. Nearby, Windrow Park (0.1 miles) offers dog owners another great spot to explore with their pups."
  },
  {
    "name": "Windrow Park",
    "street": "3117 N Ventura Rd",
    "city": "Oxnard",
    "state": "CA",
    "zip": "93036",
    "latitude": 34.247961,
    "longitude": -119.176719,
    "description": "Windrow Park at 3117 N Ventura Rd holds a 4.3-star rating from 10 Oxnard dog owner visits. Dog owners in the area appreciate having a local spot to bring their pups. More dog parks in the area include Windrow Off-leash Dog Park (0.1 miles) and Sierra Linda Park (1.6 miles)—great options for mixing up your pup's routine."
  },
  {
    "name": "Sierra Linda Park",
    "street": "1040 Indigo Pl",
    "city": "Oxnard",
    "state": "CA",
    "zip": "93036",
    "latitude": 34.2272891,
    "longitude": -119.1881395,
    "description": "At 1040 Indigo Pl, Sierra Linda Park has 4.4 stars based on 181 reviews from Oxnard dog owners. Open from 6:30am to 9pm daily, dog owners have flexibility to plan a visit with their four-legged friends. Looking to explore more? Windrow Park is another dog-friendly park 1.6 miles from here."
  },
  {
    "name": "College Park",
    "street": "3250 S Rose Ave",
    "city": "Oxnard",
    "state": "CA",
    "zip": "93033",
    "latitude": 34.1697296,
    "longitude": -119.1599787,
    "description": "At 3250 S Rose Ave, College Park has 4.4 stars based on 361 reviews from Oxnard dog owners. Dog owners in the area appreciate having a local spot to bring their pups. Dog owners might also enjoy College Dog Park, another dog park just 0.1 miles away."
  },
  {
    "name": "‍ Port Hueneme Naval Base Dog",
    "street": "1080 Bard LnPort Hueneme",
    "city": "Oxnard",
    "state": "CA",
    "zip": "93041",
    "latitude": 34.159428,
    "longitude": -119.19892,
    "description": "Dog owners in Oxnard have rated Port Hueneme Naval Base Dog (1080 Bard Ln) 4.1 stars across 16 reviews. This park provides dog owners in the community with a place to visit with their dogs. More dog parks in the area include College Park (2.3 miles) and College Dog Park (2.4 miles)—great options for mixing up your pup's routine."
  },
  {
    "name": "College Dog Park",
    "street": "3200 S Rose Ave",
    "city": "Oxnard",
    "state": "CA",
    "zip": "93033",
    "latitude": 34.171543,
    "longitude": -119.159979,
    "description": "Located at 3200 S Rose Ave, College Dog Park in Oxnard is rated 4.2 stars by 284 dog owners. Open from 7am to 7:45pm daily, the park gives dog owners in the neighborhood time to bring their pups. For dog owners who like to explore, College Park (0.1 miles) and Port Hueneme Naval Base Dog (2.4 miles) are both nearby parks to try with your dog."
  },
  {
    "name": "Alice's Dog Park",
    "street": "3026 E Orange Grove Blvd",
    "city": "Pasadena",
    "state": "CA",
    "zip": "91107",
    "latitude": 34.15844,
    "longitude": -118.087574,
    "description": "Located at 3026 E Orange Grove Blvd in Pasadena, Alice's Dog Park earns strong marks from local dog owners—4.6 stars from 995 reviews. Open from 6am to 10pm, every day except Tuesday, there's room in the day for dog owners to bring their furry friends. The reviews indicate this is a trusted destination for dog owners in the area."
  },
  {
    "name": "Ryan Bonaminio Park",
    "street": "5000 Tequesquite Ave",
    "city": "Riverside",
    "state": "CA",
    "zip": "92506",
    "latitude": 33.976638,
    "longitude": -117.394492,
    "description": "For Riverside dog owners, Ryan Bonaminio Park at 5000 Tequesquite Ave has become a reliable favorite—4.6 stars from 2,911 reviews. Open from 5am to 5pm daily, dog owners have room to work around busy schedules. For more dog park adventures, explore Carlson Park (1.0 miles) or Pat Merritt Dog Park (2.0 miles) with your furry companion."
  },
  {
    "name": "Hound Town",
    "street": "11150 Redlands BlvdMoreno Valley",
    "city": "Riverside",
    "state": "CA",
    "zip": "92555",
    "latitude": 33.9584204,
    "longitude": -117.1566888,
    "description": "Riverside dog owners rate Hound Town at 11150 Redlands Blvd highly, with 4.6 stars from 282 visits. Open from 6am to 8pm daily, the park accommodates early risers and evening visitors alike. Looking for more places to take your pup? Ridge Crest Park is another popular dog park just 3.6 miles away."
  },
  {
    "name": "Shadow Rock Park",
    "street": "6598 20th StJurupa Valley",
    "city": "Riverside",
    "state": "CA",
    "zip": "92509",
    "latitude": 34.0186366,
    "longitude": -117.4186104,
    "description": "Shadow Rock Park at 6598 20th St is well-regarded by Riverside dog owners, holding 4.6 stars across 102 reviews. Open from 7am to 9pm daily, dog owners have plenty of flexibility to plan a visit. For variety, the neighborhood offers more dog parks to explore: Pat Merritt Dog Park (2.0 miles) and Carlson Park (2.6 miles)."
  },
  {
    "name": "Grand Terrace Dog Park",
    "street": "22720 Vista Grande WayGrand Terrace",
    "city": "Riverside",
    "state": "CA",
    "zip": "92313",
    "latitude": 34.0442851,
    "longitude": -117.3090202,
    "description": "For dog owners in the Riverside area, Grand Terrace Dog Park (22720 Vista Grande Way) offers a 4.6-star experience based on 100 reviews. Open from 7am to 7pm, every day except Wednesday and Friday, the park works well for dog owners with different schedules. Dog owners can also take their pups to nearby Colony Park (1.6 miles) or Lytle Creek Park (3.6 miles)."
  },
  {
    "name": "Orangecrest Dog Park",
    "street": "Barton Rd",
    "city": "Riverside",
    "state": "CA",
    "zip": "92508",
    "latitude": 33.9184442,
    "longitude": -117.313729,
    "description": "Dog owners in Riverside have made Orangecrest Dog Park a go-to spot, rating it 4.5 stars across 38 reviews. Open from 6am to 7pm daily, the park accommodates early risers and evening visitors alike. Nearby, Highland Park (4.9 miles) offers dog owners another great spot to explore with their pups."
  },
  {
    "name": "Highland Park",
    "street": "786 Glenhill Dr",
    "city": "Riverside",
    "state": "CA",
    "zip": "92507",
    "latitude": 33.9878303,
    "longitude": -117.3290956,
    "description": "With 4.5 stars from 127 reviews, Highland Park at 786 Glenhill Dr has become a favorite among Riverside dog owners. Open from 6am to 9pm daily, the park offers flexibility for dog owners with varying routines. Looking for more places to take your pup? Carlson Park is another popular dog park just 3.4 miles away."
  },
  {
    "name": "Pat Merritt Dog Park",
    "street": "6181 Limonite Ave",
    "city": "Riverside",
    "state": "CA",
    "zip": "92509",
    "latitude": 33.9901392,
    "longitude": -117.4261315,
    "description": "At 6181 Limonite Ave in Riverside, Pat Merritt Dog Park has built a loyal following—4.5 stars from 426 dog owner reviews. Open from 5am to 8pm daily, dog owners have plenty of flexibility to plan a visit. More dog-friendly parks nearby include Shadow Rock Park (2.0 miles) and Ryan Bonaminio Park (2.0 miles)—perfect for pups who love adventure."
  },
  {
    "name": "Redlands Dog Park",
    "street": "Roosevelt RdRedlands",
    "city": "Riverside",
    "state": "CA",
    "zip": "92374",
    "latitude": 34.0483873,
    "longitude": -117.1668039,
    "description": "For dog owners in the Riverside area, Redlands Dog Park offers a 4.5-star experience based on 553 reviews. Open from 7am to 9pm daily, dog owners can plan visits around work or their pup's energy level. Looking for more places to take your pup? Loma Linda Small Dog Park is another popular dog park just 4.3 miles away."
  },
  {
    "name": "Aldergate Dog Park",
    "street": "28680 Aldergate DrMenifee",
    "city": "Riverside",
    "state": "CA",
    "zip": "92584",
    "latitude": 33.6939716,
    "longitude": -117.1757418,
    "description": "For dog owners in Riverside, Aldergate Dog Park at 28680 Aldergate Dr has a 4.4-star rating (414 reviews). Open from 6am to 10pm daily, the park is accessible for dog owners in the area. Reading what other dog owners have experienced here can help with planning a visit."
  },
  {
    "name": "Carlson Park",
    "street": "4727 Scout Ln",
    "city": "Riverside",
    "state": "CA",
    "zip": "92501",
    "latitude": 33.9898661,
    "longitude": -117.3882644,
    "description": "At 4727 Scout Ln, Carlson Park has 4.4 stars based on 418 reviews from Riverside dog owners. Open from 9am to 10pm daily, local dog owners have time to explore with their furry companions. More dog parks in the area include Ryan Bonaminio Park (1.0 miles) and Pat Merritt Dog Park (2.2 miles)—great options for mixing up your pup's routine."
  },
  {
    "name": "Baldy View Dog Park",
    "street": "W 11th StUpland",
    "city": "Riverside",
    "state": "CA",
    "zip": "91786",
    "latitude": 34.1033204,
    "longitude": -117.6660458,
    "description": "Baldy View Dog Park in Riverside has 4.4 stars based on 462 reviews from dog owners. The park serves as a gathering spot for dog owners and their four-legged friends in the area. Dog owners in the neighborhood can also take their furry friends to City Of Upland Dog Park, 0.0 miles away."
  },
  {
    "name": "Riverwalk Dog Park",
    "street": "4198 Pierce St",
    "city": "Riverside",
    "state": "CA",
    "zip": "92505",
    "latitude": 33.902858,
    "longitude": -117.49753,
    "description": "Riverside dog owners rate Riverwalk Dog Park at 4198 Pierce St highly, with 4.4 stars from 764 visits. The steady stream of dog owner visits speaks to the park's appeal. Looking for more places to take your pup? Griffin Park is another popular dog park just 1.0 miles away."
  },
  {
    "name": "Griffin Park",
    "street": "420 Somerset Cir",
    "city": "Riverside",
    "state": "CA",
    "zip": "92879",
    "latitude": 33.8927345,
    "longitude": -117.5094016,
    "description": "Griffin Park at 420 Somerset Cir in Riverside has 4.3 stars from 32 dog owner reviews. The park gives neighborhood dog owners a destination for outings with their four-legged friends. Looking to explore more? Riverwalk Dog Park is another dog-friendly park 1.0 miles from here."
  },
  {
    "name": "Paws Dog Park",
    "street": "1266 Blazingstar DrPerris",
    "city": "Riverside",
    "state": "CA",
    "zip": "92571",
    "latitude": 33.8308221,
    "longitude": -117.197709,
    "description": "Located at 1266 Blazingstar Dr, Paws Dog Park in Riverside is rated 4.3 stars by 113 dog owners. Open from 6am to 10pm daily, dog owners have a window to spend time with their pups. Dog owners new to the area may find the visitor reviews useful for learning about this park."
  },
  {
    "name": "Dog's Park",
    "street": "",
    "city": "Riverside",
    "state": "CA",
    "zip": "",
    "latitude": 34.065846,
    "longitude": -117.64843,
    "description": "Dog's Park in Riverside has 4.2 stars from 90 dog owner reviews. The park serves as a gathering spot for dog owners and their four-legged friends in the area. Dog owners looking for variety can also visit James R. Bryant Park (0.7 miles) or James R. Bryant Dog Park (0.7 miles) with their four-legged friends."
  },
  {
    "name": "Don Jones Park",
    "street": "3995 Jefferson St",
    "city": "Riverside",
    "state": "CA",
    "zip": "92504",
    "latitude": 33.9400236,
    "longitude": -117.4190046,
    "description": "Don Jones Park at 3995 Jefferson St holds a 4.2-star rating from 229 Riverside dog owner visits. Dog owners in the area appreciate having a local spot to bring their pups. Dog owners in the neighborhood can also take their furry friends to Ryan Bonaminio Park, 2.9 miles away."
  },
  {
    "name": "William Land Regional Park",
    "street": "3800 W Land Park Dr",
    "city": "Sacramento",
    "state": "CA",
    "zip": "95822",
    "latitude": 38.544409,
    "longitude": -121.50345,
    "description": "At 3800 W Land Park Dr in Sacramento, William Land Regional Park draws dog owners from across the area—4.6 stars from 6,400 reviews. Open from 6:30am to 8pm daily, the park accommodates everything from early morning walks to evening adventures. The neighborhood offers dog owners more places to bring their pups: Sierra 2 Green (1.3 miles) and Belle Cooledge Park (1.4 miles)."
  },
  {
    "name": "McKinley Park",
    "street": "601 Alhambra Blvd",
    "city": "Sacramento",
    "state": "CA",
    "zip": "95816",
    "latitude": 38.577001,
    "longitude": -121.463259,
    "description": "Dog owners in Sacramento have embraced McKinley Park (601 Alhambra Blvd) as a top destination—4.6 stars from 4,295 visits. For dog owners seeking a tried-and-true destination, this park delivers consistently. Looking to mix things up? Sutter's Landing Regional Park is a nearby dog park 0.4 miles away that's worth exploring with your pup."
  },
  {
    "name": "‍ North Natomas Regional Park",
    "street": "4989 Natomas Blvd",
    "city": "Sacramento",
    "state": "CA",
    "zip": "95835",
    "latitude": 38.6631736,
    "longitude": -121.5095178,
    "description": "1,360 dog owners have made North Natomas Regional Park (4989 Natomas Blvd) one of Sacramento's most trusted parks (4.6 stars). Open from 6am to 9pm daily, the park accommodates a variety of dog owner schedules and routines. Looking to mix things up? North Natomas Regional Park is a nearby dog park 0.5 miles away that's worth exploring with your pup."
  },
  {
    "name": "Laguna Community Park",
    "street": "9014 Bruceville Rd",
    "city": "Sacramento",
    "state": "CA",
    "zip": "95758",
    "latitude": 38.4276306,
    "longitude": -121.418046,
    "description": "Laguna Community Park at 9014 Bruceville Rd is well-regarded by Sacramento dog owners, holding 4.6 stars across 379 reviews. Open from 6am to 9pm daily, the park offers flexibility for dog owners with varying routines. Dog owners exploring the neighborhood can also bring their furry friends to Jacinto Creek Park (1.0 miles)."
  },
  {
    "name": "The Local Bark Park",
    "street": "4024 Power Inn Rd",
    "city": "Sacramento",
    "state": "CA",
    "zip": "95826",
    "latitude": 38.538218,
    "longitude": -121.409251,
    "description": "At 4024 Power Inn Rd in Sacramento, The Local Bark Park has built a loyal following—5.0 stars from 9 dog owner reviews. The steady stream of dog owner visits speaks to the park's appeal. Nearby, Granite Regional Park (0.5 miles) offers dog owners another great spot to explore with their pups."
  },
  {
    "name": "Valley Oak Park",
    "street": "2780 Mabry Dr",
    "city": "Sacramento",
    "state": "CA",
    "zip": "95835",
    "latitude": 38.6751341,
    "longitude": -121.5284962,
    "description": "Dog owners in Sacramento have made Valley Oak Park at 2780 Mabry Dr a go-to spot, rating it 4.6 stars across 164 reviews. Open from 7am to 8pm daily, dog owners have plenty of flexibility to plan a visit. Dog owners can also take their pups to nearby Dogwood Park (0.5 miles) or North Natomas Regional Park (1.2 miles)."
  },
  {
    "name": "Hagan Community Dog Park",
    "street": "2197 Chase Dr",
    "city": "Sacramento",
    "state": "CA",
    "zip": "95670",
    "latitude": 38.5972515,
    "longitude": -121.3062272,
    "description": "Dog owners in Sacramento have made Hagan Community Dog Park at 2197 Chase Dr a go-to spot, rating it 4.6 stars across 156 reviews. Dog owners frequent this park for its consistent quality and welcoming atmosphere. Dog owners can also take their pups to nearby Carmichael Park (2.4 miles) or Sacramento County Animal Shelt (3.4 miles)."
  },
  {
    "name": "‍ North Natomas Regional Dog",
    "street": "",
    "city": "Sacramento",
    "state": "CA",
    "zip": "",
    "latitude": 38.5810606,
    "longitude": -121.493895,
    "description": "Dog owners in Sacramento have made North Natomas Regional Dog a go-to spot, rating it 4.6 stars across 50 reviews. Local dog owners appreciate what this park offers their four-legged friends. For a change of scenery, Discovery Park is another dog-friendly destination 0.0 miles from here."
  },
  {
    "name": "Regency Community Park",
    "street": "5500 Honor Pkwy",
    "city": "Sacramento",
    "state": "CA",
    "zip": "95835",
    "latitude": 38.676232,
    "longitude": -121.504188,
    "description": "At 5500 Honor Pkwy in Sacramento, Regency Community Park has built a loyal following—4.5 stars from 397 dog owner reviews. Open from 7am to 8pm daily, there's plenty of opportunity for dog owners to find a time that works. Other dog parks in the area include Dog Park (0.3 miles) and Dogwood Park (0.9 miles)—both great for exploring with your four-legged friend."
  },
  {
    "name": "Oki Park",
    "street": "2715 Wissemann Dr",
    "city": "Sacramento",
    "state": "CA",
    "zip": "95826",
    "latitude": 38.5544192,
    "longitude": -121.3887646,
    "description": "With 4.5 stars from 392 reviews, Oki Park at 2715 Wissemann Dr has become a favorite among Sacramento dog owners. Open from 8am to 8:30pm daily, the park offers flexibility for dog owners with varying routines. For a change of scenery, Glenbrook Park is another dog-friendly destination 0.4 miles from here."
  },
  {
    "name": "Partner Park",
    "street": "5699 S Land Park Dr",
    "city": "Sacramento",
    "state": "CA",
    "zip": "95822",
    "latitude": 38.5222604,
    "longitude": -121.5120887,
    "description": "With 4.5 stars from 353 reviews, Partner Park at 5699 S Land Park Dr has become a favorite among Sacramento dog owners. Open from 7am to 8pm daily, there's room in the day for dog owners to bring their furry friends. Nearby, Belle Cooledge Park (0.2 miles) offers dog owners another great spot to explore with their pups."
  },
  {
    "name": "Frank Seymour Park",
    "street": "845 Florin Rd",
    "city": "Sacramento",
    "state": "CA",
    "zip": "95831",
    "latitude": 38.497126,
    "longitude": -121.5291102,
    "description": "Sacramento dog owners rate Frank Seymour Park at 845 Florin Rd highly, with 4.5 stars from 301 visits. Open from 7am to 6pm daily, the park offers flexibility for dog owners with varying routines. Other dog parks in the area include Charter Pointe Park (1.1 miles) and Garcia Bend Park (1.3 miles)—both great for exploring with your four-legged friend."
  },
  {
    "name": "Sacramento County Animal Shelt",
    "street": "3839 Bradshaw Rd",
    "city": "Sacramento",
    "state": "CA",
    "zip": "95827",
    "latitude": 38.5534245,
    "longitude": -121.3354725,
    "description": "For dog owners in the Sacramento area, Sacramento County Animal Shelt (3839 Bradshaw Rd) offers a 4.5-star experience based on 237 reviews. Open from 8am to 8pm daily, dog owners can plan visits around work or their pup's energy level. Other dog parks in the area include Oki Park (2.9 miles) and Glenbrook Park (2.9 miles)—both great for exploring with your four-legged friend."
  },
  {
    "name": "‍ Belle Cooledge Park",
    "street": "5600 S Land Park Dr",
    "city": "Sacramento",
    "state": "CA",
    "zip": "95822",
    "latitude": 38.524389,
    "longitude": -121.51125,
    "description": "With 4.5 stars from 237 reviews, Belle Cooledge Park at 5600 S Land Park Dr has become a favorite among Sacramento dog owners. Open from 6am to 6pm daily, the park works well for dog owners with different schedules. Other dog parks in the area include Partner Park (0.2 miles) and William Land Regional Park (1.4 miles)—both great for exploring with your four-legged friend."
  },
  {
    "name": "Aurantia Park",
    "street": "29624 Greenspot Rd",
    "city": "San Bernardino",
    "state": "CA",
    "zip": "92346",
    "latitude": 34.1099528,
    "longitude": -117.1543883,
    "description": "Located at 29624 Greenspot Rd in San Bernardino, Aurantia Park earns strong marks from local dog owners—4.5 stars from 463 reviews. Open from 6am to 10pm daily, the park offers flexibility for dog owners with varying routines. For a change of scenery, Redlands Dog Park is another dog-friendly destination 4.3 miles from here."
  },
  {
    "name": "Lake Gregory Dog Park",
    "street": "24442 San Moritz DrCrestline",
    "city": "San Bernardino",
    "state": "CA",
    "zip": "92325",
    "latitude": 34.2401875,
    "longitude": -117.2705981,
    "description": "Lake Gregory Dog Park (4.5 stars from 226 reviews) is a popular destination for San Bernardino dog owners, located at 24442 San Moritz Dr. Open from 7:30am to 7pm daily, dog owners can easily fit a visit into busy schedules. The consistent ratings suggest dog owners know what to expect here."
  },
  {
    "name": "‍ Blair Park",
    "street": "1466 W Marshall Blvd",
    "city": "San Bernardino",
    "state": "CA",
    "zip": "92405",
    "latitude": 34.149683,
    "longitude": -117.3179288,
    "description": "Located at 1466 W Marshall Blvd in San Bernardino, Blair Park earns strong marks from local dog owners—4.4 stars from 1,567 reviews. Open from 6am to 10pm daily, dog owners have plenty of flexibility to plan a visit. Dog owners exploring the neighborhood can also bring their furry friends to Lionel E. Hudson Park (1.5 miles)."
  },
  {
    "name": "Colony Park",
    "street": "158-100 E Harwick Dr",
    "city": "San Bernardino",
    "state": "CA",
    "zip": "92408",
    "latitude": 34.0533605,
    "longitude": -117.2833875,
    "description": "For dog owners in San Bernardino, Colony Park at 158-100 E Harwick Dr has a 4.4-star rating (187 reviews). The neighborhood benefits from having this park as an option for dog owners and their pups. Dog owners might also enjoy Grand Terrace Dog Park, another dog park just 1.6 miles away."
  },
  {
    "name": "‍ MacKay Park",
    "street": "687 CA-173Lake Arrowhead",
    "city": "San Bernardino",
    "state": "CA",
    "zip": "92352",
    "latitude": 34.2521243,
    "longitude": -117.180847,
    "description": "Located at 687 CA-173, MacKay Park in San Bernardino is rated 4.4 stars by 28 dog owners. The neighborhood benefits from having this park as an option for dog owners and their pups. Checking recent reviews can help dog owners decide if this park fits their needs."
  },
  {
    "name": "Frisbee Dog Park",
    "street": "42 E Easton StRialto",
    "city": "San Bernardino",
    "state": "CA",
    "zip": "92376",
    "latitude": 34.1344537,
    "longitude": -117.3627879,
    "description": "Located at 42 E Easton St, Frisbee Dog Park in San Bernardino is rated 4.4 stars by 11 dog owners. Dog owners looking for a local destination will find this park accessible. Looking to explore more? Blair Park is another dog-friendly park 2.8 miles from here."
  },
  {
    "name": "Sterling Park",
    "street": "Sterling Ave",
    "city": "San Bernardino",
    "state": "CA",
    "zip": "92404",
    "latitude": 34.1385981,
    "longitude": -117.243682,
    "description": "Sterling Park in San Bernardino has 4.4 stars from 11 dog owner reviews. Dog owners in the area appreciate having a local spot to bring their pups. For pups who want more adventure, Dog Park is a nearby dog park worth visiting (3.1 miles)."
  },
  {
    "name": "Lionel E. Hudson Park",
    "street": "4365 Park Dr",
    "city": "San Bernardino",
    "state": "CA",
    "zip": "92407",
    "latitude": 34.1700083,
    "longitude": -117.3259868,
    "description": "At 4365 Park Dr in San Bernardino, Lionel E. Hudson Park carries 4.3 stars from 442 dog owner reviews. Open from 6am to 9pm daily, the park gives dog owners in the neighborhood time to bring their pups. Nearby dog parks worth exploring with your pup include Blair Park (1.5 miles) and Frisbee Dog Park (3.2 miles)."
  },
  {
    "name": "Loma Linda Small Dog Park",
    "street": "25765 Beaumont AveLoma Linda",
    "city": "San Bernardino",
    "state": "CA",
    "zip": "92354",
    "latitude": 34.0388409,
    "longitude": -117.2410688,
    "description": "Loma Linda Small Dog Park at 25765 Beaumont Ave holds a 4.2-star rating from 41 San Bernardino dog owner visits. The park gives neighborhood dog owners a destination for outings with their four-legged friends. Dog owners looking for variety can also visit Loma Linda Large Dog Park (0.2 miles) or Colony Park (2.6 miles) with their four-legged friends."
  },
  {
    "name": "Lytle Creek Park",
    "street": "380 S K St",
    "city": "San Bernardino",
    "state": "CA",
    "zip": "92410",
    "latitude": 34.0963562,
    "longitude": -117.307558,
    "description": "For dog owners in the San Bernardino area, Lytle Creek Park (380 S K St) offers a 4.2-star experience based on 653 reviews. Open from 8am to 6pm weekdays, dog owners can easily fit a visit into busy schedules. Dog owners can also take their pups to nearby Dog Park (1.6 miles) or Colony Park (3.3 miles)."
  },
  {
    "name": "Loma Linda Large Dog Park",
    "street": "11800 Mountain View AveLoma Linda",
    "city": "San Bernardino",
    "state": "CA",
    "zip": "92354",
    "latitude": 34.036963,
    "longitude": -117.243659,
    "description": "Dog owners in San Bernardino have rated Loma Linda Large Dog Park (11800 Mountain View Ave) 4.1 stars across 210 reviews. Open from 6am to 8pm daily, dog owners have flexibility to plan a visit with their four-legged friends. Nearby dog parks worth exploring with your pup include Loma Linda Small Dog Park (0.2 miles) and Colony Park (2.5 miles)."
  },
  {
    "name": "Balboa Park",
    "street": "1549 El Prado",
    "city": "San Diego",
    "state": "CA",
    "zip": "92101",
    "latitude": 32.7174202,
    "longitude": -117.162772,
    "description": "Dog owners have made Balboa Park at 1549 El Prado one of San Diego's most popular destinations—4.8 stars from 74,730 visits. Dog owners know this is a destination that consistently delivers for their pups. Dog owners exploring the area should also bring their pups to Dog Park (0.0 miles) and Civita Dog Park (0.0 miles)."
  },
  {
    "name": "Kate Sessions Memorial Park",
    "street": "5115 Soledad Rd",
    "city": "San Diego",
    "state": "CA",
    "zip": "92109",
    "latitude": 32.8114123,
    "longitude": -117.2399838,
    "description": "With 4.8 stars across 2,515 reviews, Kate Sessions Memorial Park at 5115 Soledad Rd has clearly won over San Diego dog owners. Open from 7am to 10pm daily, dog owners can plan visits around their pup's favorite times to be active. For variety, many dog owners also bring their furry friends to Fiesta Island Dog Park (3.4 miles)—another great dog park in the area."
  },
  {
    "name": "Civita Park",
    "street": "7960 Civita Blvd",
    "city": "San Diego",
    "state": "CA",
    "zip": "92108",
    "latitude": 32.7771504,
    "longitude": -117.1487956,
    "description": "For San Diego dog owners, Civita Park at 7960 Civita Blvd has become a reliable favorite—4.8 stars from 2,287 reviews. Open from 6am to 8:30pm daily, dog owners have room to work around busy schedules. Want to give your pup even more adventure? Old Trolley Barn Park is another beloved dog park just 1.1 miles away."
  },
  {
    "name": "Fiesta Island Dog Park",
    "street": "1750 Fiesta Island Rd",
    "city": "San Diego",
    "state": "CA",
    "zip": "92109",
    "latitude": 32.767407,
    "longitude": -117.2145769,
    "description": "1,293 dog owners have made Fiesta Island Dog Park (1750 Fiesta Island Rd) one of San Diego's most trusted parks (4.8 stars). Open from 4am to 10pm daily, dog owners have plenty of flexibility to visit when it suits their schedule. Keep the adventure going at other nearby dog parks like Presidio Park (1.3 miles) or Plumosa Park (1.6 miles)."
  },
  {
    "name": "‍ Dog Beach",
    "street": "Dog Beach",
    "city": "San Diego",
    "state": "CA",
    "zip": "92109",
    "latitude": 32.6864298,
    "longitude": -117.1955183,
    "description": "For dog owners in the San Diego area, Dog Beach offers a 4.8-star experience based on 777 reviews. Dog owners in the area consistently choose this park as a go-to destination for their pups. For a change of scenery, Dog Beach Ocean Beach is another dog-friendly destination 0.0 miles from here."
  },
  {
    "name": "Dog Beach Ocean Beach",
    "street": "Dog Beach",
    "city": "San Diego",
    "state": "CA",
    "zip": "92107",
    "latitude": 32.6864298,
    "longitude": -117.1955183,
    "description": "Dog Beach Ocean Beach is well-regarded by San Diego dog owners, holding 4.8 stars across 705 reviews. The steady stream of dog owner visits speaks to the park's appeal. Nearby, Dog Beach (0.0 miles) offers dog owners another great spot to explore with their pups."
  },
  {
    "name": "‍ Coronado Cays Dog Park",
    "street": "",
    "city": "San Diego",
    "state": "CA",
    "zip": "",
    "latitude": 32.6915199,
    "longitude": -117.1766947,
    "description": "Coronado Cays Dog Park is well-regarded by San Diego dog owners, holding 4.7 stars across 303 reviews. Dog owners in the area consistently choose this park as a go-to destination for their pups. More dog-friendly parks nearby include Coronado Dog Beach (0.7 miles) and Dog Beach Ocean Beach (1.1 miles)—perfect for pups who love adventure."
  },
  {
    "name": "Encinitas Dog Park",
    "street": "335 Santa Fe DrCardiff",
    "city": "San Diego",
    "state": "CA",
    "zip": "92007",
    "latitude": 33.0327355,
    "longitude": -117.2831038,
    "description": "Dog owners in San Diego have made Encinitas Dog Park at 335 Santa Fe Dr a go-to spot, rating it 4.7 stars across 522 reviews. Open from 8am to 6pm daily, dog owners can easily fit a visit into busy schedules. Dog owners exploring the neighborhood can also bring their furry friends to Dog Beach (4.3 miles)."
  },
  {
    "name": "Grape Street Dog Park",
    "street": "1998 28th St",
    "city": "San Diego",
    "state": "CA",
    "zip": "92102",
    "latitude": 32.726431,
    "longitude": -117.13397,
    "description": "Local dog owners love Grape Street Dog Park at 1998 28th St in San Diego—4.7 stars from an impressive 1,457 reviews. Dog owners have embraced this park as a top choice for spending time with their pups. Want to give your pup even more adventure? Morley Field Dog Park is another beloved dog park just 1.1 miles away."
  },
  {
    "name": "Dog Beach",
    "street": "3902 29th StDel Mar",
    "city": "San Diego",
    "state": "CA",
    "zip": "92014",
    "latitude": 32.9721417,
    "longitude": -117.2690489,
    "description": "Dog Beach at 3902 29th St is a favorite among San Diego dog owners, earning 4.7 stars from 1,494 reviews. Dog owners in the area know they can count on this park for quality time with their pups. For more dog park adventures, explore Encinitas Dog Park (4.3 miles) or Torrey Hills Dog Park (4.8 miles) with your furry companion."
  },
  {
    "name": "Waterfront Park",
    "street": "1600 Pacific Hwy",
    "city": "San Diego",
    "state": "CA",
    "zip": "92101",
    "latitude": 32.7213951,
    "longitude": -117.1720706,
    "description": "For San Diego dog owners, Waterfront Park at 1600 Pacific Hwy needs no introduction—4.7 stars, 9,273 reviews. Open from 6am to 10pm daily, visits fit naturally into any dog owner's routine. The neighborhood offers dog owners more places to bring their pups: Amici Park (0.4 miles) and Little Italy Dog Park (0.4 miles)."
  },
  {
    "name": "Coronado Dog Beach",
    "street": "100 Ocean BlvdCoronado",
    "city": "San Diego",
    "state": "CA",
    "zip": "92118",
    "latitude": 32.6840017,
    "longitude": -117.1841145,
    "description": "At 100 Ocean Blvd in San Diego, Coronado Dog Beach draws dog owners from across the area—4.7 stars from 12,990 reviews. Open from 6:30am to 9pm daily, dog owners can find the perfect time for their furry friend. Nearby, Coronado Cays Dog Park (0.7 miles) gives dog owners even more space to explore with their four-legged companions."
  },
  {
    "name": "Sunset Park",
    "street": "3337 La Mirada DrSan Marcos",
    "city": "San Diego",
    "state": "CA",
    "zip": "92078",
    "latitude": 33.1466288,
    "longitude": -117.2118409,
    "description": "Dog owners in San Diego have made Sunset Park at 3337 La Mirada Dr a go-to spot, rating it 4.6 stars across 64 reviews. Dog owners looking for a solid destination will find this park delivers. Looking for more places to take your pup? San Elijo Hills Dog Park is another popular dog park just 3.5 miles away."
  },
  {
    "name": "‍ Little Italy Dog Park",
    "street": "254 W Date St",
    "city": "San Diego",
    "state": "CA",
    "zip": "92101",
    "latitude": 32.7230783,
    "longitude": -117.1652317,
    "description": "Located at 254 W Date St in San Diego, Little Italy Dog Park earns strong marks from local dog owners—4.6 stars from 339 reviews. Open from 6am to 7pm daily, dog owners can plan visits around work or their pup's energy level. For a change of scenery, Amici Park is another dog-friendly destination 0.0 miles from here."
  },
  {
    "name": "Poway Dog Park",
    "street": "13094 Civic Center DrPoway",
    "city": "San Diego",
    "state": "CA",
    "zip": "92064",
    "latitude": 32.9547885,
    "longitude": -117.0463504,
    "description": "For dog owners in the San Diego area, Poway Dog Park (13094 Civic Center Dr) offers a 4.6-star experience based on 490 reviews. Open from 7am to 10pm, every day except Friday, there's room in the day for dog owners to bring their furry friends. For a change of scenery, Rancho Penãsquitos Linear Dog is another dog-friendly destination 4.5 miles from here."
  },
  {
    "name": "‍ Rohr Dog Park",
    "street": "3605 Bonita Verde Dr",
    "city": "San Diego",
    "state": "CA",
    "zip": "91902",
    "latitude": 32.6635955,
    "longitude": -117.0388661,
    "description": "San Diego dog owners rate Rohr Dog Park at 3605 Bonita Verde Dr highly, with 4.6 stars from 512 visits. Open from 6:30am to 9pm daily, dog owners can easily fit a visit into busy schedules. More dog-friendly parks nearby include Rohr Park (1.0 miles) and Southbay Townhome dog park (1.2 miles)—perfect for pups who love adventure."
  },
  {
    "name": "McLaren Park",
    "street": "McLaren Park",
    "city": "San Francisco",
    "state": "CA",
    "zip": "94134",
    "latitude": 37.7146247,
    "longitude": -122.4157472,
    "description": "McLaren Park is well-regarded by San Francisco dog owners, holding 4.9 stars across 37 reviews. Open from 5am to 12am daily, there's room in the day for dog owners to bring their furry friends. Dog owners can also take their pups to nearby John McLaren Park (0.5 miles) or Bernal Heights Dog Play Area (2.0 miles)."
  },
  {
    "name": "Fort Funston",
    "street": "206 Fort Funston Rd",
    "city": "San Francisco",
    "state": "CA",
    "zip": "94132",
    "latitude": 37.7131187,
    "longitude": -122.4999811,
    "description": "Local dog owners love Fort Funston at 206 Fort Funston Rd in San Francisco—4.8 stars from an impressive 3,767 reviews. Open from 7am to 9pm daily, dog owners have plenty of flexibility to visit when it suits their schedule. Looking to mix things up? Brotherhood Mini Dog Park is a nearby dog park 1.3 miles away that's worth exploring with your pup."
  },
  {
    "name": "Point Isabel Regional Shorelin",
    "street": "2701 Isabel St",
    "city": "San Francisco",
    "state": "CA",
    "zip": "94804",
    "latitude": 37.8989507,
    "longitude": -122.324812,
    "description": "Dog owners in San Francisco have embraced Point Isabel Regional Shorelin (2701 Isabel St) as a top destination—4.8 stars from 1,957 visits. Open from 5am to 10pm daily, dog owners can plan visits around their pup's favorite times to be active. Keep the adventure going at other nearby dog parks like Point Isabel Dog Park (0.0 miles) or Bruce King Memorial Dog Park (1.4 miles)."
  },
  {
    "name": "‍ Patrick's Park",
    "street": "Fort",
    "city": "San Francisco",
    "state": "CA",
    "zip": "94123",
    "latitude": 37.8062813,
    "longitude": -122.4281207,
    "description": "San Francisco dog owners rate Patrick's Park highly, with 4.8 stars from 64 visits. The steady stream of dog owner visits speaks to the park's appeal. Other dog parks in the area include Dog Park (0.6 miles) and Allyne Park (0.6 miles)—both great for exploring with your four-legged friend."
  },
  {
    "name": "Pepi's Dog Play Area",
    "street": "Larkin St",
    "city": "San Francisco",
    "state": "CA",
    "zip": "94109",
    "latitude": 37.7930213,
    "longitude": -122.4195071,
    "description": "In San Francisco, Pepi's Dog Play Area has built a loyal following—5.0 stars from 8 dog owner reviews. Open from 5am to 12am daily, dog owners have plenty of flexibility to plan a visit. Looking for more places to take your pup? Lafayette Park is another popular dog park just 0.4 miles away."
  },
  {
    "name": "Mountain Lake Park",
    "street": "1 Funston Ave",
    "city": "San Francisco",
    "state": "CA",
    "zip": "94118",
    "latitude": 37.786534,
    "longitude": -122.472303,
    "description": "With 4.8 stars from 40 reviews, Mountain Lake Park at 1 Funston Ave has become a favorite among San Francisco dog owners. Open from 5am to 12am daily, the park offers flexibility for dog owners with varying routines. Nearby, Mountain Lake Park (0.0 miles) offers dog owners another great spot to explore with their pups."
  },
  {
    "name": "Yerba Buena Island Dog Park",
    "street": "60 Yerba Buena Rd",
    "city": "San Francisco",
    "state": "CA",
    "zip": "94130",
    "latitude": 37.8108461,
    "longitude": -122.3673112,
    "description": "Yerba Buena Island Dog Park (4.8 stars from 9 reviews) is a popular destination for San Francisco dog owners, located at 60 Yerba Buena Rd. For dog owners in the area, this park has become a trusted spot for time with their pups. More dog-friendly parks nearby include Huntington Park (2.8 miles) and Mission Creek Dog Park (2.9 miles)—perfect for pups who love adventure."
  },
  {
    "name": "Golden Gate Park",
    "street": "501 Stanyan St",
    "city": "San Francisco",
    "state": "CA",
    "zip": "94117",
    "latitude": 37.7792588,
    "longitude": -122.4193286,
    "description": "For San Francisco dog owners, Golden Gate Park at 501 Stanyan St needs no introduction—4.7 stars, 42,750 reviews. Few parks earn this level of trust from the dog owner community. For dog owners wanting to explore more with their furry friends, Treasure Island Dog Park is another great dog park just 0.0 miles away."
  },
  {
    "name": "Mission Dolores Park",
    "street": "566 Dolores St",
    "city": "San Francisco",
    "state": "CA",
    "zip": "94110",
    "latitude": 37.7600692,
    "longitude": -122.4238274,
    "description": "At 566 Dolores St in San Francisco, Mission Dolores Park draws dog owners from across the area—4.7 stars from 15,152 reviews. Open from 6am to 10pm daily, dog owners have maximum flexibility to plan their visit. Nearby, Eureka Valley Dog Play Area (0.7 miles) gives dog owners even more space to explore with their four-legged companions."
  },
  {
    "name": "‍ Crissy Field",
    "street": "603 Mason St",
    "city": "San Francisco",
    "state": "CA",
    "zip": "94129",
    "latitude": 37.7792588,
    "longitude": -122.4193286,
    "description": "For San Francisco dog owners, Crissy Field at 603 Mason St needs no introduction—4.7 stars, 5,704 reviews. Dog owners know this is a destination that consistently delivers for their pups. Dog owners in this area are lucky to have more great dog parks nearby: Golden Gate Park (0.0 miles) and Treasure Island Dog Park (0.0 miles)."
  },
  {
    "name": "Alamo Square Park",
    "street": "Hayes St",
    "city": "San Francisco",
    "state": "CA",
    "zip": "94117",
    "latitude": 37.7734286,
    "longitude": -122.4501731,
    "description": "In San Francisco, Alamo Square Park stands out with 4.7 stars from 3,887 happy dog owners. Open from 5am to 12am daily, the park accommodates a variety of dog owner schedules and routines. Looking to mix things up? Buena Vista Dog Play Area is a nearby dog park 0.5 miles away that's worth exploring with your pup."
  },
  {
    "name": "Lafayette Park",
    "street": "Gough St &Washington St",
    "city": "San Francisco",
    "state": "CA",
    "zip": "94109",
    "latitude": 37.792565,
    "longitude": -122.4262903,
    "description": "With 4.7 stars across 2,571 reviews, Lafayette Park has clearly won over San Francisco dog owners. Open from 5am to 11:45pm daily, dog owners have room to work around busy schedules. Keep the adventure going at other nearby dog parks like Lafayette Park (0.1 miles) or Allyne Park (0.3 miles)."
  },
  {
    "name": "Mount Sutro Open Space Reserve",
    "street": "",
    "city": "San Francisco",
    "state": "CA",
    "zip": "",
    "latitude": 37.7792588,
    "longitude": -122.4193286,
    "description": "In San Francisco, Mount Sutro Open Space Reserve earns strong marks from local dog owners—4.7 stars from 707 reviews. The steady stream of dog owner visits speaks to the park's appeal. More dog-friendly parks nearby include Golden Gate Park (0.0 miles) and Treasure Island Dog Park (0.0 miles)—perfect for pups who love adventure."
  },
  {
    "name": "‍ Lafayette Park",
    "street": "Lafayette Park",
    "city": "San Francisco",
    "state": "CA",
    "zip": "94109",
    "latitude": 37.7915184,
    "longitude": -122.4284452,
    "description": "In San Francisco, Lafayette Park has built a loyal following—4.7 stars from 361 dog owner reviews. Dog owners frequent this park for its consistent quality and welcoming atmosphere. Nearby, Lafayette Park (0.1 miles) offers dog owners another great spot to explore with their pups."
  },
  {
    "name": "Alum Rock Park",
    "street": "15350 Penitencia Creek Rd",
    "city": "San Jose",
    "state": "CA",
    "zip": "95127",
    "latitude": 37.3962658,
    "longitude": -121.8259819,
    "description": "For San Jose dog owners, Alum Rock Park at 15350 Penitencia Creek Rd has become a reliable favorite—4.7 stars from 3,349 reviews. Open from 8am to 6:30pm daily, there's always time for dog owners to bring their pup for some quality time. Looking to mix things up? Piedmont Road Dog Park is a nearby dog park 1.0 miles away that's worth exploring with your pup."
  },
  {
    "name": "Guadalupe Oak Grove Park",
    "street": "5982 Thorntree Dr",
    "city": "San Jose",
    "state": "CA",
    "zip": "95120",
    "latitude": 37.2354462,
    "longitude": -121.8775906,
    "description": "For dog owners in the San Jose area, Guadalupe Oak Grove Park (5982 Thorntree Dr) offers a 4.7-star experience based on 424 reviews. Open from 8am to 7pm daily, there's room in the day for dog owners to bring their furry friends. Other dog parks in the area include Almaden Lake Park (0.4 miles) and Jeffrey Fontana Park (1.0 miles)—both great for exploring with your four-legged friend."
  },
  {
    "name": "Morgan Hill Dog Park",
    "street": "271 W Edmundson AveMorgan Hill",
    "city": "San Jose",
    "state": "CA",
    "zip": "95037",
    "latitude": 37.1122963,
    "longitude": -121.6483455,
    "description": "Located at 271 W Edmundson Ave in San Jose, Morgan Hill Dog Park earns strong marks from local dog owners—4.7 stars from 234 reviews. Open from 6am to 8:30pm daily, there's plenty of opportunity for dog owners to find a time that works. Dog owners looking for a dependable spot will find this park lives up to its ratings."
  },
  {
    "name": "Hellyer County Park",
    "street": "985 Hellyer Ave",
    "city": "San Jose",
    "state": "CA",
    "zip": "95111",
    "latitude": 37.2842663,
    "longitude": -121.8146334,
    "description": "Hellyer County Park at 985 Hellyer Ave is a favorite among San Jose dog owners, earning 4.6 stars from 2,893 reviews. The strong community of dog owners here reflects how much the park is valued. Looking to mix things up? Raleigh Linear Park is a nearby dog park 2.9 miles away that's worth exploring with your pup."
  },
  {
    "name": "Almaden Lake Park",
    "street": "6099 Winfield Blvd",
    "city": "San Jose",
    "state": "CA",
    "zip": "95120",
    "latitude": 37.2397873,
    "longitude": -121.8729646,
    "description": "2,884 dog owners have made Almaden Lake Park (6099 Winfield Blvd) one of San Jose's most trusted parks (4.6 stars). Open from 8am to 8pm daily, dog owners can plan visits around their pup's favorite times to be active. For variety, many dog owners also bring their furry friends to Guadalupe Oak Grove Park (0.4 miles)—another great dog park in the area."
  },
  {
    "name": "Emma Prusch Farm Park",
    "street": "647 S King Rd",
    "city": "San Jose",
    "state": "CA",
    "zip": "95116",
    "latitude": 37.3422027,
    "longitude": -121.8455008,
    "description": "Local dog owners love Emma Prusch Farm Park at 647 S King Rd in San Jose—4.6 stars from an impressive 2,412 reviews. Open from 8:30am to 6pm daily, dog owners have plenty of flexibility to visit when it suits their schedule. For more dog park adventures, explore Hillview Park (1.1 miles) or Selma Olinder Park (1.2 miles) with your furry companion."
  },
  {
    "name": "Las Palmas Park",
    "street": "850 Russet Dr",
    "city": "San Jose",
    "state": "CA",
    "zip": "94087",
    "latitude": 37.36341,
    "longitude": -122.0395785,
    "description": "At 850 Russet Dr in San Jose, Las Palmas Park stands out with 4.6 stars from 2,344 happy dog owners. Open from 6:30am to 9pm daily, dog owners can plan visits around their pup's favorite times to be active. Want to give your pup even more adventure? Fenced Dog Park is another beloved dog park just 4.0 miles away."
  },
  {
    "name": "Los Gatos Creek County Park",
    "street": "1250 Dell AveCampbell",
    "city": "San Jose",
    "state": "CA",
    "zip": "95008",
    "latitude": 37.2682473,
    "longitude": -121.9530959,
    "description": "Los Gatos Creek County Park at 1250 Dell Ave in San Jose is a community favorite, with 1,925 dog owners giving it 4.6 stars. Open from 8am to 6:15pm daily, the park accommodates a variety of dog owner schedules and routines. Other popular dog parks nearby include Butcher Dog Park (2.0 miles) and Saratoga Creek Dog Park (3.0 miles)—both favorites among local pup parents."
  },
  {
    "name": "Reed Street Dog Park",
    "street": "888 Reed StSanta Clara",
    "city": "San Jose",
    "state": "CA",
    "zip": "95050",
    "latitude": 37.3588735,
    "longitude": -121.9473341,
    "description": "With 4.6 stars from 559 reviews, Reed Street Dog Park at 888 Reed St has become a favorite among San Jose dog owners. The park serves dog owners well, providing a destination the community values. Looking for more places to take your pup? Larry J Marsalli Dog Park is another popular dog park just 0.3 miles away."
  },
  {
    "name": "Fenced Dog Park",
    "street": "2000 California StMountain View",
    "city": "San Jose",
    "state": "CA",
    "zip": "94040",
    "latitude": 37.398167,
    "longitude": -122.0969694,
    "description": "San Jose dog owners rate Fenced Dog Park at 2000 California St highly, with 4.6 stars from 251 visits. Open from 6am to 9pm daily, dog owners can easily fit a visit into busy schedules. More dog-friendly parks nearby include Village Green Dog Park (0.9 miles) and Las Palmas Park (4.0 miles)—perfect for pups who love adventure."
  },
  {
    "name": "City of Milpitas Dog Park",
    "street": "Tularcitos Trail",
    "city": "San Jose",
    "state": "CA",
    "zip": "95035",
    "latitude": 37.4572887,
    "longitude": -121.8599732,
    "description": "In San Jose, City of Milpitas Dog Park earns strong marks from local dog owners—4.6 stars from 246 reviews. Open from 8am to 7:30pm daily, the park offers flexibility for dog owners with varying routines. For a change of scenery, Ed R. Levin County Park is another dog-friendly destination 1.1 miles from here."
  },
  {
    "name": "Newbark Dog Park",
    "street": "35501 Cedar BlvdNewark",
    "city": "San Jose",
    "state": "CA",
    "zip": "94560",
    "latitude": 37.5504143,
    "longitude": -122.0415803,
    "description": "Located at 35501 Cedar Blvd in San Jose, Newbark Dog Park earns strong marks from local dog owners—4.6 stars from 243 reviews. Open from 6am to 8pm daily, the park offers flexibility for dog owners with varying routines. Dog owners can also take their pups to nearby Patterson Park (1.0 miles) or Crandall Creek Park (1.3 miles)."
  },
  {
    "name": "Cannery Park",
    "street": "N 10th St",
    "city": "San Jose",
    "state": "CA",
    "zip": "95112",
    "latitude": 37.3429902,
    "longitude": -121.8827431,
    "description": "Dog owners in San Jose have made Cannery Park a go-to spot, rating it 4.7 stars across 23 reviews. Dog owners frequent this park for its consistent quality and welcoming atmosphere. Nearby, St James Park (0.6 miles) offers dog owners another great spot to explore with their pups."
  },
  {
    "name": "Iris Chang Park",
    "street": "Epic Way",
    "city": "San Jose",
    "state": "CA",
    "zip": "95134",
    "latitude": 37.3995553,
    "longitude": -121.9192113,
    "description": "For dog owners in the San Jose area, Iris Chang Park offers a 4.6-star experience based on 39 reviews. Dog owners in the area consistently choose this park as a go-to destination for their pups. Looking for more places to take your pup? Moitozo Park is another popular dog park just 1.2 miles away."
  },
  {
    "name": "Piedmont Road Dog Park",
    "street": "1025 Piedmont Rd",
    "city": "San Jose",
    "state": "CA",
    "zip": "95132",
    "latitude": 37.3943801,
    "longitude": -121.8444529,
    "description": "Located at 1025 Piedmont Rd in San Jose, Piedmont Road Dog Park earns strong marks from local dog owners—4.6 stars from 7 reviews. The steady stream of dog owner visits speaks to the park's appeal. Dog owners exploring the neighborhood can also bring their furry friends to Penitencia Creek Park (0.3 miles)."
  },
  {
    "name": "Penitencia Creek Park",
    "street": "3050 Berryessa Rd",
    "city": "San Jose",
    "state": "CA",
    "zip": "95132",
    "latitude": 37.3920648,
    "longitude": -121.8491893,
    "description": "With 4.5 stars across 1,085 reviews, Penitencia Creek Park at 3050 Berryessa Rd has clearly won over San Jose dog owners. Open from 6am to 6pm daily, it's easy for dog owners to stop by whenever works best. Keep the adventure going at other nearby dog parks like Piedmont Road Dog Park (0.3 miles) or Cimarrón Park (0.8 miles)."
  },
  {
    "name": "Mile Square Regional Park",
    "street": "16801 Euclid StFountain Valley",
    "city": "Santa Ana",
    "state": "CA",
    "zip": "92708",
    "latitude": 33.7275147,
    "longitude": -117.9385808,
    "description": "Mile Square Regional Park at 16801 Euclid St is one of the most beloved dog parks in Santa Ana—4.7 stars from an incredible 6,477 reviews. Open from 7am to 6pm daily, there's plenty of opportunity for dog owners to experience what makes this park special. Dog owners in the area also frequent Cloverdale Park (1.3 miles)—another top dog park worth visiting with your pup."
  },
  {
    "name": "TeWinkle Park",
    "street": "970 Arlington Dr",
    "city": "Santa Ana",
    "state": "CA",
    "zip": "92626",
    "latitude": 33.6688508,
    "longitude": -117.9008968,
    "description": "Dog owners in Santa Ana have embraced TeWinkle Park (970 Arlington Dr) as a top destination—4.7 stars from 1,423 visits. Open from 7am to 9:30pm daily, the park is convenient for before work, after work, or weekend adventures. Dog owners in the area also love bringing their pups to Bark Park (0.3 miles) and Brentwood Park (1.0 miles)."
  },
  {
    "name": "Fairview Park",
    "street": "2525 Placentia Ave",
    "city": "Santa Ana",
    "state": "CA",
    "zip": "92626",
    "latitude": 33.667541,
    "longitude": -117.9371877,
    "description": "At 2525 Placentia Ave in Santa Ana, Fairview Park stands out with 4.7 stars from 1,237 happy dog owners. Open from 6am to 8pm daily, there's always time for dog owners to bring their pup for some quality time. Other popular dog parks nearby include Arevalos Park (0.8 miles) and Smallwood Park (1.2 miles)—both favorites among local pup parents."
  },
  {
    "name": "Shiffer Park",
    "street": "3143 Bear St",
    "city": "Santa Ana",
    "state": "CA",
    "zip": "92626",
    "latitude": 33.684513,
    "longitude": -117.892061,
    "description": "Located at 3143 Bear St in Santa Ana, Shiffer Park earns strong marks from local dog owners—4.6 stars from 66 reviews. Open from 5am to 11pm daily, dog owners can easily fit a visit into busy schedules. Other dog parks in the area include Bark Park (1.1 miles) and TeWinkle Park (1.2 miles)—both great for exploring with your four-legged friend."
  },
  {
    "name": "Holderman Park",
    "street": "",
    "city": "Santa Ana",
    "state": "CA",
    "zip": "",
    "latitude": 33.764462,
    "longitude": -117.7939431,
    "description": "For dog owners in the Santa Ana area, Holderman Park offers a 4.6-star experience based on 45 reviews. Open from 6:30am to 10pm daily, the park accommodates early risers and evening visitors alike. More dog-friendly parks nearby include Tustin Legacy Park (2.3 miles) and Orange Dog Park (2.5 miles)—perfect for pups who love adventure."
  },
  {
    "name": "Smallwood Park",
    "street": "1646 Corsica Pl",
    "city": "Santa Ana",
    "state": "CA",
    "zip": "92626",
    "latitude": 33.6816768,
    "longitude": -117.9250078,
    "description": "At 1646 Corsica Pl in Santa Ana, Smallwood Park has built a loyal following—4.5 stars from 20 dog owner reviews. Local dog owners appreciate what this park offers their four-legged friends. Nearby, Fairview Park (1.2 miles) offers dog owners another great spot to explore with their pups."
  },
  {
    "name": "San Mateo Park",
    "street": "3370 Main St",
    "city": "Santa Ana",
    "state": "CA",
    "zip": "92614",
    "latitude": 33.6770851,
    "longitude": -117.8270287,
    "description": "Located at 3370 Main St in Santa Ana, San Mateo Park earns strong marks from local dog owners—4.5 stars from 36 reviews. Open from 6am to 10pm daily, the park offers flexibility for dog owners with varying routines. Dog owners can also take their pups to nearby Gabrielino Park (2.6 miles) or Lillie King Park (3.4 miles)."
  },
  {
    "name": "Brentwood Park",
    "street": "260 Brentwood St",
    "city": "Santa Ana",
    "state": "CA",
    "zip": "92627",
    "latitude": 33.6551609,
    "longitude": -117.8950467,
    "description": "Dog owners in Santa Ana have rated Brentwood Park (260 Brentwood St) 4.4 stars across 106 reviews. Open from 7am to 7pm daily, the park gives dog owners in the neighborhood time to bring their pups. Looking to explore more? Bark Park is another dog-friendly park 1.0 miles from here."
  },
  {
    "name": "George Upton All Access Park",
    "street": "S Linda Way",
    "city": "Santa Ana",
    "state": "CA",
    "zip": "92704",
    "latitude": 33.7113963,
    "longitude": -117.892834,
    "description": "In Santa Ana, George Upton All Access Park carries 4.4 stars from 217 dog owner reviews. Open from 7am to 9pm daily, dog owners have a window to spend time with their pups. Looking to explore more? Carl Thornton Park is another dog-friendly park 0.3 miles from here."
  },
  {
    "name": "Windsor Park",
    "street": "2915 W La Verne Ave",
    "city": "Santa Ana",
    "state": "CA",
    "zip": "92704",
    "latitude": 33.7300922,
    "longitude": -117.9082821,
    "description": "Dog owners in Santa Ana have rated Windsor Park (2915 W La Verne Ave) 4.4 stars across 283 reviews. Open from 8am to 10pm daily, dog owners can stop by when it fits their schedule. Dog owners might also enjoy Centennial Park, another dog park just 0.2 miles away."
  },
  {
    "name": "Cloverdale Park",
    "street": "9721 Cloverdale Ave",
    "city": "Santa Ana",
    "state": "CA",
    "zip": "92683",
    "latitude": 33.7351302,
    "longitude": -117.9592527,
    "description": "At 9721 Cloverdale Ave, Cloverdale Park has 4.3 stars based on 28 reviews from Santa Ana dog owners. Open from 6:30am to 9pm daily, the park gives dog owners in the neighborhood time to bring their pups. More dog parks in the area include Mile Square Regional Park (1.3 miles) and Garden Grove Park (1.7 miles)—great options for mixing up your pup's routine."
  },
  {
    "name": "Carl Thornton Park",
    "street": "1801 W Segerstrom Ave",
    "city": "Santa Ana",
    "state": "CA",
    "zip": "92704",
    "latitude": 33.7072899,
    "longitude": -117.8911139,
    "description": "Carl Thornton Park (4.4 stars from 794 reviews) is a popular destination for Santa Ana dog owners, located at 1801 W Segerstrom Ave. Open from 8am to 10pm daily, the park offers flexibility for dog owners with varying routines. Other dog parks in the area include George Upton All Access Park (0.3 miles) and Bomo Koral Park (0.8 miles)—both great for exploring with your four-legged friend."
  },
  {
    "name": "Gisler Park",
    "street": "21215 Strathmoor Ln",
    "city": "Santa Ana",
    "state": "CA",
    "zip": "92646",
    "latitude": 33.6556574,
    "longitude": -117.9576929,
    "description": "For dog owners in Santa Ana, Gisler Park at 21215 Strathmoor Ln has a 4.3-star rating (91 reviews). Open from 6am to 10pm daily, the park fits conveniently into different routines. For dog owners who like to explore, Seely Park (0.7 miles) and Hawes Park (0.8 miles) are both nearby parks to try with your dog."
  },
  {
    "name": "Lillie King Park",
    "street": "500 W Alton Ave",
    "city": "Santa Ana",
    "state": "CA",
    "zip": "92707",
    "latitude": 33.705348,
    "longitude": -117.874498,
    "description": "At 500 W Alton Ave, Lillie King Park has 4.3 stars based on 185 reviews from Santa Ana dog owners. The park gives neighborhood dog owners a destination for outings with their four-legged friends. Dog owners might also enjoy Bomo Koral Park, another dog park just 0.5 miles away."
  },
  {
    "name": "Jack Fisher Park",
    "street": "2501 N Flower St",
    "city": "Santa Ana",
    "state": "CA",
    "zip": "92706",
    "latitude": 33.770817,
    "longitude": -117.875975,
    "description": "Jack Fisher Park at 2501 N Flower St in Santa Ana has 4.3 stars from 204 dog owner reviews. Open from 6am to 7pm daily, local dog owners have time to explore with their furry companions. For dog owners who like to explore, Santiago Park (0.8 miles) and French Park (1.4 miles) are both nearby parks to try with your dog."
  },
  {
    "name": "‍ Centennial Park",
    "street": "3000 W Edinger Ave",
    "city": "Santa Ana",
    "state": "CA",
    "zip": "92704",
    "latitude": 33.7275862,
    "longitude": -117.9103526,
    "description": "Located at 3000 W Edinger Ave in Santa Ana, Centennial Park earns strong marks from local dog owners—4.3 stars from 1,621 reviews. Open from 5am to 11pm daily, dog owners have plenty of flexibility to plan a visit. Looking for more places to take your pup? Windsor Park is another popular dog park just 0.2 miles away."
  },
  {
    "name": "Canyon Country Park",
    "street": "17615 Soledad Canyon Rd",
    "city": "‍ Santa Clarita",
    "state": "CA",
    "zip": "91387",
    "latitude": 34.418047,
    "longitude": -118.440609,
    "description": "At 17615 Soledad Canyon Rd in Santa Clarita, Canyon Country Park has built a loyal following—4.7 stars from 942 dog owner reviews. Open from 6am to 10pm daily, there's plenty of opportunity for dog owners to find a time that works. For variety, the neighborhood offers more dog parks to explore: Golden Valley Park (3.5 miles) and Central Park (4.6 miles)."
  },
  {
    "name": "‍ Golden Valley Dog Park",
    "street": "",
    "city": "‍ Santa Clarita",
    "state": "CA",
    "zip": "",
    "latitude": 34.4127963,
    "longitude": -118.5538088,
    "description": "In Santa Clarita, Golden Valley Dog Park has built a loyal following—4.7 stars from 254 dog owner reviews. Open from 7am to 9pm daily, the park works well for dog owners with different schedules. More dog-friendly parks nearby include Central Bark Park (0.0 miles) and Dogwood Gated Community Dog (0.0 miles)—perfect for pups who love adventure."
  },
  {
    "name": "Copper Hill Park",
    "street": "21230 Copper Hill Dr",
    "city": "‍ Santa Clarita",
    "state": "CA",
    "zip": "91390",
    "latitude": 34.461631,
    "longitude": -118.5045691,
    "description": "With 4.6 stars from 138 reviews, Copper Hill Park at 21230 Copper Hill Dr has become a favorite among Santa Clarita dog owners. Open from 6am to 10pm daily, the park accommodates early risers and evening visitors alike. Dog owners can also take their pups to nearby Central Park (1.9 miles) or Golden Valley Park (2.0 miles)."
  },
  {
    "name": "Golden Valley Park",
    "street": "27227 Five Knolls Dr",
    "city": "‍ Santa Clarita",
    "state": "CA",
    "zip": "91350",
    "latitude": 34.4323846,
    "longitude": -118.4987885,
    "description": "At 27227 Five Knolls Dr in Santa Clarita, Golden Valley Park has built a loyal following—4.6 stars from 189 dog owner reviews. Open from 7am to 10pm daily, the park works well for dog owners with different schedules. More dog-friendly parks nearby include Central Park (1.2 miles) and Copper Hill Park (2.0 miles)—perfect for pups who love adventure."
  },
  {
    "name": "Central Bark Park",
    "street": "",
    "city": "‍ Santa Clarita",
    "state": "CA",
    "zip": "",
    "latitude": 34.4127963,
    "longitude": -118.5538088,
    "description": "Central Bark Park (4.5 stars from 55 reviews) is a popular destination for Santa Clarita dog owners. Dog owners looking for a solid destination will find this park delivers. Looking for more places to take your pup? Dogwood Gated Community Dog is another popular dog park just 0.0 miles away."
  },
  {
    "name": "Dogwood Gated Community Dog",
    "street": "",
    "city": "‍ Santa Clarita",
    "state": "CA",
    "zip": "",
    "latitude": 34.4127963,
    "longitude": -118.5538088,
    "description": "Dogwood Gated Community Dog in Santa Clarita is rated 4.3 stars by 36 dog owners. Open from 8am to 10pm daily, the park fits conveniently into different routines. For dog owners who like to explore, Central Bark Park (0.0 miles) and Golden Valley Dog Park (0.0 miles) are both nearby parks to try with your dog."
  },
  {
    "name": "Lathrop Dog Park",
    "street": "17801 Inland Passage Way",
    "city": "Stockton",
    "state": "CA",
    "zip": "95330",
    "latitude": 37.8021268,
    "longitude": -121.3113864,
    "description": "Located at 17801 Inland Passage Way in Stockton, Lathrop Dog Park earns strong marks from local dog owners—4.6 stars from 310 reviews. Local dog owners appreciate what this park offers their four-legged friends. The steady stream of positive reviews suggests dog owners consistently have good experiences here."
  },
  {
    "name": "Michael Faklis Park",
    "street": "5250 Cosumnes Dr",
    "city": "Stockton",
    "state": "CA",
    "zip": "95219",
    "latitude": 38.048084,
    "longitude": -121.3748991,
    "description": "Dog owners in Stockton have made Michael Faklis Park at 5250 Cosumnes Dr a go-to spot, rating it 4.5 stars across 510 reviews. Local dog owners appreciate what this park offers their four-legged friends. Nearby, Barkleyville Dog Park (3.8 miles) offers dog owners another great spot to explore with their pups."
  },
  {
    "name": "Barkleyville Dog Park",
    "street": "5505 Feather River Dr",
    "city": "Stockton",
    "state": "CA",
    "zip": "95219",
    "latitude": 37.9972195,
    "longitude": -121.35071,
    "description": "Dog owners in Stockton have rated Barkleyville Dog Park (5505 Feather River Dr) 4.4 stars across 405 reviews. Open from 6am to 9pm daily, local dog owners have time to explore with their furry companions. Dog owners might also enjoy Michael Faklis Park, another dog park just 3.8 miles away."
  }
]