[
  {
    "name": "Burt Aaronson South County",
    "street": "11200 Park Access Rd",
    "city": "Boca Raton",
    "state": "FL",
    "zip": "33498",
    "latitude": 26.3755785,
    "longitude": -80.2216012,
    "description": "1,648 dog owners have made Burt Aaronson South County (11200 Park Access Rd) one of Boca Raton's most trusted parks (4.7 stars). Open from 7am to 7pm daily, dog owners have plenty of flexibility to visit when it suits their schedule. Other popular dog parks nearby include Canine Cove at South County (1.4 miles) and Barkland Dog Park (4.8 miles)—both favorites among local pup parents."
  },
  {
    "name": "Dog Park",
    "street": "",
    "city": "Boca Raton",
    "state": "FL",
    "zip": "",
    "latitude": 26.3586885,
    "longitude": -80.0830984,
    "description": "Dog Park in Boca Raton has 4.2 stars based on 6 reviews from dog owners. Local dog owners use this park as a spot to spend time with their furry companions. For dog owners who like to explore, Bark Park (2.1 miles) and Mizner Bark Dog Park (2.6 miles) are both nearby parks to try with your dog."
  },
  {
    "name": "‍ Bark Park",
    "street": "3001 N Ocean Blvd",
    "city": "Boca Raton",
    "state": "FL",
    "zip": "33431",
    "latitude": 26.3847084,
    "longitude": -80.0666484,
    "description": "For dog owners in Boca Raton, Bark Park at 3001 N Ocean Blvd has a 4.4-star rating (234 reviews). The neighborhood benefits from having this park as an option for dog owners and their pups. More dog parks in the area include Dog Park (2.1 miles) and Mizner Bark Dog Park (3.2 miles)—great options for mixing up your pup's routine."
  },
  {
    "name": "Fellowship Park",
    "street": "2110 Chiquita Blvd S",
    "city": "Cape Coral",
    "state": "FL",
    "zip": "33991",
    "latitude": 26.6141292,
    "longitude": -82.007281,
    "description": "With 4.8 stars across 1,142 reviews, Fellowship Park at 2110 Chiquita Blvd S has clearly won over Cape Coral dog owners. Open from 8am to 7pm daily, the park is convenient for before work, after work, or weekend adventures. For variety, many dog owners also bring their furry friends to Cape Coral Sports Complex (1.1 miles)—another great dog park in the area."
  },
  {
    "name": "‍ Cape Coral Joe Stonis Park",
    "street": "346 SW 6th St",
    "city": "Cape Coral",
    "state": "FL",
    "zip": "33991",
    "latitude": 26.640184,
    "longitude": -81.9898046,
    "description": "Dog owners in Cape Coral have made Cape Coral Joe Stonis Park at 346 SW 6th St a go-to spot, rating it 4.9 stars across 30 reviews. The park has earned its reputation among dog owners in the neighborhood as a reliable choice. More dog-friendly parks nearby include Lake Kennedy Community Park (0.7 miles) and Saratoga Lake Park (1.2 miles)—perfect for pups who love adventure."
  },
  {
    "name": "Estero Community Park",
    "street": "9200 Corkscrew Palms BlvdEstero",
    "city": "Cape Coral",
    "state": "FL",
    "zip": "33928",
    "latitude": 26.4284306,
    "longitude": -81.8017168,
    "description": "For dog owners in the Cape Coral area, Estero Community Park (9200 Corkscrew Palms Blvd) offers a 4.7-star experience based on 957 reviews. Open from 7am to 9pm daily, dog owners can easily fit a visit into busy schedules. The reviews indicate this is a trusted destination for dog owners in the area."
  },
  {
    "name": "Bonita Springs Dog Park",
    "street": "11071 E Terry StBonita Springs",
    "city": "Cape Coral",
    "state": "FL",
    "zip": "34135",
    "latitude": 26.3460063,
    "longitude": -81.7689744,
    "description": "Bonita Springs Dog Park (4.7 stars from 629 reviews) is a popular destination for Cape Coral dog owners, located at 11071 E Terry St. Open from 8am to 8pm, every day except Thursday, dog owners have plenty of flexibility to plan a visit. The positive feedback from local dog owners speaks to the park's consistent quality."
  },
  {
    "name": "Joe Stonis Park",
    "street": "3444 Ceitus Pkwy",
    "city": "Cape Coral",
    "state": "FL",
    "zip": "33991",
    "latitude": 26.6422801,
    "longitude": -82.0453267,
    "description": "Dog owners in Cape Coral have made Joe Stonis Park at 3444 Ceitus Pkwy a go-to spot, rating it 4.7 stars across 610 reviews. Local dog owners appreciate what this park offers their four-legged friends. Dog owners can also take their pups to nearby Sirenia Vista (0.6 miles) or Burnt Store Boat Ramp (0.7 miles)."
  },
  {
    "name": "Rosen Park",
    "street": "2414 SE 15th Terrace",
    "city": "Cape Coral",
    "state": "FL",
    "zip": "33990",
    "latitude": 26.624491,
    "longitude": -81.9240103,
    "description": "For dog owners in the Cape Coral area, Rosen Park (2414 SE 15th Terrace) offers a 4.7-star experience based on 309 reviews. Dog owners in the area consistently choose this park as a go-to destination for their pups. More dog-friendly parks nearby include Horton Park (1.4 miles) and Paul Sanborn Park (1.6 miles)—perfect for pups who love adventure."
  },
  {
    "name": "Koza/Saladino Park",
    "street": "301 SW 30th Terrace",
    "city": "Cape Coral",
    "state": "FL",
    "zip": "33914",
    "latitude": 26.595357,
    "longitude": -81.9811285,
    "description": "Located at 301 SW 30th Terrace in Cape Coral, Koza/Saladino Park earns strong marks from local dog owners—4.7 stars from 245 reviews. Open from 7am to 8pm daily, there's room in the day for dog owners to bring their furry friends. Other dog parks in the area include Jason Verdow Memorial Park (1.5 miles) and Fellowship Park (2.1 miles)—both great for exploring with your four-legged friend."
  },
  {
    "name": "Gator Trails Park",
    "street": "3612 Garden Blvd",
    "city": "Cape Coral",
    "state": "FL",
    "zip": "33909",
    "latitude": 26.7049045,
    "longitude": -81.9262033,
    "description": "Located at 3612 Garden Blvd in Cape Coral, Gator Trails Park earns strong marks from local dog owners—4.7 stars from 75 reviews. The park has earned its reputation among dog owners in the neighborhood as a reliable choice. For a change of scenery, Yellow Fever Creek Preserve is another dog-friendly destination 0.7 miles from here."
  },
  {
    "name": "Four Mile Cove Ecological",
    "street": "2500 SE 24th St",
    "city": "Cape Coral",
    "state": "FL",
    "zip": "33990",
    "latitude": 26.607656,
    "longitude": -81.9470979,
    "description": "Four Mile Cove Ecological at 2500 SE 24th St is a favorite among Cape Coral dog owners, earning 4.6 stars from 1,270 reviews. Open from 7am to 8pm daily, the park is convenient for before work, after work, or weekend adventures. Looking to mix things up? Jason Verdow Memorial Park is a nearby dog park 0.8 miles away that's worth exploring with your pup."
  },
  {
    "name": "Horton Park",
    "street": "2600 SE 26th Pl",
    "city": "Cape Coral",
    "state": "FL",
    "zip": "33904",
    "latitude": 26.6066332,
    "longitude": -81.9142138,
    "description": "With 4.6 stars from 704 reviews, Horton Park at 2600 SE 26th Pl has become a favorite among Cape Coral dog owners. Open from 6am to 10pm daily, there's room in the day for dog owners to bring their furry friends. Other dog parks in the area include Rosen Park (1.4 miles) and Seminole Park (1.8 miles)—both great for exploring with your four-legged friend."
  },
  {
    "name": "Matlacha Pass Aquatic Preserve",
    "street": "12301 Burnt Store RdPunta Gorda",
    "city": "Cape Coral",
    "state": "FL",
    "zip": "33955",
    "latitude": 26.8586332,
    "longitude": -82.0232938,
    "description": "Located at 12301 Burnt Store Rd in Cape Coral, Matlacha Pass Aquatic Preserve earns strong marks from local dog owners—4.6 stars from 664 reviews. Dog owners in the area consistently choose this park as a go-to destination for their pups. Local dog owners have clearly found this to be a worthwhile destination."
  },
  {
    "name": "Jim Jeffers Park",
    "street": "2817 SW 3rd Ln",
    "city": "Cape Coral",
    "state": "FL",
    "zip": "33991",
    "latitude": 26.6463299,
    "longitude": -82.0338923,
    "description": "Jim Jeffers Park (4.6 stars from 580 reviews) is a popular destination for Cape Coral dog owners, located at 2817 SW 3rd Ln. Open from 5:30am to 9pm, every day except Friday and Sunday, dog owners can plan visits around work or their pup's energy level. For a change of scenery, Joe Stonis Park is another dog-friendly destination 0.8 miles from here."
  },
  {
    "name": "Sirenia Vista",
    "street": "3916 Ceitus Pkwy",
    "city": "Cape Coral",
    "state": "FL",
    "zip": "33991",
    "latitude": 26.6446592,
    "longitude": -82.0538725,
    "description": "With 4.6 stars from 550 reviews, Sirenia Vista at 3916 Ceitus Pkwy has become a favorite among Cape Coral dog owners. Open from 7am to 7pm daily, the park accommodates early risers and evening visitors alike. Dog owners can also take their pups to nearby Burnt Store Boat Ramp (0.2 miles) or Joe Stonis Park (0.6 miles)."
  },
  {
    "name": "‍ Saratoga Lake Park",
    "street": "170 SE 4th Terrace",
    "city": "Cape Coral",
    "state": "FL",
    "zip": "33990",
    "latitude": 26.6436847,
    "longitude": -81.9703833,
    "description": "At 170 SE 4th Terrace in Cape Coral, Saratoga Lake Park has built a loyal following—4.6 stars from 531 dog owner reviews. Open from 7am to 8pm daily, there's room in the day for dog owners to bring their furry friends. Dog owners can also take their pups to nearby Lake Kennedy Community Park (0.5 miles) or Reflections Park (1.2 miles)."
  },
  {
    "name": "Paul Sanborn Park",
    "street": "2310 SE 3rd St",
    "city": "Cape Coral",
    "state": "FL",
    "zip": "33990",
    "latitude": 26.6470003,
    "longitude": -81.9260832,
    "description": "Cape Coral dog owners rate Paul Sanborn Park at 2310 SE 3rd St highly, with 4.6 stars from 503 visits. Open from 7am to 7pm daily, there's plenty of opportunity for dog owners to find a time that works. Other dog parks in the area include Burton Memorial Park (1.3 miles) and Rosen Park (1.6 miles)—both great for exploring with your four-legged friend."
  },
  {
    "name": "Camelot Park",
    "street": "1718 SW 52nd Terrace",
    "city": "Cape Coral",
    "state": "FL",
    "zip": "33914",
    "latitude": 26.5542475,
    "longitude": -82.0095538,
    "description": "With 4.6 stars from 328 reviews, Camelot Park at 1718 SW 52nd Terrace has become a favorite among Cape Coral dog owners. Dog owners frequent this park for its consistent quality and welcoming atmosphere. More dog-friendly parks nearby include Sands Park (1.7 miles) and Rotary Park (1.8 miles)—perfect for pups who love adventure."
  },
  {
    "name": "‍ Largo Central Park",
    "street": "101 Central Park DrLargo",
    "city": "Clearwater",
    "state": "FL",
    "zip": "33771",
    "latitude": 27.914665,
    "longitude": -82.783571,
    "description": "At 101 Central Park Dr in Clearwater, Largo Central Park draws dog owners from across the area—4.8 stars from 8,392 reviews. Open from 6am to 10pm daily, dog owners can find the perfect time for their furry friend. For dog owners wanting to explore more with their furry friends, Dog Park is another great dog park just 0.4 miles away."
  },
  {
    "name": "Charles Park",
    "street": "2015 Broadway",
    "city": "Clearwater",
    "state": "FL",
    "zip": "33755",
    "latitude": 27.995552,
    "longitude": -82.7897221,
    "description": "At 2015 Broadway in Clearwater, Charles Park has built a loyal following—4.7 stars from 11 dog owner reviews. Dog owners looking for a solid destination will find this park delivers. Dog owners exploring the neighborhood can also bring their furry friends to Frank Tack Park (2.1 miles)."
  },
  {
    "name": "‍ North Clearwater Beach",
    "street": "704 Eldorado Ave",
    "city": "Clearwater",
    "state": "FL",
    "zip": "33767",
    "latitude": 27.9899692,
    "longitude": -82.8275647,
    "description": "Dog owners in Clearwater have made North Clearwater Beach at 704 Eldorado Ave a go-to spot, rating it 4.7 stars across 346 reviews. The park has earned its reputation among dog owners in the neighborhood as a reliable choice. More dog-friendly parks nearby include Pier 60 Park (0.9 miles) and Sand Key Park (2.3 miles)—perfect for pups who love adventure."
  },
  {
    "name": "Hammock Park",
    "street": "1900 San Mateo DrDunedin",
    "city": "Clearwater",
    "state": "FL",
    "zip": "34698",
    "latitude": 28.0333906,
    "longitude": -82.7846269,
    "description": "Dog owners in Clearwater have embraced Hammock Park (1900 San Mateo Dr) as a top destination—4.7 stars from 1,140 visits. Open from 6am to 9pm daily, dog owners can plan visits around their pup's favorite times to be active. Nearby, Achieva Paw Park (2.0 miles) is another dog park favorite where you can take your four-legged friend."
  },
  {
    "name": "Moccasin Lake Nature Park",
    "street": "2750 Park Trail Ln",
    "city": "Clearwater",
    "state": "FL",
    "zip": "33759",
    "latitude": 27.9758229,
    "longitude": -82.7235807,
    "description": "With 4.7 stars across 1,195 reviews, Moccasin Lake Nature Park at 2750 Park Trail Ln has clearly won over Clearwater dog owners. Open from 10am to 5pm, Tuesday through Sunday, dog owners can easily fit a visit into their day, whether morning or evening. Want to give your pup even more adventure? Safety Harbor Dog Park is another beloved dog park just 1.7 miles away."
  },
  {
    "name": "Sand Key Park",
    "street": "1060 Gulf Blvd",
    "city": "Clearwater",
    "state": "FL",
    "zip": "33767",
    "latitude": 27.9570043,
    "longitude": -82.8255124,
    "description": "At 1060 Gulf Blvd in Clearwater, Sand Key Park draws dog owners from across the area—4.7 stars from 9,503 reviews. The community of dog owners here reflects the park's outstanding reputation. Dog owners in this area are lucky to have more great dog parks nearby: Pier 60 Park (1.4 miles) and North Clearwater Beach (2.3 miles)."
  },
  {
    "name": "Pier 60 Park",
    "street": "1 Causeway Blvd",
    "city": "Clearwater",
    "state": "FL",
    "zip": "33767",
    "latitude": 27.9775402,
    "longitude": -82.8248634,
    "description": "11,864 dog owners can't be wrong: Pier 60 Park (1 Causeway Blvd) is a Clearwater institution with 4.7 stars. Open from 7am to 10pm daily, dog owners have generous hours to visit with their pups. For more dog park adventures, explore North Clearwater Beach (0.9 miles) or Sand Key Park (1.4 miles) with your furry companion."
  },
  {
    "name": "Honeymoon Island State Park",
    "street": "Honeymoon IslandDunedin",
    "city": "Clearwater",
    "state": "FL",
    "zip": "34698",
    "latitude": 28.0563815,
    "longitude": -82.8071206,
    "description": "Honeymoon Island State Park in Clearwater is a community favorite, with 1,206 dog owners giving it 4.6 stars. The park has earned genuine loyalty from dog owners who value what it offers. Keep the adventure going at other nearby dog parks like Hammock Park (2.1 miles) or Achieva Paw Park (4.1 miles)."
  },
  {
    "name": "Crest Lake Park",
    "street": "201 S Glenwood Ave",
    "city": "Clearwater",
    "state": "FL",
    "zip": "33755",
    "latitude": 27.9640341,
    "longitude": -82.7742433,
    "description": "Dog owners in Clearwater have embraced Crest Lake Park (201 S Glenwood Ave) as a top destination—4.6 stars from 1,785 visits. Open from 8am to 5pm weekdays, the park is convenient for before work, after work, or weekend adventures. Want to give your pup even more adventure? Crest Lake Dog Park is another beloved dog park just 0.1 miles away."
  },
  {
    "name": "Achieva Paw Park",
    "street": "1659 Achieva WayDunedin",
    "city": "Clearwater",
    "state": "FL",
    "zip": "34698",
    "latitude": 28.0163153,
    "longitude": -82.7585211,
    "description": "For dog owners in the Clearwater area, Achieva Paw Park (1659 Achieva Way) offers a 4.5-star experience based on 369 reviews. The park has earned its reputation among dog owners in the neighborhood as a reliable choice. For variety, the neighborhood offers more dog parks to explore: Frank Tack Park (1.7 miles) and Enterprise Dog Park (1.9 miles)."
  },
  {
    "name": "Bark Park",
    "street": "",
    "city": "Clearwater",
    "state": "FL",
    "zip": "",
    "latitude": 28.0341847,
    "longitude": -82.6650992,
    "description": "Bark Park holds a 4.3-star rating from 32 Clearwater dog owner visits. The park serves as a gathering spot for dog owners and their four-legged friends in the area. For dog owners who like to explore, Neighborhood BarK & Boutique (3.5 miles) and Country Hollow Park (3.8 miles) are both nearby parks to try with your dog."
  },
  {
    "name": "Country Hollow Park",
    "street": "2724 Brattle Ln",
    "city": "Clearwater",
    "state": "FL",
    "zip": "33761",
    "latitude": 28.0468951,
    "longitude": -82.7253204,
    "description": "Dog owners in Clearwater have rated Country Hollow Park (2724 Brattle Ln) 4.2 stars across 33 reviews. Open from 6am to 9pm daily, dog owners have a window to spend time with their pups. Dog owners might also enjoy Enterprise Dog Park, another dog park just 2.5 miles away."
  },
  {
    "name": "Safety Harbor Dog Park",
    "street": "940 7th St SSafety Harbor",
    "city": "Clearwater",
    "state": "FL",
    "zip": "34695",
    "latitude": 27.9861375,
    "longitude": -82.6977056,
    "description": "135 dog owners have reviewed Safety Harbor Dog Park at 940 7th St S in Clearwater, averaging 4.3 stars. Open from 6am to 7pm daily, the park gives dog owners in the neighborhood time to bring their pups. More dog parks in the area include Neighborhood BarK & Boutique (0.4 miles) and Moccasin Lake Nature Park (1.7 miles)—great options for mixing up your pup's routine."
  },
  {
    "name": "Frank Tack Park",
    "street": "1967 N Hercules Ave",
    "city": "Clearwater",
    "state": "FL",
    "zip": "33763",
    "latitude": 27.9915662,
    "longitude": -82.7548218,
    "description": "Dog owners in Clearwater have rated Frank Tack Park (1967 N Hercules Ave) 4.3 stars across 139 reviews. Open from 6am to 10pm daily, dog owners in the area can work a visit into their day. Dog owners might also enjoy Achieva Paw Park, another dog park just 1.7 miles away."
  },
  {
    "name": "Barkland Dog Park",
    "street": "9245 Ranch RdParkland",
    "city": "Coral Springs",
    "state": "FL",
    "zip": "33067",
    "latitude": 26.3108736,
    "longitude": -80.2486629,
    "description": "Coral Springs dog owners rate Barkland Dog Park at 9245 Ranch Rd highly, with 4.7 stars from 418 visits. Local dog owners appreciate what this park offers their four-legged friends. Looking for more places to take your pup? Canine Cove at South County is another popular dog park just 4.2 miles away."
  },
  {
    "name": "Peace Mound Park",
    "street": "1300 Three Village RdWeston",
    "city": "Davie",
    "state": "FL",
    "zip": "33326",
    "latitude": 26.1039668,
    "longitude": -80.3690029,
    "description": "Located at 1300 Three Village Rd in Davie, Peace Mound Park earns strong marks from local dog owners—4.8 stars from 707 reviews. Open from 8am to 9pm daily, there's room in the day for dog owners to bring their furry friends. Nearby, Peaceful Ridge Dog Park (3.8 miles) offers dog owners another great spot to explore with their pups."
  },
  {
    "name": "Wolf Lake Park",
    "street": "5400 SW 76th Ave",
    "city": "Davie",
    "state": "FL",
    "zip": "33314",
    "latitude": 26.0531223,
    "longitude": -80.247741,
    "description": "Wolf Lake Park at 5400 SW 76th Ave in Davie is a community favorite, with 1,224 dog owners giving it 4.7 stars. Dog owners have embraced this park as a top choice for spending time with their pups. Dog owners in the area also love bringing their pups to John Williams Park (2.7 miles) and Pembroke Pines Craig Rupp K-9 (3.1 miles)."
  },
  {
    "name": "Welleby Park",
    "street": "11100 NW 44th StSunrise",
    "city": "Davie",
    "state": "FL",
    "zip": "33351",
    "latitude": 26.1791523,
    "longitude": -80.2551245,
    "description": "Dog owners in Davie have embraced Welleby Park (11100 NW 44th St) as a top destination—4.7 stars from 1,786 visits. Open from 8am to 6pm daily, dog owners have room to work around busy schedules. For more dog park adventures, explore Woodville Dog Park (2.4 miles) or Gary B Jones Park (3.6 miles) with your furry companion."
  },
  {
    "name": "Keysville Dog Park",
    "street": "2641 Keysville Ave",
    "city": "Deltona",
    "state": "FL",
    "zip": "32725",
    "latitude": 28.9377791,
    "longitude": -81.2199797,
    "description": "With 4.5 stars from 449 reviews, Keysville Dog Park at 2641 Keysville Ave has become a favorite among Deltona dog owners. Local dog owners appreciate what this park offers their four-legged friends. A solid track record makes this a reliable choice for dog owners."
  },
  {
    "name": "Colee Hammock Park",
    "street": "1500 Brickell Dr",
    "city": "Fort Lauderdale",
    "state": "FL",
    "zip": "33301",
    "latitude": 26.117627,
    "longitude": -80.128377,
    "description": "Fort Lauderdale dog owners rate Colee Hammock Park at 1500 Brickell Dr highly, with 4.8 stars from 803 visits. Open from 6am to 9pm daily, dog owners have plenty of flexibility to plan a visit. For variety, the neighborhood offers more dog parks to explore: Victoria Park (0.4 miles) and Annie Beck Park (0.5 miles)."
  },
  {
    "name": "Victoria Park",
    "street": "2 N Victoria Park Rd",
    "city": "Fort Lauderdale",
    "state": "FL",
    "zip": "33301",
    "latitude": 26.122846,
    "longitude": -80.124783,
    "description": "Dog owners in Fort Lauderdale have made Victoria Park at 2 N Victoria Park Rd a go-to spot, rating it 4.8 stars across 61 reviews. Local dog owners appreciate what this park offers their four-legged friends. Dog owners exploring the neighborhood can also bring their furry friends to Annie Beck Park (0.1 miles)."
  },
  {
    "name": "Hugh Taylor Birch State Park",
    "street": "3109 E Sunrise Blvd",
    "city": "Fort Lauderdale",
    "state": "FL",
    "zip": "33304",
    "latitude": 26.1379544,
    "longitude": -80.1044189,
    "description": "With 6,157 reviews and a 4.7-star rating, Hugh Taylor Birch State Park (3109 E Sunrise Blvd) has become a landmark for Fort Lauderdale dog owners. The sheer volume of dog owner visits speaks to what makes this park exceptional. Dog owners in the area also frequent Canine Beach (0.1 miles)—another top dog park worth visiting with your pup."
  },
  {
    "name": "Snyder Park",
    "street": "3299 SW 4th Ave",
    "city": "Fort Lauderdale",
    "state": "FL",
    "zip": "33315",
    "latitude": 26.085437,
    "longitude": -80.146634,
    "description": "For Fort Lauderdale dog owners, Snyder Park at 3299 SW 4th Ave has become a reliable favorite—4.7 stars from 2,479 reviews. Open from 7am to 7pm daily, it's easy for dog owners to stop by whenever works best. For variety, many dog owners also bring their furry friends to Croissant Park (0.9 miles)—another great dog park in the area."
  },
  {
    "name": "Loggerhead Park",
    "street": "3698 NE 27th St",
    "city": "Fort Lauderdale",
    "state": "FL",
    "zip": "33308",
    "latitude": 26.16133,
    "longitude": -80.099299,
    "description": "Dog owners in Fort Lauderdale have made Loggerhead Park at 3698 NE 27th St a go-to spot, rating it 4.7 stars across 704 reviews. Open from 8am to 6pm weekdays, dog owners can easily fit a visit into busy schedules. Looking for more places to take your pup? Mangurian Park is another popular dog park just 1.6 miles away."
  },
  {
    "name": "Joseph Scavo Park",
    "street": "900 Three Islands BoulevardHallandale Beach",
    "city": "Fort Lauderdale",
    "state": "FL",
    "zip": "33009",
    "latitude": 25.9957615,
    "longitude": -80.1269858,
    "description": "Joseph Scavo Park (4.7 stars from 518 reviews) is a popular destination for Fort Lauderdale dog owners, located at 900 Three Islands Boulevard. Open from 7am to 7pm daily, there's plenty of opportunity for dog owners to find a time that works. Dog owners exploring the neighborhood can also bring their furry friends to Joe Dimaggio Park (0.9 miles)."
  },
  {
    "name": "Las Olas Oceanside Park",
    "street": "3000 E Las Olas Blvd",
    "city": "Fort Lauderdale",
    "state": "FL",
    "zip": "33316",
    "latitude": 26.119281,
    "longitude": -80.105149,
    "description": "Las Olas Oceanside Park (4.7 stars from 450 reviews) is a popular destination for Fort Lauderdale dog owners, located at 3000 E Las Olas Blvd. Dog owners in the area consistently choose this park as a go-to destination for their pups. More dog-friendly parks nearby include Fort Lauderdale Dog Beach (0.6 miles) and Victoria Park (1.2 miles)—perfect for pups who love adventure."
  },
  {
    "name": "Annie Beck Park",
    "street": "100 N Victoria Park Rd",
    "city": "Fort Lauderdale",
    "state": "FL",
    "zip": "33301",
    "latitude": 26.123669,
    "longitude": -80.124787,
    "description": "Dog owners in Fort Lauderdale have made Annie Beck Park at 100 N Victoria Park Rd a go-to spot, rating it 4.7 stars across 178 reviews. Open from 6am to 9pm daily, dog owners have plenty of flexibility to plan a visit. For variety, the neighborhood offers more dog parks to explore: Victoria Park (0.1 miles) and Colee Hammock Park (0.5 miles)."
  },
  {
    "name": "Croissant Bark Dog Park",
    "street": "600 SW 16th St",
    "city": "Fort Lauderdale",
    "state": "FL",
    "zip": "33315",
    "latitude": 26.101735,
    "longitude": -80.14916,
    "description": "At 600 SW 16th St in Fort Lauderdale, Croissant Bark Dog Park has built a loyal following—5.0 stars from 7 dog owner reviews. Open from 8am to 9pm daily, dog owners have plenty of flexibility to plan a visit. More dog-friendly parks nearby include Gore Betz Park (0.2 miles) and Croissant Park (0.3 miles)—perfect for pups who love adventure."
  },
  {
    "name": "Canine Beach",
    "street": "998 N Fort Lauderdale Beach Blvd",
    "city": "Fort Lauderdale",
    "state": "FL",
    "zip": "33304",
    "latitude": 26.137194,
    "longitude": -80.1031499,
    "description": "Located at 998 N Fort Lauderdale Beach Blvd in Fort Lauderdale, Canine Beach earns strong marks from local dog owners—4.7 stars from 22 reviews. For dog owners in the area, this park has become a trusted spot for time with their pups. Dog owners exploring the neighborhood can also bring their furry friends to Hugh Taylor Birch State Park (0.1 miles)."
  },
  {
    "name": "‍ Esplanade Park",
    "street": "400 SW 2nd St",
    "city": "Fort Lauderdale",
    "state": "FL",
    "zip": "33312",
    "latitude": 26.120361,
    "longitude": -80.147573,
    "description": "Dog owners in Fort Lauderdale have embraced Esplanade Park (400 SW 2nd St) as a top destination—4.6 stars from 1,761 visits. Open from 6am to 9pm daily, the park is convenient for before work, after work, or weekend adventures. Want to give your pup even more adventure? Dog Park is another beloved dog park just 0.3 miles away."
  },
  {
    "name": "Fort Lauderdale Dog Beach",
    "street": "1269 N Fort Lauderdale Beach Blvd",
    "city": "Fort Lauderdale",
    "state": "FL",
    "zip": "33304",
    "latitude": 26.1276428,
    "longitude": -80.1034511,
    "description": "Dog owners in Fort Lauderdale have embraced Fort Lauderdale Dog Beach (1269 N Fort Lauderdale Beach Blvd) as a top destination—4.6 stars from 1,483 visits. The strong community of dog owners here reflects how much the park is valued. Other popular dog parks nearby include Las Olas Oceanside Park (0.6 miles) and Canine Beach (0.7 miles)—both favorites among local pup parents."
  },
  {
    "name": "Gary B Jones Park",
    "street": "8101 Southgate BlvdTamarac",
    "city": "Fort Lauderdale",
    "state": "FL",
    "zip": "33321",
    "latitude": 26.228373,
    "longitude": -80.237122,
    "description": "For dog owners in the Fort Lauderdale area, Gary B Jones Park (8101 Southgate Blvd) offers a 4.6-star experience based on 497 reviews. The park serves dog owners well, providing a destination the community values. Nearby, Woodville Dog Park (1.3 miles) offers dog owners another great spot to explore with their pups."
  },
  {
    "name": "Performance Pups",
    "street": "590 Anglers AveDania Beach",
    "city": "Fort Lauderdale",
    "state": "FL",
    "zip": "33004",
    "latitude": 26.0484072,
    "longitude": -80.1681927,
    "description": "Fort Lauderdale dog owners rate Performance Pups at 590 Anglers Ave highly, with 4.6 stars from 256 visits. The steady stream of dog owner visits speaks to the park's appeal. Dog owners exploring the neighborhood can also bring their furry friends to TY Park (1.0 miles)."
  },
  {
    "name": "Richardson Historic Park",
    "street": "1937 Wilton DrWilton Manors",
    "city": "Fort Lauderdale",
    "state": "FL",
    "zip": "33305",
    "latitude": 26.152277,
    "longitude": -80.1407763,
    "description": "Richardson Historic Park at 1937 Wilton Dr is well-regarded by Fort Lauderdale dog owners, holding 4.6 stars across 234 reviews. Open from 8am to 6pm daily, the park offers flexibility for dog owners with varying routines. Dog owners exploring the neighborhood can also bring their furry friends to Middle River Terrace Park (0.7 miles)."
  },
  {
    "name": "Croissant Park",
    "street": "245 W Park Dr",
    "city": "Fort Lauderdale",
    "state": "FL",
    "zip": "33315",
    "latitude": 26.0979854,
    "longitude": -80.1456331,
    "description": "At 245 W Park Dr in Fort Lauderdale, Croissant Park has built a loyal following—4.6 stars from 191 dog owner reviews. The steady stream of dog owner visits speaks to the park's appeal. For variety, the neighborhood offers more dog parks to explore: Croissant Bark Dog Park (0.3 miles) and Gore Betz Park (0.5 miles)."
  },
  {
    "name": "Sweetwater Wetlands Park",
    "street": "325 SW Williston Rd",
    "city": "Gainesville",
    "state": "FL",
    "zip": "32601",
    "latitude": 29.6131648,
    "longitude": -82.3563198,
    "description": "Sweetwater Wetlands Park at 325 SW Williston Rd is a favorite among Gainesville dog owners, earning 4.8 stars from 1,670 reviews. Open from 7am to 5:30pm daily, dog owners have plenty of flexibility to visit when it suits their schedule. Keep the adventure going at other nearby dog parks like Squirrel Ridge Park (0.4 miles) or Bivens Arm Nature Park (1.5 miles)."
  },
  {
    "name": "‍ Roper Park",
    "street": "401 NE 2nd St",
    "city": "Gainesville",
    "state": "FL",
    "zip": "32601",
    "latitude": 29.654797,
    "longitude": -82.323045,
    "description": "With 4.8 stars from 56 reviews, Roper Park at 401 NE 2nd St has become a favorite among Gainesville dog owners. Open from 7am to 8pm daily, there's plenty of opportunity for dog owners to find a time that works. Other dog parks in the area include Reserve Park (0.2 miles) and Pleasant Park (0.2 miles)—both great for exploring with your four-legged friend."
  },
  {
    "name": "Hogtown Creek Headwaters Natur",
    "street": "1500 NW 45th Ave",
    "city": "Gainesville",
    "state": "FL",
    "zip": "32605",
    "latitude": 29.695889,
    "longitude": -82.342207,
    "description": "Located at 1500 NW 45th Ave in Gainesville, Hogtown Creek Headwaters Natur earns strong marks from local dog owners—4.7 stars from 462 reviews. Open from 8am to 5pm daily, the park accommodates early risers and evening visitors alike. Other dog parks in the area include Greentree Park (2.1 miles) and Possum Creek Park (2.1 miles)—both great for exploring with your four-legged friend."
  },
  {
    "name": "Magnolia Parke Park",
    "street": "4650 NW 39th Ave",
    "city": "Gainesville",
    "state": "FL",
    "zip": "32606",
    "latitude": 29.6887284,
    "longitude": -82.390085,
    "description": "With 4.7 stars from 123 reviews, Magnolia Parke Park at 4650 NW 39th Ave has become a favorite among Gainesville dog owners. The steady stream of dog owner visits speaks to the park's appeal. Dog owners exploring the neighborhood can also bring their furry friends to Possum Creek Park (1.3 miles)."
  },
  {
    "name": "Possum Creek Park",
    "street": "4009 NW 53rd Ave",
    "city": "Gainesville",
    "state": "FL",
    "zip": "32653",
    "latitude": 29.7032824,
    "longitude": -82.3768128,
    "description": "With 4.6 stars from 996 reviews, Possum Creek Park at 4009 NW 53rd Ave has become a favorite among Gainesville dog owners. Dog owners frequent this park for its consistent quality and welcoming atmosphere. Looking for more places to take your pup? Magnolia Parke Park is another popular dog park just 1.3 miles away."
  },
  {
    "name": "Loblolly Woods Nature Park",
    "street": "3315 NW 5th Ave",
    "city": "Gainesville",
    "state": "FL",
    "zip": "32607",
    "latitude": 29.6549961,
    "longitude": -82.3718494,
    "description": "For dog owners in the Gainesville area, Loblolly Woods Nature Park (3315 NW 5th Ave) offers a 4.6-star experience based on 754 reviews. Dog owners in the area consistently choose this park as a go-to destination for their pups. For a change of scenery, Westside Recreation Center is another dog-friendly destination 0.5 miles from here."
  },
  {
    "name": "Cofrin Nature Park",
    "street": "4810 NW 8th Ave",
    "city": "Gainesville",
    "state": "FL",
    "zip": "32605",
    "latitude": 29.65967,
    "longitude": -82.3945141,
    "description": "Gainesville dog owners rate Cofrin Nature Park at 4810 NW 8th Ave highly, with 4.6 stars from 407 visits. Open from 7am to 8pm daily, the park offers flexibility for dog owners with varying routines. Dog owners can also take their pups to nearby Westside Recreation Center (1.3 miles) or Loblolly Woods Nature Park (1.4 miles)."
  },
  {
    "name": "Sweetwater Preserve",
    "street": "309 SE 16th Ave",
    "city": "Gainesville",
    "state": "FL",
    "zip": "32601",
    "latitude": 29.6348814,
    "longitude": -82.3267415,
    "description": "With 4.6 stars from 339 reviews, Sweetwater Preserve at 309 SE 16th Ave has become a favorite among Gainesville dog owners. Open from 8am to 7:30pm daily, there's room in the day for dog owners to bring their furry friends. Dog owners can also take their pups to nearby Bivens Arm Nature Park (1.1 miles) or Reserve Park (1.2 miles)."
  },
  {
    "name": "Reserve Park",
    "street": "",
    "city": "Gainesville",
    "state": "FL",
    "zip": "",
    "latitude": 29.6519684,
    "longitude": -82.3249846,
    "description": "Gainesville dog owners rate Reserve Park highly, with 4.6 stars from 88 visits. Open from 7am to 8pm daily, the park offers flexibility for dog owners with varying routines. Dog owners can also take their pups to nearby Roper Park (0.2 miles) or Pleasant Park (0.3 miles)."
  },
  {
    "name": "Westside Recreation Center",
    "street": "1001 NW 34th St",
    "city": "Gainesville",
    "state": "FL",
    "zip": "32605",
    "latitude": 29.661871,
    "longitude": -82.3723,
    "description": "Westside Recreation Center at 1001 NW 34th St is well-regarded by Gainesville dog owners, holding 4.5 stars across 91 reviews. Dog owners looking for a solid destination will find this park delivers. For variety, the neighborhood offers more dog parks to explore: Loblolly Woods Nature Park (0.5 miles) and Cofrin Nature Park (1.3 miles)."
  },
  {
    "name": "Greentree Park",
    "street": "NW 19th St",
    "city": "Gainesville",
    "state": "FL",
    "zip": "32605",
    "latitude": 29.6664611,
    "longitude": -82.3476594,
    "description": "In Gainesville, Greentree Park earns strong marks from local dog owners—4.5 stars from 225 reviews. Open from 8am to 5pm weekdays, the park accommodates early risers and evening visitors alike. Other dog parks in the area include Pleasant Park (1.4 miles) and Westside Recreation Center (1.5 miles)—both great for exploring with your four-legged friend."
  },
  {
    "name": "Boulware Springs Park",
    "street": "3300 SE 15th St",
    "city": "Gainesville",
    "state": "FL",
    "zip": "32641",
    "latitude": 29.622576,
    "longitude": -82.305936,
    "description": "At 3300 SE 15th St in Gainesville, Boulware Springs Park has built a loyal following—4.5 stars from 335 dog owner reviews. For dog owners in the area, this park has become a trusted spot for time with their pups. Dog owners exploring the neighborhood can also bring their furry friends to Sweetwater Preserve (1.5 miles)."
  },
  {
    "name": "‍ Squirrel Ridge Park",
    "street": "1603 SW Williston Rd",
    "city": "Gainesville",
    "state": "FL",
    "zip": "32608",
    "latitude": 29.6097706,
    "longitude": -82.3625344,
    "description": "Located at 1603 SW Williston Rd in Gainesville, Squirrel Ridge Park earns strong marks from local dog owners—4.5 stars from 617 reviews. Open from 6:30am to 7pm daily, the park works well for dog owners with different schedules. For a change of scenery, Sweetwater Wetlands Park is another dog-friendly destination 0.4 miles from here."
  },
  {
    "name": "Bivens Arm Nature Park",
    "street": "3650 S Main St",
    "city": "Gainesville",
    "state": "FL",
    "zip": "32608",
    "latitude": 29.6193478,
    "longitude": -82.3325077,
    "description": "Located at 3650 S Main St, Bivens Arm Nature Park in Gainesville is rated 4.4 stars by 222 dog owners. Open from 9am to 5pm daily, dog owners in the area can work a visit into their day. Dog owners might also enjoy Sweetwater Preserve, another dog park just 1.1 miles away."
  },
  {
    "name": "Forest Park",
    "street": "4501 SW 20th Ave",
    "city": "Gainesville",
    "state": "FL",
    "zip": "32607",
    "latitude": 29.6366183,
    "longitude": -82.3897733,
    "description": "Forest Park at 4501 SW 20th Ave in Gainesville has 4.4 stars from 367 dog owner reviews. This park provides dog owners in the community with a place to visit with their dogs. For dog owners who like to explore, Cofrin Nature Park (1.6 miles) and Loblolly Woods Nature Park (1.7 miles) are both nearby parks to try with your dog."
  },
  {
    "name": "Tom Petty Park",
    "street": "Northeast Park",
    "city": "Gainesville",
    "state": "FL",
    "zip": "32609",
    "latitude": 29.6665112,
    "longitude": -82.3193879,
    "description": "Gainesville dog owners rate Tom Petty Park highly, with 4.4 stars from 705 visits. For dog owners in the area, this park has become a trusted spot for time with their pups. Nearby, Pleasant Park (0.8 miles) offers dog owners another great spot to explore with their pups."
  },
  {
    "name": "Happy Tails Dog Park",
    "street": "6600 SW 16th StPlantation",
    "city": "Hialeah",
    "state": "FL",
    "zip": "33317",
    "latitude": 26.102592,
    "longitude": -80.235906,
    "description": "1,395 dog owners have made Happy Tails Dog Park (6600 SW 16th St) one of Hialeah's most trusted parks (4.7 stars). The park has earned genuine loyalty from dog owners who value what it offers. Other popular dog parks nearby include Seminole Park (0.0 miles) and Wolf Lake Park (3.5 miles)—both favorites among local pup parents."
  },
  {
    "name": "Veteran's Park",
    "street": "15151 NW 82nd AveMiami Lakes",
    "city": "Hialeah",
    "state": "FL",
    "zip": "33016",
    "latitude": 25.9106058,
    "longitude": -80.3323052,
    "description": "Local dog owners love Veteran's Park at 15151 NW 82nd Ave in Hialeah—4.7 stars from an impressive 1,217 reviews. Open from 7am to 9pm daily, it's easy for dog owners to stop by whenever works best. Keep the adventure going at other nearby dog parks like K-9 Cove (1.0 miles) or Happy Tappy Dog Park (1.6 miles)."
  },
  {
    "name": "Amelia Earhart MTB Trails",
    "street": "401 E 65th St",
    "city": "Hialeah",
    "state": "FL",
    "zip": "33013",
    "latitude": 25.8869126,
    "longitude": -80.2778746,
    "description": "Located at 401 E 65th St in Hialeah, Amelia Earhart MTB Trails earns strong marks from local dog owners—4.7 stars from 683 reviews. Open from 6am to 7pm daily, there's room in the day for dog owners to bring their furry friends. Dog owners can also take their pups to nearby Amelia Earhart Park (0.0 miles) or Amelia Earhart Dog Park (0.4 miles)."
  },
  {
    "name": "Westbrook Park",
    "street": "1325 SW 103rd Pl",
    "city": "Hialeah",
    "state": "FL",
    "zip": "33174",
    "latitude": 25.756677,
    "longitude": -80.3632741,
    "description": "At 1325 SW 103rd Pl in Hialeah, Westbrook Park has built a loyal following—4.7 stars from 139 dog owner reviews. Open from 7am to 9:30pm daily, the park offers flexibility for dog owners with varying routines. Dog owners can also take their pups to nearby The Women's Park (0.9 miles) or Tropical Park (3.2 miles)."
  },
  {
    "name": "Hialeah Trail Park",
    "street": "3621 W 104th St",
    "city": "Hialeah",
    "state": "FL",
    "zip": "33018",
    "latitude": 25.9173488,
    "longitude": -80.3579252,
    "description": "Dog owners in Hialeah have made Hialeah Trail Park at 3621 W 104th St a go-to spot, rating it 4.7 stars across 69 reviews. Dog owners in the area consistently choose this park as a go-to destination for their pups. For variety, the neighborhood offers more dog parks to explore: K-9 Cove (1.6 miles) and Veteran's Park (1.7 miles)."
  },
  {
    "name": "Venetia Park",
    "street": "1035 Venetia AveCoral Gables",
    "city": "Hialeah",
    "state": "FL",
    "zip": "33134",
    "latitude": 25.7589437,
    "longitude": -80.2766891,
    "description": "Dog owners in Hialeah have made Venetia Park at 1035 Venetia Ave a go-to spot, rating it 4.8 stars across 9 reviews. Dog owners looking for a solid destination will find this park delivers. Looking for more places to take your pup? San Jacinto Park is another popular dog park just 0.6 miles away."
  },
  {
    "name": "Golden Eagle Park",
    "street": "9829 NW 129th TerraceHialeah Gardens",
    "city": "Hialeah",
    "state": "FL",
    "zip": "33018",
    "latitude": 25.8909145,
    "longitude": -80.3593287,
    "description": "For dog owners in the Hialeah area, Golden Eagle Park (9829 NW 129th Terrace) offers a 4.6-star experience based on 557 reviews. Dog owners frequent this park for its consistent quality and welcoming atmosphere. For a change of scenery, Botanical Garden Hialeah Garde is another dog-friendly destination 0.8 miles from here."
  },
  {
    "name": "Botanical Garden Hialeah Garde",
    "street": "13501 NW 107th Ave",
    "city": "Hialeah",
    "state": "FL",
    "zip": "33018",
    "latitude": 25.8958636,
    "longitude": -80.3707173,
    "description": "Dog owners in Hialeah have made Botanical Garden Hialeah Garde at 13501 NW 107th Ave a go-to spot, rating it 4.5 stars across 64 reviews. For dog owners in the area, this park has become a trusted spot for time with their pups. For a change of scenery, Golden Eagle Park is another dog-friendly destination 0.8 miles from here."
  },
  {
    "name": "Willis D. Harding Park",
    "street": "18867 NW 63rd Ct Cir",
    "city": "Hialeah",
    "state": "FL",
    "zip": "33015",
    "latitude": 25.9453062,
    "longitude": -80.3010334,
    "description": "Willis D. Harding Park at 18867 NW 63rd Ct Cir is well-regarded by Hialeah dog owners, holding 4.5 stars across 176 reviews. Open from 10am to 6pm daily, the park works well for dog owners with different schedules. Dog owners can also take their pups to nearby Willis D. Harding Park (0.1 miles) or A.J. King Park (2.0 miles)."
  },
  {
    "name": "Walker Park",
    "street": "800 W 29th St",
    "city": "Hialeah",
    "state": "FL",
    "zip": "33012",
    "latitude": 25.8476703,
    "longitude": -80.2985343,
    "description": "Hialeah dog owners rate Walker Park at 800 W 29th St highly, with 4.5 stars from 348 visits. Open from 8am to 9pm weekdays, there's room in the day for dog owners to bring their furry friends. Dog owners exploring the neighborhood can also bring their furry friends to Goodlet Park (0.9 miles)."
  },
  {
    "name": "‍ Fern Isle Park",
    "street": "2201 NW 11th St",
    "city": "Hialeah",
    "state": "FL",
    "zip": "33125",
    "latitude": 25.7842387,
    "longitude": -80.2328987,
    "description": "Hialeah dog owners rate Fern Isle Park at 2201 NW 11th St highly, with 4.5 stars from 505 visits. Local dog owners appreciate what this park offers their four-legged friends. Dog owners can also take their pups to nearby Dog Park (2.5 miles) or Brickell Park (2.5 miles)."
  },
  {
    "name": "‍ Milander Park",
    "street": "4700 Palm Ave",
    "city": "Hialeah",
    "state": "FL",
    "zip": "33013",
    "latitude": 25.8654164,
    "longitude": -80.2844069,
    "description": "At 4700 Palm Ave in Hialeah, Milander Park has built a loyal following—4.5 stars from 610 dog owner reviews. Open from 7:30am to 9:30pm weekdays, the park accommodates early risers and evening visitors alike. Nearby, Hialeah Drive Park (0.7 miles) offers dog owners another great spot to explore with their pups."
  },
  {
    "name": "Pembroke Pines Craig Rupp K-9",
    "street": "9751 Johnson StPembroke Pines",
    "city": "Hialeah",
    "state": "FL",
    "zip": "33026",
    "latitude": 26.0157159,
    "longitude": -80.2750238,
    "description": "Dog owners in Hialeah have made Pembroke Pines Craig Rupp K-9 at 9751 Johnson St a go-to spot, rating it 4.5 stars across 749 reviews. Open from 8am to 7pm daily, dog owners can easily fit a visit into busy schedules. For a change of scenery, River Run Park is another dog-friendly destination 2.0 miles from here."
  },
  {
    "name": "Stafford Park",
    "street": "501 East DrMiami Springs",
    "city": "Hialeah",
    "state": "FL",
    "zip": "33166",
    "latitude": 25.8115853,
    "longitude": -80.272559,
    "description": "Located at 501 East Dr, Stafford Park in Hialeah is rated 4.4 stars by 295 dog owners. The park serves as a gathering spot for dog owners and their four-legged friends in the area. Looking to explore more? Walker Park is another dog-friendly park 3.0 miles from here."
  },
  {
    "name": "Goodlet Park",
    "street": "4200 W 8th Ave",
    "city": "Hialeah",
    "state": "FL",
    "zip": "33012",
    "latitude": 25.8611449,
    "longitude": -80.2989271,
    "description": "At 4200 W 8th Ave, Goodlet Park has 4.4 stars based on 498 reviews from Hialeah dog owners. For dog owners in the neighborhood, this park offers a place to take their pups. For dog owners who like to explore, Walker Park (0.9 miles) and Milander Park (0.9 miles) are both nearby parks to try with your dog."
  },
  {
    "name": "‍ Hialeah Drive Park",
    "street": "",
    "city": "Hialeah",
    "state": "FL",
    "zip": "",
    "latitude": 25.8575963,
    "longitude": -80.2781057,
    "description": "Hialeah Drive Park in Hialeah has 4.2 stars based on 38 reviews from dog owners. The park serves as a gathering spot for dog owners and their four-legged friends in the area. More dog parks in the area include Milander Park (0.7 miles) and Goodlet Park (1.3 miles)—great options for mixing up your pup's routine."
  },
  {
    "name": "TY Park",
    "street": "3 Atlanta St",
    "city": "Hollywood",
    "state": "FL",
    "zip": "33021",
    "latitude": 26.0365682,
    "longitude": -80.1779773,
    "description": "Dog owners in Hollywood have made TY Park at 3 Atlanta St a go-to spot, rating it 4.8 stars across 676 reviews. Open from 8am to 7:30pm daily, there's plenty of opportunity for dog owners to find a time that works. Other dog parks in the area include Performance Pups (1.0 miles) and Charles F. Vollman Park (1.1 miles)—both great for exploring with your four-legged friend."
  },
  {
    "name": "Joe Dimaggio Park",
    "street": "Washington St",
    "city": "Hollywood",
    "state": "FL",
    "zip": "33019",
    "latitude": 26.0056859,
    "longitude": -80.1180692,
    "description": "Hollywood dog owners rate Joe Dimaggio Park highly, with 4.8 stars from 103 visits. Dog owners frequent this park for its consistent quality and welcoming atmosphere. Dog owners can also take their pups to nearby Joseph Scavo Park (0.9 miles) or Holland Park (1.0 miles)."
  },
  {
    "name": "Hollywood North Beach Park",
    "street": "3601 N Ocean Dr",
    "city": "Hollywood",
    "state": "FL",
    "zip": "33019",
    "latitude": 26.033307,
    "longitude": -80.115344,
    "description": "For Hollywood dog owners, Hollywood North Beach Park at 3601 N Ocean Dr needs no introduction—4.7 stars, 5,701 reviews. Open from 8am to 7:30pm daily, dog owners can visit during quieter hours or join the regular crowd. Dog owners in this area are lucky to have more great dog parks nearby: Holland Park (1.0 miles) and Joe Dimaggio Park (1.9 miles)."
  },
  {
    "name": "Holland Park",
    "street": "801 Johnson St",
    "city": "Hollywood",
    "state": "FL",
    "zip": "33019",
    "latitude": 26.01949,
    "longitude": -80.121208,
    "description": "At 801 Johnson St in Hollywood, Holland Park has built a loyal following—4.6 stars from 707 dog owner reviews. Dog owners in the area consistently choose this park as a go-to destination for their pups. Looking for more places to take your pup? Joe Dimaggio Park is another popular dog park just 1.0 miles away."
  },
  {
    "name": "Charles F. Vollman Park",
    "street": "2933 Taft St",
    "city": "Hollywood",
    "state": "FL",
    "zip": "33020",
    "latitude": 26.0259093,
    "longitude": -80.1657028,
    "description": "At 2933 Taft St, Charles F. Vollman Park has 4.4 stars based on 64 reviews from Hollywood dog owners. Open from 9am to 7:30pm daily, the park gives dog owners in the neighborhood time to bring their pups. For dog owners who like to explore, Hollywoof Dog Park (0.6 miles) and TY Park (1.1 miles) are both nearby parks to try with your dog."
  },
  {
    "name": "Zinkil Park",
    "street": "5451 Washington St",
    "city": "Hollywood",
    "state": "FL",
    "zip": "33021",
    "latitude": 26.0027368,
    "longitude": -80.1980054,
    "description": "For dog owners in Hollywood, Zinkil Park at 5451 Washington St has a 4.4-star rating (448 reviews). The park gives neighborhood dog owners a destination for outings with their four-legged friends. Looking to explore more? Pembroke Park is another dog-friendly park 1.4 miles from here."
  },
  {
    "name": "Kanine Social",
    "street": "580 College St",
    "city": "Jacksonville",
    "state": "FL",
    "zip": "32204",
    "latitude": 30.3209782,
    "longitude": -81.680377,
    "description": "Kanine Social at 580 College St is well-regarded by Jacksonville dog owners, holding 4.8 stars across 768 reviews. Dog owners frequent this park for its consistent quality and welcoming atmosphere. Looking for more places to take your pup? Riverside Park is another popular dog park just 0.3 miles away."
  },
  {
    "name": "Landon Park",
    "street": "1800 San Marco Blvd",
    "city": "Jacksonville",
    "state": "FL",
    "zip": "32207",
    "latitude": 30.305077,
    "longitude": -81.659001,
    "description": "For dog owners in the Jacksonville area, Landon Park (1800 San Marco Blvd) offers a 4.8-star experience based on 35 reviews. The park serves dog owners well, providing a destination the community values. Looking for more places to take your pup? Alexandria Oaks Park is another popular dog park just 0.7 miles away."
  },
  {
    "name": "Kathryn Abbey Hanna Park",
    "street": "500 Wonderwood Dr",
    "city": "Jacksonville",
    "state": "FL",
    "zip": "32233",
    "latitude": 30.3591514,
    "longitude": -81.4521381,
    "description": "Dog owners have made Kathryn Abbey Hanna Park at 500 Wonderwood Dr one of Jacksonville's most popular destinations—4.7 stars from 6,783 visits. Open from 8am to 6pm daily, dog owners have generous hours to visit with their pups. Dog owners in the area also frequent Abess Park (2.9 miles)—another top dog park worth visiting with your pup."
  },
  {
    "name": "‍ Stinson Park",
    "street": "4050 San Juan Ave",
    "city": "Jacksonville",
    "state": "FL",
    "zip": "32210",
    "latitude": 30.282229,
    "longitude": -81.7094755,
    "description": "Dog owners in Jacksonville have embraced Stinson Park (4050 San Juan Ave) as a top destination—4.7 stars from 1,071 visits. Dog owners have embraced this park as a top choice for spending time with their pups. For variety, many dog owners also bring their furry friends to Stockton Park (0.7 miles)—another great dog park in the area."
  },
  {
    "name": "‍ BrewHound Dog Park",
    "street": "1848 Kings Cir SNeptune Beach",
    "city": "Jacksonville",
    "state": "FL",
    "zip": "32266",
    "latitude": 30.3236206,
    "longitude": -81.4183263,
    "description": "BrewHound Dog Park at 1848 Kings Cir S in Jacksonville is a community favorite, with 1,045 dog owners giving it 4.7 stars. Dog owners in the area know they can count on this park for quality time with their pups. For variety, many dog owners also bring their furry friends to Atlantic Beach Dog Park (0.3 miles)—another great dog park in the area."
  },
  {
    "name": "Ed Austin Regional Dog Park",
    "street": "3450 Monument Rd",
    "city": "Jacksonville",
    "state": "FL",
    "zip": "32225",
    "latitude": 30.3698786,
    "longitude": -81.5029941,
    "description": "For dog owners in the Jacksonville area, Ed Austin Regional Dog Park (3450 Monument Rd) offers a 4.7-star experience based on 705 reviews. Dog owners looking for a solid destination will find this park delivers. For a change of scenery, Ed Austin Regional Park is another dog-friendly destination 0.7 miles from here."
  },
  {
    "name": "BAG Beach Park",
    "street": "429 1st St SJacksonville Beach",
    "city": "Jacksonville",
    "state": "FL",
    "zip": "32250",
    "latitude": 30.2844779,
    "longitude": -81.3885861,
    "description": "With 4.7 stars from 49 reviews, BAG Beach Park at 429 1st St S has become a favorite among Jacksonville dog owners. Open from 6am to 9:30pm daily, there's plenty of opportunity for dog owners to find a time that works. Dog owners exploring the neighborhood can also bring their furry friends to Paws Park (1.0 miles)."
  },
  {
    "name": "‍ Dog Park",
    "street": "12921 Duval Rd",
    "city": "Jacksonville",
    "state": "FL",
    "zip": "32218",
    "latitude": 30.4649705,
    "longitude": -81.6732823,
    "description": "Dog Park (4.7 stars from 17 reviews) is a popular destination for Jacksonville dog owners, located at 12921 Duval Rd. Local dog owners appreciate what this park offers their four-legged friends. For variety, the neighborhood offers more dog parks to explore: Oceanway Park (2.4 miles) and Good dog park (2.4 miles)."
  },
  {
    "name": "‍ Ryder Park",
    "street": "2332 Automobile Dr",
    "city": "Jacksonville",
    "state": "FL",
    "zip": "32209",
    "latitude": 30.3489325,
    "longitude": -81.7022713,
    "description": "Dog owners in Jacksonville have made Ryder Park at 2332 Automobile Dr a go-to spot, rating it 4.7 stars across 15 reviews. Open from 6am to 10pm daily, the park offers flexibility for dog owners with varying routines. Dog owners can also take their pups to nearby Kanine Social (2.3 miles) or Riverside Park (2.6 miles)."
  },
  {
    "name": "Eagle Landing Dog Park",
    "street": "1496 Autumn Pines DriveOrange Park",
    "city": "Jacksonville",
    "state": "FL",
    "zip": "32065",
    "latitude": 28.5305624,
    "longitude": -81.2835175,
    "description": "For dog owners in the Jacksonville area, Eagle Landing Dog Park (1496 Autumn Pines Drive) offers a 4.7-star experience based on 10 reviews. Open daily, dog owners can plan visits around work or their pup's energy level. For a change of scenery, Yucatan Park is another dog-friendly destination 1.4 miles from here."
  },
  {
    "name": "Ed Austin Regional Park",
    "street": "11751 McCormick Rd",
    "city": "Jacksonville",
    "state": "FL",
    "zip": "32225",
    "latitude": 30.3603216,
    "longitude": -81.5067658,
    "description": "Ed Austin Regional Park at 11751 McCormick Rd in Jacksonville is a community favorite, with 2,365 dog owners giving it 4.6 stars. Open from 5am to 10pm daily, it's easy for dog owners to stop by whenever works best. Want to give your pup even more adventure? Ed Austin Regional Dog Park is another beloved dog park just 0.7 miles away."
  },
  {
    "name": "Boone Park",
    "street": "3700 Park St",
    "city": "Jacksonville",
    "state": "FL",
    "zip": "32205",
    "latitude": 30.2994308,
    "longitude": -81.7116776,
    "description": "Dog owners in Jacksonville have embraced Boone Park (3700 Park St) as a top destination—4.6 stars from 1,740 visits. Open from 7am to 7pm daily, dog owners can easily fit a visit into their day, whether morning or evening. Keep the adventure going at other nearby dog parks like Stinson Park (1.2 miles) or Stockton Park (1.8 miles)."
  },
  {
    "name": "Losco Regional Park",
    "street": "10931 Hood Rd",
    "city": "Jacksonville",
    "state": "FL",
    "zip": "32257",
    "latitude": 30.1779436,
    "longitude": -81.5669206,
    "description": "Losco Regional Park at 10931 Hood Rd in Jacksonville is a community favorite, with 1,717 dog owners giving it 4.6 stars. Open from 5am to 10pm daily, the park accommodates a variety of dog owner schedules and routines. For more dog park adventures, explore Elizabeth \"Betty\" Wolfe Park (3.8 miles) or Fort Family Park (4.7 miles) with your furry companion."
  },
  {
    "name": "Stockton Park",
    "street": "4021 Ortega Blvd",
    "city": "Jacksonville",
    "state": "FL",
    "zip": "32210",
    "latitude": 30.2747004,
    "longitude": -81.7004884,
    "description": "With 4.6 stars across 1,481 reviews, Stockton Park at 4021 Ortega Blvd has clearly won over Jacksonville dog owners. Open from 7am to 7pm daily, it's easy for dog owners to stop by whenever works best. Nearby, Stinson Park (0.7 miles) is another dog park favorite where you can take your four-legged friend."
  },
  {
    "name": "Elizabeth \"Betty\" Wolfe Park",
    "street": "3320 Chrysler Dr",
    "city": "Jacksonville",
    "state": "FL",
    "zip": "32257",
    "latitude": 30.2027351,
    "longitude": -81.6243575,
    "description": "Elizabeth \"Betty\" Wolfe Park at 3320 Chrysler Dr is well-regarded by Jacksonville dog owners, holding 4.6 stars across 469 reviews. Open from 7am to 7pm daily, there's room in the day for dog owners to bring their furry friends. More dog-friendly parks nearby include Losco Regional Park (3.8 miles) and Alberts Field (4.0 miles)—perfect for pups who love adventure."
  },
  {
    "name": "Alexandria Oaks Park",
    "street": "1620 Marco Pl",
    "city": "Jacksonville",
    "state": "FL",
    "zip": "32207",
    "latitude": 30.3019566,
    "longitude": -81.6482006,
    "description": "Located at 1620 Marco Pl in Jacksonville, Alexandria Oaks Park earns strong marks from local dog owners—4.6 stars from 307 reviews. Open from 7am to 7pm daily, dog owners can plan visits around work or their pup's energy level. Dog owners can also take their pups to nearby Landon Park (0.7 miles) or St. Johns Park (1.2 miles)."
  },
  {
    "name": "Bartow Dog Park",
    "street": "2015 Shumate DrBartow",
    "city": "Lakeland",
    "state": "FL",
    "zip": "33830",
    "latitude": 27.8776338,
    "longitude": -81.8420217,
    "description": "Bartow Dog Park (4.8 stars from 64 reviews) is a popular destination for Lakeland dog owners, located at 2015 Shumate Dr. Dog owners in the area consistently choose this park as a go-to destination for their pups. The consistent ratings suggest dog owners know what to expect here."
  },
  {
    "name": "Ruff Ridge Dog Park",
    "street": "1702 N Park RdPlant City",
    "city": "Lakeland",
    "state": "FL",
    "zip": "33563",
    "latitude": 28.0295517,
    "longitude": -82.104934,
    "description": "Ruff Ridge Dog Park (4.9 stars from 20 reviews) is a popular destination for Lakeland dog owners, located at 1702 N Park Rd. Open from 7am to 10pm daily, dog owners can plan visits around work or their pup's energy level. For a change of scenery, Plant City Dog Park is another dog-friendly destination 1.0 miles from here."
  },
  {
    "name": "‍ Barnett Family Park",
    "street": "730 E Orange St",
    "city": "Lakeland",
    "state": "FL",
    "zip": "33801",
    "latitude": 28.0416328,
    "longitude": -81.9500793,
    "description": "With 4.7 stars across 1,934 reviews, Barnett Family Park at 730 E Orange St has clearly won over Lakeland dog owners. Open from 7am to 8pm daily, dog owners have plenty of flexibility to visit when it suits their schedule. Keep the adventure going at other nearby dog parks like Dog Leg Woods (2.6 miles) or Lake Parker Park (3.0 miles)."
  },
  {
    "name": "Lake Parker Park",
    "street": "820 E Robson St",
    "city": "Lakeland",
    "state": "FL",
    "zip": "33805",
    "latitude": 28.08423,
    "longitude": -81.9553434,
    "description": "For Lakeland dog owners, Lake Parker Park at 820 E Robson St has become a reliable favorite—4.7 stars from 1,425 reviews. Open from 6am to 8pm daily, it's easy for dog owners to stop by whenever works best. Keep the adventure going at other nearby dog parks like Lake Crago Dog Park (0.7 miles) or Douglas M. Cook park (1.2 miles)."
  },
  {
    "name": "Auburndale Dog Park",
    "street": "318 Denton AveAuburndale",
    "city": "Lakeland",
    "state": "FL",
    "zip": "33823",
    "latitude": 28.0844878,
    "longitude": -81.819212,
    "description": "With 4.7 stars from 362 reviews, Auburndale Dog Park at 318 Denton Ave has become a favorite among Lakeland dog owners. Open from 6am to 7pm daily, the park accommodates early risers and evening visitors alike. A solid track record makes this a reliable choice for dog owners."
  },
  {
    "name": "Lake Crago Dog Park",
    "street": "525 Lake Crago Dr",
    "city": "Lakeland",
    "state": "FL",
    "zip": "33805",
    "latitude": 28.0902978,
    "longitude": -81.9467595,
    "description": "Lake Crago Dog Park (4.6 stars from 338 reviews) is a popular destination for Lakeland dog owners, located at 525 Lake Crago Dr. The steady stream of dog owner visits speaks to the park's appeal. Dog owners exploring the neighborhood can also bring their furry friends to Lake Parker Park (0.7 miles)."
  },
  {
    "name": "‍ Douglas M. Cook park",
    "street": "955 Wedgewood Estates Blvd",
    "city": "Lakeland",
    "state": "FL",
    "zip": "33809",
    "latitude": 28.0968443,
    "longitude": -81.9690807,
    "description": "Lakeland dog owners rate Douglas M. Cook park at 955 Wedgewood Estates Blvd highly, with 4.5 stars from 248 visits. Open from 7am to 6pm daily, the park accommodates early risers and evening visitors alike. Other dog parks in the area include Lake Parker Park (1.2 miles) and Lake Crago Dog Park (1.4 miles)—both great for exploring with your four-legged friend."
  },
  {
    "name": "Loyce E. Harpe Park",
    "street": "300 W Carter RdMulberry",
    "city": "Lakeland",
    "state": "FL",
    "zip": "33860",
    "latitude": 27.9347389,
    "longitude": -81.9740697,
    "description": "Located at 300 W Carter Rd in Lakeland, Loyce E. Harpe Park earns strong marks from local dog owners—4.5 stars from 464 reviews. Open from 5am to 10pm daily, the park offers flexibility for dog owners with varying routines. The consistent ratings suggest dog owners know what to expect here."
  },
  {
    "name": "‍ Dog Leg Woods",
    "street": "3326 Cleveland Heights Blvd",
    "city": "Lakeland",
    "state": "FL",
    "zip": "33803",
    "latitude": 28.0040059,
    "longitude": -81.9487219,
    "description": "At 3326 Cleveland Heights Blvd in Lakeland, Dog Leg Woods has built a loyal following—4.5 stars from 474 dog owner reviews. Open from 7am to 8pm daily, dog owners can plan visits around work or their pup's energy level. Nearby, Barnett Family Park (2.6 miles) offers dog owners another great spot to explore with their pups."
  },
  {
    "name": "‍ Gunner paw park",
    "street": "39536 Alston AveZephyrhills",
    "city": "Lakeland",
    "state": "FL",
    "zip": "33542",
    "latitude": 28.2230701,
    "longitude": -82.1709366,
    "description": "Gunner paw park at 39536 Alston Ave holds a 4.4-star rating from 278 Lakeland dog owner visits. Open from 6am to 10pm daily, dog owners in the area can work a visit into their day. Dog owners can find more details about this park in the reviews from other visitors."
  },
  {
    "name": "Plant City Dog Park",
    "street": "904 N Pennsylvania AvePlant City",
    "city": "Lakeland",
    "state": "FL",
    "zip": "33563",
    "latitude": 28.0221249,
    "longitude": -82.1185188,
    "description": "Plant City Dog Park at 904 N Pennsylvania Ave in Lakeland has 4.1 stars from 246 dog owner reviews. Open from 7am to 9pm daily, dog owners have flexibility to plan a visit with their four-legged friends. Looking to explore more? Ruff Ridge Dog Park is another dog-friendly park 1.0 miles from here."
  },
  {
    "name": "Dogs and Cats Walkway and",
    "street": "1025 Biscayne Blvd",
    "city": "Miami",
    "state": "FL",
    "zip": "33132",
    "latitude": 25.7846011,
    "longitude": -80.189145,
    "description": "Dogs and Cats Walkway and at 1025 Biscayne Blvd is well-regarded by Miami dog owners, holding 4.9 stars across 246 reviews. For dog owners in the area, this park has become a trusted spot for time with their pups. For variety, the neighborhood offers more dog parks to explore: Maurice A. Ferré Park (0.1 miles) and Bayfront Park (0.4 miles)."
  },
  {
    "name": "Haulover Dog Beach",
    "street": "10801 Collins AveBal Harbour",
    "city": "Miami",
    "state": "FL",
    "zip": "33154",
    "latitude": 25.887768,
    "longitude": -80.1231395,
    "description": "Miami dog owners rate Haulover Dog Beach at 10801 Collins Ave highly, with 5.0 stars from 27 visits. Open from 8am to 4pm daily, the park works well for dog owners with different schedules. For a change of scenery, North Beach Oceanside Park is another dog-friendly destination 1.3 miles from here."
  },
  {
    "name": "Trails & Tails Park",
    "street": "11645 NW 50th StDoral",
    "city": "Miami",
    "state": "FL",
    "zip": "33178",
    "latitude": 25.8189099,
    "longitude": -80.3717749,
    "description": "With 4.8 stars across 1,180 reviews, Trails & Tails Park at 11645 NW 50th St has clearly won over Miami dog owners. The park has earned genuine loyalty from dog owners who value what it offers. Want to give your pup even more adventure? The Women's Park is another beloved dog park just 3.4 miles away."
  },
  {
    "name": "Lummus Park",
    "street": "1130 Ocean DrMiami Beach",
    "city": "Miami",
    "state": "FL",
    "zip": "33139",
    "latitude": 25.7823481,
    "longitude": -80.1305196,
    "description": "With 22,165 reviews and a 4.7-star rating, Lummus Park (1130 Ocean Dr) has become a landmark for Miami dog owners. Dog owners from across the area make this a destination worth the trip. While you're in the area, dog owners also recommend taking your pup to Flamingo Park, another excellent dog park 0.5 miles away."
  },
  {
    "name": "Bayfront Park",
    "street": "301 Biscayne Blvd",
    "city": "Miami",
    "state": "FL",
    "zip": "33132",
    "latitude": 25.7782421,
    "longitude": -80.1886564,
    "description": "19,719 dog owners can't be wrong: Bayfront Park (301 Biscayne Blvd) is a Miami institution with 4.7 stars. Tens of thousands of dog owners have discovered what makes this park special. For dog owners wanting to explore more with their furry friends, Maurice A. Ferré Park is another great dog park just 0.4 miles away."
  },
  {
    "name": "Haulover Park",
    "street": "10800 Collins AveMiami Beach",
    "city": "Miami",
    "state": "FL",
    "zip": "33154",
    "latitude": 25.9109443,
    "longitude": -80.123238,
    "description": "At 10800 Collins Ave in Miami, Haulover Park draws dog owners from across the area—4.7 stars from 17,289 reviews. Open from 8am to 5pm daily, visits fit naturally into any dog owner's routine. For more dog park adventures, explore Arch Creek East Environmental (1.5 miles) or Haulover Dog Beach (1.6 miles) with your furry companion."
  },
  {
    "name": "Maurice A. Ferré Park",
    "street": "1075 Biscayne Blvd",
    "city": "Miami",
    "state": "FL",
    "zip": "33132",
    "latitude": 25.7836481,
    "longitude": -80.1888959,
    "description": "Maurice A. Ferré Park at 1075 Biscayne Blvd has become essential for Miami dog owners, earning 4.7 stars from 5,781 visitors. Open from 7am to 10pm daily, dog owners can visit during quieter hours or join the regular crowd. Nearby, Dogs and Cats Walkway and (0.1 miles) gives dog owners even more space to explore with their four-legged companions."
  },
  {
    "name": "Margaret Pace Park",
    "street": "1745 N Bayshore Dr",
    "city": "Miami",
    "state": "FL",
    "zip": "33132",
    "latitude": 25.7933775,
    "longitude": -80.1861208,
    "description": "Dog owners in Miami have embraced Margaret Pace Park (1745 N Bayshore Dr) as a top destination—4.7 stars from 2,888 visits. Dog owners have embraced this park as a top choice for spending time with their pups. For more dog park adventures, explore Canvas Dog Park (0.5 miles) or Dogs and Cats Walkway and (0.6 miles) with your furry companion."
  },
  {
    "name": "David T. Kennedy Park",
    "street": "2400 S Bayshore Dr",
    "city": "Miami",
    "state": "FL",
    "zip": "33133",
    "latitude": 25.7343634,
    "longitude": -80.2299376,
    "description": "David T. Kennedy Park at 2400 S Bayshore Dr in Miami is a community favorite, with 2,561 dog owners giving it 4.7 stars. This park has clearly won over local dog owners who return again and again with their furry friends. Keep the adventure going at other nearby dog parks like Coconut Grove Dog Park (0.2 miles) or Regatta Park (0.5 miles)."
  },
  {
    "name": "Flamingo Park",
    "street": "999 11th StMiami Beach",
    "city": "Miami",
    "state": "FL",
    "zip": "33139",
    "latitude": 25.7846592,
    "longitude": -80.1374631,
    "description": "Local dog owners love Flamingo Park at 999 11th St in Miami—4.7 stars from an impressive 2,350 reviews. Open from 8am to 8:30pm daily, there's always time for dog owners to bring their pup for some quality time. For variety, many dog owners also bring their furry friends to Dog park (0.1 miles)—another great dog park in the area."
  },
  {
    "name": "Coconut Grove Dog Park",
    "street": "2171 S Bayshore Dr",
    "city": "Miami",
    "state": "FL",
    "zip": "33133",
    "latitude": 25.7350297,
    "longitude": -80.2276104,
    "description": "Coconut Grove Dog Park at 2171 S Bayshore Dr is a favorite among Miami dog owners, earning 4.7 stars from 1,188 reviews. Open from 8am to 9pm daily, dog owners have room to work around busy schedules. Other popular dog parks nearby include David T. Kennedy Park (0.2 miles) and Regatta Park (0.6 miles)—both favorites among local pup parents."
  },
  {
    "name": "Regatta Park",
    "street": "3500 Pan American Dr",
    "city": "Miami",
    "state": "FL",
    "zip": "33133",
    "latitude": 25.7276839,
    "longitude": -80.2337791,
    "description": "Miami dog owners rate Regatta Park at 3500 Pan American Dr highly, with 4.7 stars from 777 visits. The steady stream of dog owner visits speaks to the park's appeal. Other dog parks in the area include Peacock Park (0.4 miles) and David T. Kennedy Park (0.5 miles)—both great for exploring with your four-legged friend."
  },
  {
    "name": "Amelia Earhart Dog Park",
    "street": "13105 NW 47th AveOpa-locka",
    "city": "Miami",
    "state": "FL",
    "zip": "33054",
    "latitude": 25.8914575,
    "longitude": -80.2746032,
    "description": "For dog owners in the Miami area, Amelia Earhart Dog Park (13105 NW 47th Ave) offers a 4.7-star experience based on 447 reviews. Open from 7am to 8pm daily, dog owners have plenty of flexibility to plan a visit. For variety, the neighborhood offers more dog parks to explore: Amelia Earhart Park (0.4 miles) and Amelia Earhart MTB Trails (0.4 miles)."
  },
  {
    "name": "Brickell Park",
    "street": "",
    "city": "Miami",
    "state": "FL",
    "zip": "",
    "latitude": 25.7741728,
    "longitude": -80.19362,
    "description": "With 4.7 stars from 124 reviews, Brickell Park has become a favorite among Miami dog owners. Open from 7am to 6:30pm daily, the park offers flexibility for dog owners with varying routines. Nearby, Dog Park (0.0 miles) offers dog owners another great spot to explore with their pups."
  },
  {
    "name": "Pinecrest Gardens",
    "street": "11000 Red Rd",
    "city": "Miami Gardens",
    "state": "FL",
    "zip": "33156",
    "latitude": 25.6744286,
    "longitude": -80.2843246,
    "description": "With 4.8 stars across 3,001 reviews, Pinecrest Gardens at 11000 Red Rd has clearly won over Miami Gardens dog owners. Open from 9am to 5pm daily, there's always time for dog owners to bring their pup for some quality time. Dog owners in the area also love bringing their pups to South Miami Dog Park (1.8 miles) and Dadeland Dog Park (2.0 miles)."
  },
  {
    "name": "Arch Creek East Environmental",
    "street": "2699 NE 135th St",
    "city": "Miami Gardens",
    "state": "FL",
    "zip": "33181",
    "latitude": 25.9007988,
    "longitude": -80.145288,
    "description": "With 4.7 stars from 177 reviews, Arch Creek East Environmental at 2699 NE 135th St has become a favorite among Miami Gardens dog owners. Local dog owners appreciate what this park offers their four-legged friends. Looking for more places to take your pup? North Bayshore Park is another popular dog park just 0.9 miles away."
  },
  {
    "name": "Oleta River State Park",
    "street": "3400 NE 163rd StNorth Miami Beach",
    "city": "Miami Gardens",
    "state": "FL",
    "zip": "33160",
    "latitude": 25.9260244,
    "longitude": -80.1538568,
    "description": "Oleta River State Park at 3400 NE 163rd St is one of the most beloved dog parks in Miami Gardens—4.6 stars from an incredible 6,485 reviews. Open from 8am to 5:30pm daily, the park accommodates everything from early morning walks to evening adventures. For dog owners wanting to explore more with their furry friends, East Greynolds Park is another great dog park just 0.4 miles away."
  },
  {
    "name": "Enchanted Forest Elaine Gordon",
    "street": "1725 NE 135th St",
    "city": "Miami Gardens",
    "state": "FL",
    "zip": "33181",
    "latitude": 25.9021082,
    "longitude": -80.1630656,
    "description": "Enchanted Forest Elaine Gordon at 1725 NE 135th St in Miami Gardens is a community favorite, with 1,267 dog owners giving it 4.6 stars. Open from 7am to 5pm daily, it's easy for dog owners to stop by whenever works best. For variety, many dog owners also bring their furry friends to Arch Creek East Environmental (1.1 miles)—another great dog park in the area."
  },
  {
    "name": "North Bayshore Park",
    "street": "12220 N Bayshore Dr",
    "city": "Miami Gardens",
    "state": "FL",
    "zip": "33181",
    "latitude": 25.8889123,
    "longitude": -80.152165,
    "description": "North Bayshore Park at 12220 N Bayshore Dr is well-regarded by Miami Gardens dog owners, holding 4.6 stars across 471 reviews. Open from 6am to 7pm daily, the park works well for dog owners with different schedules. For variety, the neighborhood offers more dog parks to explore: Arch Creek East Environmental (0.9 miles) and Enchanted Forest Elaine Gordon (1.1 miles)."
  },
  {
    "name": "Sauls Park",
    "street": "NE 13th AveNorth Miami Beach",
    "city": "Miami Gardens",
    "state": "FL",
    "zip": "33162",
    "latitude": 25.9181296,
    "longitude": -80.1735903,
    "description": "For dog owners in Miami Gardens, Sauls Park has a 4.4-star rating (21 reviews). The neighborhood benefits from having this park as an option for dog owners and their pups. Nearby dog parks worth exploring with your pup include Enchanted Forest Elaine Gordon (1.3 miles) and Oleta River State Park (1.3 miles)."
  },
  {
    "name": "Buccaneer Park",
    "street": "3100 NW 207th St",
    "city": "Miami Gardens",
    "state": "FL",
    "zip": "33056",
    "latitude": 25.9642233,
    "longitude": -80.2529961,
    "description": "Buccaneer Park (4.5 stars from 255 reviews) is a popular destination for Miami Gardens dog owners, located at 3100 NW 207th St. For dog owners in the area, this park has become a trusted spot for time with their pups. Other dog parks in the area include Walt Frazier Park (1.5 miles) and River Run Park (1.8 miles)—both great for exploring with your four-legged friend."
  },
  {
    "name": "Pembroke Park",
    "street": "3115 SW 52nd AvePembroke Park",
    "city": "Miami Gardens",
    "state": "FL",
    "zip": "33023",
    "latitude": 25.9820686,
    "longitude": -80.1946246,
    "description": "Pembroke Park (4.5 stars from 265 reviews) is a popular destination for Miami Gardens dog owners, located at 3115 SW 52nd Ave. Open from 7am to 7pm daily, there's room in the day for dog owners to bring their furry friends. For a change of scenery, Zinkil Park is another dog-friendly destination 1.4 miles from here."
  },
  {
    "name": "River Run Park",
    "street": "9400 Miramar Blvd",
    "city": "Miami Gardens",
    "state": "FL",
    "zip": "33025",
    "latitude": 25.9866081,
    "longitude": -80.2691699,
    "description": "River Run Park at 9400 Miramar Blvd is well-regarded by Miami Gardens dog owners, holding 4.5 stars across 502 reviews. Open from 7am to 7pm daily, dog owners can easily fit a visit into busy schedules. Dog owners exploring the neighborhood can also bring their furry friends to Buccaneer Park (1.8 miles)."
  },
  {
    "name": "Ives Estates Park",
    "street": "20901 NE 16th Ave",
    "city": "Miami Gardens",
    "state": "FL",
    "zip": "33179",
    "latitude": 25.970705,
    "longitude": -80.1691978,
    "description": "At 20901 NE 16th Ave in Miami Gardens, Ives Estates Park has built a loyal following—4.5 stars from 545 dog owner reviews. Dog owners frequent this park for its consistent quality and welcoming atmosphere. Dog owners exploring the neighborhood can also bring their furry friends to Pembroke Park (1.8 miles)."
  },
  {
    "name": "A.J. King Park",
    "street": "4250 NW 178th St",
    "city": "Miami Gardens",
    "state": "FL",
    "zip": "33055",
    "latitude": 25.9344119,
    "longitude": -80.2711077,
    "description": "For dog owners in Miami Gardens, A.J. King Park at 4250 NW 178th St has a 4.4-star rating (52 reviews). Open from 7am to 8:30pm daily, dog owners in the area can work a visit into their day. For dog owners who like to explore, Walt Frazier Park (1.2 miles) and Myrtle Grove Park (1.2 miles) are both nearby parks to try with your dog."
  },
  {
    "name": "Rolling Oaks Park",
    "street": "18701 NW 17th Ct",
    "city": "Miami Gardens",
    "state": "FL",
    "zip": "33056",
    "latitude": 25.945988,
    "longitude": -80.230183,
    "description": "At 18701 NW 17th Ct, Rolling Oaks Park has 4.4 stars based on 370 reviews from Miami Gardens dog owners. Open from 7am to 11pm, Mon through Thu, local dog owners have time to explore with their furry companions. For pups who want more adventure, Scott Park is a nearby dog park worth visiting (0.7 miles)."
  },
  {
    "name": "Lake Stevens Park",
    "street": "18350 NW 52nd Ave",
    "city": "Miami Gardens",
    "state": "FL",
    "zip": "33055",
    "latitude": 25.9178129,
    "longitude": -80.2854823,
    "description": "Dog owners in Miami Gardens have made Lake Stevens Park at 18350 NW 52nd Ave a go-to spot, rating it 4.4 stars across 522 reviews. Open from 6am to 7pm daily, dog owners have plenty of flexibility to plan a visit. Dog owners can also take their pups to nearby Happy Tappy Dog Park (1.3 miles) or A.J. King Park (1.5 miles)."
  },
  {
    "name": "Walt Frazier Park",
    "street": "3201 NW 185th St",
    "city": "Miami Gardens",
    "state": "FL",
    "zip": "33056",
    "latitude": 25.9424001,
    "longitude": -80.2536727,
    "description": "Located at 3201 NW 185th St, Walt Frazier Park in Miami Gardens is rated 4.3 stars by 74 dog owners. Local dog owners use this park as a spot to spend time with their furry companions. Dog owners might also enjoy Myrtle Grove Park, another dog park just 0.4 miles away."
  },
  {
    "name": "Biscayne Gardens Park",
    "street": "15951 NW 2nd Ave",
    "city": "Miami Gardens",
    "state": "FL",
    "zip": "33169",
    "latitude": 25.9210933,
    "longitude": -80.2039473,
    "description": "Biscayne Gardens Park at 15951 NW 2nd Ave in Miami Gardens has 4.2 stars from 73 dog owner reviews. Open from 7am to 7pm daily, dog owners have flexibility to plan a visit with their four-legged friends. For pups who want more adventure, Scott Park is a nearby dog park worth visiting (1.9 miles)."
  },
  {
    "name": "Magnolia Park",
    "street": "2123 Ali Baba AveOpa-locka",
    "city": "Miami Gardens",
    "state": "FL",
    "zip": "33054",
    "latitude": 25.9098523,
    "longitude": -80.2346036,
    "description": "Dog owners in the Miami Gardens area will find Magnolia Park at 2123 Ali Baba Ave—a local option for spending time with their pups. This park provides dog owners in the community with a place to visit with their dogs. Nearby dog parks worth exploring with your pup include Scott Park (1.9 miles) and Biscayne Gardens Park (2.1 miles)."
  },
  {
    "name": "‍ Delaney Park",
    "street": "400 Richmond St",
    "city": "Orlando",
    "state": "FL",
    "zip": "32806",
    "latitude": 28.52968,
    "longitude": -81.372653,
    "description": "Located at 400 Richmond St in Orlando, Delaney Park earns strong marks from local dog owners—4.8 stars from 103 reviews. The park has earned its reputation among dog owners in the neighborhood as a reliable choice. More dog-friendly parks nearby include Al Coith Park (0.1 miles) and Greenwood Urban Wetlands (0.7 miles)—perfect for pups who love adventure."
  },
  {
    "name": "Lake Eola Park",
    "street": "512 E Washington St",
    "city": "Orlando",
    "state": "FL",
    "zip": "32801",
    "latitude": 28.5436342,
    "longitude": -81.3691977,
    "description": "With 22,875 reviews and a 4.7-star rating, Lake Eola Park (512 E Washington St) has become a landmark for Orlando dog owners. Open from 6am to 12am daily, dog owners can visit during quieter hours or join the regular crowd. Dog owners in the area also frequent Constitution Green (0.2 miles)—another top dog park worth visiting with your pup."
  },
  {
    "name": "Blue Jacket Park",
    "street": "2501 General Rees Ave",
    "city": "Orlando",
    "state": "FL",
    "zip": "32814",
    "latitude": 28.5709834,
    "longitude": -81.3398087,
    "description": "Dog owners in Orlando have embraced Blue Jacket Park (2501 General Rees Ave) as a top destination—4.7 stars from 1,708 visits. Open from 6am to 11pm daily, the park accommodates a variety of dog owner schedules and routines. Other popular dog parks nearby include Lake Baldwin Park (0.9 miles) and Lake Druid Mountain biking (1.3 miles)—both favorites among local pup parents."
  },
  {
    "name": "Lake Baldwin Park",
    "street": "2000 S Lakemont AveWinter Park",
    "city": "Orlando",
    "state": "FL",
    "zip": "32789",
    "latitude": 28.5765105,
    "longitude": -81.3271405,
    "description": "Local dog owners love Lake Baldwin Park at 2000 S Lakemont Ave in Orlando—4.7 stars from an impressive 1,378 reviews. Open from 7am to 7pm daily, dog owners have plenty of flexibility to visit when it suits their schedule. For variety, many dog owners also bring their furry friends to Blue Jacket Park (0.9 miles)—another great dog park in the area."
  },
  {
    "name": "‍ Blanchard Park",
    "street": "2451 Dean RdUnion Park",
    "city": "Orlando",
    "state": "FL",
    "zip": "32817",
    "latitude": 28.5814114,
    "longitude": -81.24496,
    "description": "Dog owners in Orlando have embraced Blanchard Park (2451 Dean Rd) as a top destination—4.7 stars from 1,316 visits. Open from 8am to 6pm daily, the park accommodates a variety of dog owner schedules and routines. Other popular dog parks nearby include Eagle Landing Dog Park (4.2 miles) and Yucatan Park (4.8 miles)—both favorites among local pup parents."
  },
  {
    "name": "Cypress Grove Park",
    "street": "290 Holden Ave",
    "city": "Orlando",
    "state": "FL",
    "zip": "32839",
    "latitude": 28.4944063,
    "longitude": -81.4132885,
    "description": "For Orlando dog owners, Cypress Grove Park at 290 Holden Ave has become a reliable favorite—4.7 stars from 1,055 reviews. Open from 8am to 6pm daily, dog owners have plenty of flexibility to visit when it suits their schedule. For more dog park adventures, explore Eagle Nest Park (2.4 miles) or Al Coith Park (3.4 miles) with your furry companion."
  },
  {
    "name": "Dickson Azalea Park",
    "street": "100 Rosearden Dr",
    "city": "Orlando",
    "state": "FL",
    "zip": "32803",
    "latitude": 28.544107,
    "longitude": -81.358026,
    "description": "With 4.7 stars from 887 reviews, Dickson Azalea Park at 100 Rosearden Dr has become a favorite among Orlando dog owners. Open from 7am to 8:30pm daily, there's plenty of opportunity for dog owners to find a time that works. Other dog parks in the area include Constitution Green (0.6 miles) and Lake Eola Park (0.7 miles)—both great for exploring with your four-legged friend."
  },
  {
    "name": "Lake Druid Mountain biking",
    "street": "899 Coy Dr",
    "city": "Orlando",
    "state": "FL",
    "zip": "32803",
    "latitude": 28.5550761,
    "longitude": -81.3500121,
    "description": "Lake Druid Mountain biking (4.7 stars from 448 reviews) is a popular destination for Orlando dog owners, located at 899 Coy Dr. For dog owners in the area, this park has become a trusted spot for time with their pups. For a change of scenery, Dickson Azalea Park is another dog-friendly destination 0.9 miles from here."
  },
  {
    "name": "Loch Haven Park",
    "street": "777 E Princeton St",
    "city": "Orlando",
    "state": "FL",
    "zip": "32803",
    "latitude": 28.5707731,
    "longitude": -81.3668296,
    "description": "Dog owners in Orlando have made Loch Haven Park at 777 E Princeton St a go-to spot, rating it 4.7 stars across 336 reviews. Open from 6am to 11pm daily, dog owners have plenty of flexibility to plan a visit. More dog-friendly parks nearby include BarkHaven (0.5 miles) and Mead Botanical Garden (1.1 miles)—perfect for pups who love adventure."
  },
  {
    "name": "Pups Pub Sports Bar Dog Park",
    "street": "317 N Orange Ave",
    "city": "Orlando",
    "state": "FL",
    "zip": "32801",
    "latitude": 28.5460775,
    "longitude": -81.378885,
    "description": "Orlando dog owners rate Pups Pub Sports Bar Dog Park at 317 N Orange Ave highly, with 4.7 stars from 214 visits. Local dog owners appreciate what this park offers their four-legged friends. For variety, the neighborhood offers more dog parks to explore: Jubilee Dog Park (0.3 miles) and Lake Eola Park (0.6 miles)."
  },
  {
    "name": "Shane Kelly Bark Park",
    "street": "499 Waggin TrlOviedo",
    "city": "Orlando",
    "state": "FL",
    "zip": "32765",
    "latitude": 28.6776045,
    "longitude": -81.1791645,
    "description": "Orlando dog owners rate Shane Kelly Bark Park at 499 Waggin Trl highly, with 4.7 stars from 54 visits. Dog owners in the area consistently choose this park as a go-to destination for their pups. Local dog owners have clearly found this to be a worthwhile destination."
  },
  {
    "name": "‍ Barnett Dog park",
    "street": "",
    "city": "Orlando",
    "state": "FL",
    "zip": "",
    "latitude": 28.5779593,
    "longitude": -81.4514891,
    "description": "In Orlando, Barnett Dog park earns strong marks from local dog owners—4.7 stars from 6 reviews. The park serves dog owners well, providing a destination the community values. Dog owners exploring the neighborhood can also bring their furry friends to Barnett Park (1.8 miles)."
  },
  {
    "name": "‍ Dog Island",
    "street": "Lake Ave",
    "city": "Orlando",
    "state": "FL",
    "zip": "32751",
    "latitude": 28.617708,
    "longitude": -81.3716119,
    "description": "Orlando dog owners rate Dog Island highly, with 4.6 stars from 39 visits. Dog owners frequent this park for its consistent quality and welcoming atmosphere. Dog owners exploring the neighborhood can also bring their furry friends to Mead Botanical Garden (2.4 miles)."
  },
  {
    "name": "‍ Montgomery Park",
    "street": "694 Montgomery AveOcoee",
    "city": "Orlando",
    "state": "FL",
    "zip": "34761",
    "latitude": 28.5596823,
    "longitude": -81.5278261,
    "description": "With 4.6 stars from 44 reviews, Montgomery Park at 694 Montgomery Ave has become a favorite among Orlando dog owners. Open from 7am to 7pm daily, the park accommodates early risers and evening visitors alike. For a change of scenery, Maple Street Park is another dog-friendly destination 3.3 miles from here."
  },
  {
    "name": "Al Coith Park",
    "street": "901 Delaney Ave",
    "city": "Orlando",
    "state": "FL",
    "zip": "32801",
    "latitude": 28.5304117,
    "longitude": -81.3743264,
    "description": "Al Coith Park at 901 Delaney Ave is well-regarded by Orlando dog owners, holding 4.6 stars across 64 reviews. Open from 6am to 6pm daily, there's plenty of opportunity for dog owners to find a time that works. Looking for more places to take your pup? Delaney Park is another popular dog park just 0.1 miles away."
  },
  {
    "name": "BarkHaven",
    "street": "724 Brookhaven Dr",
    "city": "Orlando",
    "state": "FL",
    "zip": "32803",
    "latitude": 28.5630944,
    "longitude": -81.3681312,
    "description": "BarkHaven (4.6 stars from 102 reviews) is a popular destination for Orlando dog owners, located at 724 Brookhaven Dr. Dog owners looking for a solid destination will find this park delivers. Looking for more places to take your pup? Loch Haven Park is another popular dog park just 0.5 miles away."
  },
  {
    "name": "Fred Poppe Regional Park",
    "street": "1951 Malabar Rd",
    "city": "Palm Bay",
    "state": "FL",
    "zip": "32907",
    "latitude": 27.9990374,
    "longitude": -80.7413211,
    "description": "Dog owners in Palm Bay have embraced Fred Poppe Regional Park (1951 Malabar Rd) as a top destination—4.6 stars from 1,073 visits. Open from 6am to 10pm daily, dog owners can easily fit a visit into their day, whether morning or evening. Want to give your pup even more adventure? Palm Bay Regional Dog Park is another beloved dog park just 1.0 miles away."
  },
  {
    "name": "Pieloch Dog Park",
    "street": "400 W Florida AveMelbourne",
    "city": "Palm Bay",
    "state": "FL",
    "zip": "32901",
    "latitude": 28.0562041,
    "longitude": -80.6260244,
    "description": "With 4.6 stars from 271 reviews, Pieloch Dog Park at 400 W Florida Ave has become a favorite among Palm Bay dog owners. Open from 7am to 8pm daily, the park offers flexibility for dog owners with varying routines. For a change of scenery, Dewar Park is another dog-friendly destination 2.8 miles from here."
  },
  {
    "name": "‍ Palm Bay Regional Dog Park",
    "street": "325 Championship Cir NW",
    "city": "Palm Bay",
    "state": "FL",
    "zip": "32907",
    "latitude": 28.0092823,
    "longitude": -80.7300086,
    "description": "Located at 325 Championship Cir NW in Palm Bay, Palm Bay Regional Dog Park earns strong marks from local dog owners—4.6 stars from 92 reviews. Open from 7am to 8pm daily, dog owners have plenty of flexibility to plan a visit. Nearby, Fred Poppe Regional Park (1.0 miles) offers dog owners another great spot to explore with their pups."
  },
  {
    "name": "‍ Wickham Park",
    "street": "2500 Parkway DrMelbourne",
    "city": "Palm Bay",
    "state": "FL",
    "zip": "32935",
    "latitude": 28.1576586,
    "longitude": -80.6626268,
    "description": "At 2500 Parkway Dr in Palm Bay, Wickham Park has built a loyal following—4.5 stars from 791 dog owner reviews. Local dog owners appreciate what this park offers their four-legged friends. For variety, the neighborhood offers more dog parks to explore: Pieloch Dog Park (2.1 miles) and Satellite Beach Dog Park (4.0 miles)."
  },
  {
    "name": "Dewar Park",
    "street": "2705 Margaret St",
    "city": "Palm Bay",
    "state": "FL",
    "zip": "32905",
    "latitude": 28.0324708,
    "longitude": -80.5894481,
    "description": "At 2705 Margaret St, Dewar Park has 4.2 stars based on 12 reviews from Palm Bay dog owners. Open from 7am to 9pm daily, local dog owners have time to explore with their furry companions. Dog owners in the neighborhood can also take their furry friends to Pieloch Dog Park, 2.8 miles away."
  },
  {
    "name": "Sebastian Florida Bark Park",
    "street": "245 Keen TerraceSebastian",
    "city": "Palm Bay",
    "state": "FL",
    "zip": "32958",
    "latitude": 27.7941986,
    "longitude": -80.4788151,
    "description": "For dog owners in Palm Bay, Sebastian Florida Bark Park at 245 Keen Terrace has a 4.3-star rating (272 reviews). Local dog owners use this park as a spot to spend time with their furry companions. Reviews from other dog owners provide perspective on what to expect at this park."
  },
  {
    "name": "‍ Satellite Beach Dog Park",
    "street": "750 Jamaica BlvdSatellite Beach",
    "city": "Palm Bay",
    "state": "FL",
    "zip": "32937",
    "latitude": 28.1608802,
    "longitude": -80.5965499,
    "description": "Dog owners in the Palm Bay area will find Satellite Beach Dog Park at 750 Jamaica Blvd—a local option for spending time with their pups. Open from 7:30am to 7:30pm weekends, dog owners in the area can work a visit into their day. Nearby dog parks worth exploring with your pup include Pieloch Dog Park (3.3 miles) and Wickham Park (4.0 miles)."
  },
  {
    "name": "James F. Holland Memorial Park",
    "street": "18 Florida Park Dr N",
    "city": "Palm Coast",
    "state": "FL",
    "zip": "32164",
    "latitude": 29.5618196,
    "longitude": -81.2089299,
    "description": "James F. Holland Memorial Park at 18 Florida Park Dr N in Palm Coast is a community favorite, with 1,805 dog owners giving it 4.7 stars. Open from 7am to 10pm daily, dog owners can plan visits around their pup's favorite times to be active. Nearby, Palm Coast Dog Park (0.0 miles) is another dog park favorite where you can take your four-legged friend."
  },
  {
    "name": "Wadsworth Park",
    "street": "2200 Moody BlvdFlagler Beach",
    "city": "Palm Coast",
    "state": "FL",
    "zip": "32136",
    "latitude": 29.4764617,
    "longitude": -81.1476526,
    "description": "Dog owners in Palm Coast have made Wadsworth Park at 2200 Moody Blvd a go-to spot, rating it 4.5 stars across 650 reviews. Open from 7am to 11pm daily, there's room in the day for dog owners to bring their furry friends. Looking for more places to take your pup? Wadsworth Dog Park is another popular dog park just 0.1 miles away."
  },
  {
    "name": "‍ Palm Coast Dog Park",
    "street": "18 Florida Park Dr N",
    "city": "Palm Coast",
    "state": "FL",
    "zip": "32137",
    "latitude": 29.5618196,
    "longitude": -81.2089299,
    "description": "Palm Coast Dog Park at 18 Florida Park Dr N holds a 4.4-star rating from 43 Palm Coast dog owner visits. The park gives neighborhood dog owners a destination for outings with their four-legged friends. Dog owners might also enjoy James F. Holland Memorial Park, another dog park just 0.0 miles away."
  },
  {
    "name": "Wadsworth Dog Park",
    "street": "428 Beach Village DrFlagler Beach",
    "city": "Palm Coast",
    "state": "FL",
    "zip": "32136",
    "latitude": 29.4775494,
    "longitude": -81.1481506,
    "description": "19 dog owners have reviewed Wadsworth Dog Park at 428 Beach Village Dr in Palm Coast, averaging 4.2 stars. The neighborhood benefits from having this park as an option for dog owners and their pups. For pups who want more adventure, Wadsworth Park is a nearby dog park worth visiting (0.1 miles)."
  },
  {
    "name": "Harbor's Edge Park",
    "street": "1240 NE 28th Ave",
    "city": "Pompano Beach",
    "state": "FL",
    "zip": "33062",
    "latitude": 26.2470801,
    "longitude": -80.0934113,
    "description": "For dog owners in the Pompano Beach area, Harbor's Edge Park (1240 NE 28th Ave) offers a 4.7-star experience based on 449 reviews. Open from 7am to 8pm daily, the park offers flexibility for dog owners with varying routines. A solid track record makes this a reliable choice for dog owners."
  },
  {
    "name": "Winter Lakes Dog Park",
    "street": "5240 NW Jannebo St",
    "city": "‍ Port St. Lucie",
    "state": "FL",
    "zip": "34986",
    "latitude": 27.3690939,
    "longitude": -80.3840286,
    "description": "At 5240 NW Jannebo St in Port St. Lucie, Winter Lakes Dog Park has built a loyal following—4.9 stars from 36 dog owner reviews. Local dog owners appreciate what this park offers their four-legged friends. Looking for more places to take your pup? Winterlakes Park is another popular dog park just 0.1 miles away."
  },
  {
    "name": "Sandsprit Park",
    "street": "3443 SE St Lucie BlvdStuart",
    "city": "‍ Port St. Lucie",
    "state": "FL",
    "zip": "34997",
    "latitude": 27.1982184,
    "longitude": -80.2274094,
    "description": "Sandsprit Park at 3443 SE St Lucie Blvd is a favorite among Port St. Lucie dog owners, earning 4.7 stars from 1,965 reviews. Open from 6am to 9pm daily, dog owners can plan visits around their pup's favorite times to be active. Dog owners in the area also love bringing their pups to Haney Creek Dog Park (1.5 miles) and Poppleton Creek Dog Park (1.7 miles)."
  },
  {
    "name": "Jessica Clinton Park",
    "street": "3200 Southbend Blvd",
    "city": "‍ Port St. Lucie",
    "state": "FL",
    "zip": "34984",
    "latitude": 27.2431756,
    "longitude": -80.3397192,
    "description": "With 4.7 stars from 810 reviews, Jessica Clinton Park at 3200 Southbend Blvd has become a favorite among Port St. Lucie dog owners. Open from 8am to 10pm daily, there's plenty of opportunity for dog owners to find a time that works. Dog owners exploring the neighborhood can also bring their furry friends to Lyngate Park (3.5 miles)."
  },
  {
    "name": "Winterlakes Park",
    "street": "5241 NW Jannebo St",
    "city": "‍ Port St. Lucie",
    "state": "FL",
    "zip": "34986",
    "latitude": 27.3687974,
    "longitude": -80.3828966,
    "description": "Winterlakes Park at 5241 NW Jannebo St is well-regarded by Port St. Lucie dog owners, holding 4.7 stars across 296 reviews. Open from 8am to 8pm daily, there's plenty of opportunity for dog owners to find a time that works. Nearby, Winter Lakes Dog Park (0.1 miles) offers dog owners another great spot to explore with their pups."
  },
  {
    "name": "Lyngate Park",
    "street": "1301 SE Lyngate Dr",
    "city": "‍ Port St. Lucie",
    "state": "FL",
    "zip": "34952",
    "latitude": 27.2859977,
    "longitude": -80.3105586,
    "description": "Located at 1301 SE Lyngate Dr in Port St. Lucie, Lyngate Park earns strong marks from local dog owners—4.6 stars from 977 reviews. Open from 7am to 10pm daily, dog owners can plan visits around work or their pup's energy level. Dog owners exploring the neighborhood can also bring their furry friends to Kiwanis Park (1.4 miles)."
  },
  {
    "name": "Woodland Trails Park",
    "street": "1485 SW Calmar Ave",
    "city": "‍ Port St. Lucie",
    "state": "FL",
    "zip": "34953",
    "latitude": 27.2107246,
    "longitude": -80.3941294,
    "description": "Dog owners in Port St. Lucie have made Woodland Trails Park at 1485 SW Calmar Ave a go-to spot, rating it 4.6 stars across 496 reviews. Open from 7am to 8:30pm daily, there's room in the day for dog owners to bring their furry friends. Dog owners can also take their pups to nearby Jessica Clinton Park (4.0 miles) or Tradition Dog Park (4.8 miles)."
  },
  {
    "name": "Kiwanis Park",
    "street": "751 SE Breakwater Ave",
    "city": "‍ Port St. Lucie",
    "state": "FL",
    "zip": "34983",
    "latitude": 27.2993417,
    "longitude": -80.3274169,
    "description": "Located at 751 SE Breakwater Ave in Port St. Lucie, Kiwanis Park earns strong marks from local dog owners—4.5 stars from 250 reviews. Open from 8am to 6pm daily, dog owners have plenty of flexibility to plan a visit. Looking for more places to take your pup? Lyngate Park is another popular dog park just 1.4 miles away."
  },
  {
    "name": "Savannas Preserve State Park",
    "street": "2541 SE Walton Rd",
    "city": "‍ Port St. Lucie",
    "state": "FL",
    "zip": "34952",
    "latitude": 27.298895,
    "longitude": -80.2756357,
    "description": "With 4.5 stars across 1,196 reviews, Savannas Preserve State Park at 2541 SE Walton Rd has clearly won over Port St. Lucie dog owners. The community of dog owners here is welcoming and the atmosphere consistently positive. Dog owners in the area also love bringing their pups to Lyngate Park (2.3 miles) and Kiwanis Park (3.2 miles)."
  },
  {
    "name": "Haney Creek Dog Park",
    "street": "",
    "city": "‍ Port St. Lucie",
    "state": "FL",
    "zip": "",
    "latitude": 27.197983,
    "longitude": -80.2519175,
    "description": "For dog owners in Port St. Lucie, Haney Creek Dog Park has a 4.4-star rating (99 reviews). Open from 7am to 7pm daily, the park fits conveniently into different routines. For dog owners who like to explore, Poppleton Creek Dog Park (1.3 miles) and Sandsprit Park (1.5 miles) are both nearby parks to try with your dog."
  },
  {
    "name": "Poppleton Creek Dog Park",
    "street": "47 51 SE Central PkwyStuart",
    "city": "‍ Port St. Lucie",
    "state": "FL",
    "zip": "34994",
    "latitude": 27.1804051,
    "longitude": -80.2457556,
    "description": "292 dog owners have reviewed Poppleton Creek Dog Park at 47 51 SE Central Pkwy in Port St. Lucie, averaging 4.4 stars. Open from 7am to 7pm daily, dog owners in the area can work a visit into their day. More dog parks in the area include Haney Creek Dog Park (1.3 miles) and Sandsprit Park (1.7 miles)—great options for mixing up your pup's routine."
  },
  {
    "name": "McChesney Park",
    "street": "1585 SW Cashmere Blvd",
    "city": "‍ Port St. Lucie",
    "state": "FL",
    "zip": "34986",
    "latitude": 27.2932898,
    "longitude": -80.3829836,
    "description": "At 1585 SW Cashmere Blvd in Port St. Lucie, McChesney Park carries 4.3 stars from 317 dog owner reviews. Open from 8am to 10pm daily, dog owners can stop by when it fits their schedule. For dog owners who like to explore, Tradition Dog Park (3.3 miles) and Kiwanis Park (3.4 miles) are both nearby parks to try with your dog."
  },
  {
    "name": "Tradition Dog Park",
    "street": "10610 SW Cam Run",
    "city": "‍ Port St. Lucie",
    "state": "FL",
    "zip": "34987",
    "latitude": 27.2713411,
    "longitude": -80.431393,
    "description": "At 10610 SW Cam Run in Port St. Lucie, Tradition Dog Park welcomes dog owners from the surrounding neighborhood. For dog owners in the neighborhood, this park offers a place to take their pups. Dog owners looking for variety can also visit McChesney Park (3.3 miles) or Woodland Trails Park (4.8 miles) with their four-legged friends."
  },
  {
    "name": "‍ Fort De Soto Park",
    "street": "3500 Pinellas Bayway STierra Verde",
    "city": "‍ St. Petersburg",
    "state": "FL",
    "zip": "33715",
    "latitude": 27.6909636,
    "longitude": -82.7195891,
    "description": "Fort De Soto Park at 3500 Pinellas Bayway S in St. Petersburg has earned its reputation with 4.8 stars from 7,546 dog owner reviews. Tens of thousands of dog owners have discovered what makes this park special. Nearby, Fort De Soto Boat Ramp (0.0 miles) gives dog owners even more space to explore with their four-legged companions."
  },
  {
    "name": "Weedon Island Preserve",
    "street": "1800 Weedon Dr NE",
    "city": "‍ St. Petersburg",
    "state": "FL",
    "zip": "33702",
    "latitude": 27.8476716,
    "longitude": -82.6070286,
    "description": "Weedon Island Preserve at 1800 Weedon Dr NE in St. Petersburg is a community favorite, with 3,312 dog owners giving it 4.8 stars. Open from 7am to 5pm daily, dog owners can plan visits around their pup's favorite times to be active. Other popular dog parks nearby include Northeast Park (1.7 miles) and Allendale Park (3.8 miles)—both favorites among local pup parents."
  },
  {
    "name": "Fort De Soto Dog Park",
    "street": "3500 Pinellas Bayway SSt Petersburg",
    "city": "‍ St. Petersburg",
    "state": "FL",
    "zip": "33715",
    "latitude": 27.7700475,
    "longitude": -82.6359078,
    "description": "2,777 dog owners have made Fort De Soto Dog Park (3500 Pinellas Bayway S) one of St. Petersburg's most trusted parks (4.8 stars). Open from 7am to 8pm daily, dog owners have room to work around busy schedules. For more dog park adventures, explore Dunn' Trinity Park (0.0 miles) or Crescent Lake Dog Park (1.1 miles) with your furry companion."
  },
  {
    "name": "‍ Eagle Lake Park",
    "street": "1800 Keene RdLargo",
    "city": "‍ St. Petersburg",
    "state": "FL",
    "zip": "33771",
    "latitude": 27.9315219,
    "longitude": -82.7623157,
    "description": "For St. Petersburg dog owners, Eagle Lake Park at 1800 Keene Rd has become a reliable favorite—4.8 stars from 2,750 reviews. The park has earned genuine loyalty from dog owners who value what it offers. For variety, many dog owners also bring their furry friends to Largo Central Park (1.7 miles)—another great dog park in the area."
  },
  {
    "name": "Flora Wylie Park",
    "street": "1400 N Shore Dr NE",
    "city": "‍ St. Petersburg",
    "state": "FL",
    "zip": "33704",
    "latitude": 27.785881,
    "longitude": -82.624586,
    "description": "Flora Wylie Park (4.8 stars from 824 reviews) is a popular destination for St. Petersburg dog owners, located at 1400 N Shore Dr NE. Open from 6am to 8:30pm daily, there's room in the day for dog owners to bring their furry friends. More dog-friendly parks nearby include North Shore Park (0.2 miles) and Crescent Lake Park (1.0 miles)—perfect for pups who love adventure."
  },
  {
    "name": "Crest Lake Dog Park",
    "street": "332 S Glenwood AveClearwater",
    "city": "‍ St. Petersburg",
    "state": "FL",
    "zip": "33755",
    "latitude": 27.9627607,
    "longitude": -82.774425,
    "description": "Crest Lake Dog Park (4.8 stars from 502 reviews) is a popular destination for St. Petersburg dog owners, located at 332 S Glenwood Ave. Local dog owners appreciate what this park offers their four-legged friends. Dog owners can also take their pups to nearby Crest Lake Park (0.1 miles) or Eagle Lake Park (2.3 miles)."
  },
  {
    "name": "Vina Del Mar Park",
    "street": "302 S Isle DrSt Pete Beach",
    "city": "‍ St. Petersburg",
    "state": "FL",
    "zip": "33706",
    "latitude": 27.7050274,
    "longitude": -82.7279898,
    "description": "Dog owners in St. Petersburg have made Vina Del Mar Park at 302 S Isle Dr a go-to spot, rating it 4.8 stars across 13 reviews. The steady stream of dog owner visits speaks to the park's appeal. Other dog parks in the area include Fort De Soto Boat Ramp (1.1 miles) and Fort De Soto Park (1.1 miles)—both great for exploring with your four-legged friend."
  },
  {
    "name": "‍ Seminole Park",
    "street": "2900 3rd Ave N",
    "city": "‍ St. Petersburg",
    "state": "FL",
    "zip": "33713",
    "latitude": 27.774569,
    "longitude": -82.672753,
    "description": "Located at 2900 3rd Ave N in St. Petersburg, Seminole Park earns strong marks from local dog owners—4.7 stars from 54 reviews. The park serves dog owners well, providing a destination the community values. Dog owners exploring the neighborhood can also bring their furry friends to The Dog Bar (0.6 miles)."
  },
  {
    "name": "Lassing Park",
    "street": "2042 Beach Dr SE",
    "city": "‍ St. Petersburg",
    "state": "FL",
    "zip": "33705",
    "latitude": 27.7491152,
    "longitude": -82.6303187,
    "description": "With 4.7 stars from 980 reviews, Lassing Park at 2042 Beach Dr SE has become a favorite among St. Petersburg dog owners. Open from 6am to 8pm daily, the park offers flexibility for dog owners with varying routines. Dog owners can also take their pups to nearby Coquina Key Park (0.9 miles) or Fort De Soto Dog Park (1.5 miles)."
  },
  {
    "name": "Boca Ciega Millennium Park",
    "street": "12410 74th Ave NSeminole",
    "city": "‍ St. Petersburg",
    "state": "FL",
    "zip": "33772",
    "latitude": 27.8395109,
    "longitude": -82.7870577,
    "description": "Boca Ciega Millennium Park at 12410 74th Ave N is a favorite among St. Petersburg dog owners, earning 4.7 stars from 1,249 reviews. Dog owners appreciate the reliable experience this park provides for their four-legged companions. Keep the adventure going at other nearby dog parks like Boca Ciega Millennium Park (1.8 miles) or Walsingham Park (2.4 miles)."
  },
  {
    "name": "Fort De Soto Boat Ramp",
    "street": "3500 Pinellas Bayway STierra Verde",
    "city": "‍ St. Petersburg",
    "state": "FL",
    "zip": "33715",
    "latitude": 27.6909636,
    "longitude": -82.7195891,
    "description": "With 4.7 stars across 1,332 reviews, Fort De Soto Boat Ramp at 3500 Pinellas Bayway S has clearly won over St. Petersburg dog owners. Open from 7am to 8pm daily, the park accommodates a variety of dog owner schedules and routines. Nearby, Fort De Soto Park (0.0 miles) is another dog park favorite where you can take your four-legged friend."
  },
  {
    "name": "Walter Fuller Park",
    "street": "7901 30th Ave N",
    "city": "‍ St. Petersburg",
    "state": "FL",
    "zip": "33710",
    "latitude": 27.7993188,
    "longitude": -82.7462947,
    "description": "Dog owners in St. Petersburg have embraced Walter Fuller Park (7901 30th Ave N) as a top destination—4.7 stars from 1,338 visits. Open from 7am to 7:30pm daily, dog owners have room to work around busy schedules. Nearby, Walter Fuller Recreation Cente (0.2 miles) is another dog park favorite where you can take your four-legged friend."
  },
  {
    "name": "Walsingham Park",
    "street": "12615 102nd AveSeminole",
    "city": "‍ St. Petersburg",
    "state": "FL",
    "zip": "33778",
    "latitude": 27.865591,
    "longitude": -82.814053,
    "description": "Dog owners in St. Petersburg have embraced Walsingham Park (12615 102nd Ave) as a top destination—4.7 stars from 2,486 visits. For dog owners seeking a tried-and-true destination, this park delivers consistently. For more dog park adventures, explore Boca Ciega Millennium Park (0.9 miles) or Boca Ciega Millennium Park (2.4 miles) with your furry companion."
  },
  {
    "name": "‍ Crescent Lake Park",
    "street": "1320 5th St N",
    "city": "‍ St. Petersburg",
    "state": "FL",
    "zip": "33701",
    "latitude": 27.7855323,
    "longitude": -82.6401594,
    "description": "For St. Petersburg dog owners, Crescent Lake Park at 1320 5th St N has become a reliable favorite—4.7 stars from 2,644 reviews. Open from 6am to 11pm daily, dog owners have plenty of flexibility to visit when it suits their schedule. Nearby, Crescent Lake Dog Park (0.1 miles) is another dog park favorite where you can take your four-legged friend."
  },
  {
    "name": "Sawgrass Lake Park",
    "street": "7400 25th St N",
    "city": "‍ St. Petersburg",
    "state": "FL",
    "zip": "33702",
    "latitude": 27.8091832,
    "longitude": -82.6673552,
    "description": "Sawgrass Lake Park at 7400 25th St N is a favorite among St. Petersburg dog owners, earning 4.7 stars from 4,302 reviews. Open from 7am to 7pm daily, dog owners can plan visits around their pup's favorite times to be active. Keep the adventure going at other nearby dog parks like Love My Dog Resort & Waterpark (0.8 miles) or Allendale Park (1.3 miles)."
  },
  {
    "name": "Forrest Bluff Park",
    "street": "4th St S &64th Ave S",
    "city": "St. Petersburg",
    "state": "FL",
    "zip": "33705",
    "latitude": 27.710459,
    "longitude": -82.638268,
    "description": "Located at 4th St S & in St. Petersburg, Forrest Bluff Park earns strong marks from local dog owners—4.6 stars from 10 reviews. The park has earned its reputation among dog owners in the neighborhood as a reliable choice. For a change of scenery, Lake Vista Recreation Center is another dog-friendly destination 0.9 miles from here."
  },
  {
    "name": "J. R. Alford Greenway",
    "street": "2500 Pedrick Rd",
    "city": "Tallahassee",
    "state": "FL",
    "zip": "32317",
    "latitude": 30.4524138,
    "longitude": -84.1817883,
    "description": "Located at 2500 Pedrick Rd in Tallahassee, J. R. Alford Greenway earns strong marks from local dog owners—4.9 stars from 587 reviews. Open from 6am to 8pm daily, the park accommodates early risers and evening visitors alike. More dog-friendly parks nearby include Lafayette Heritage Trail Park (1.2 miles) and Tom Brown Dog Park (2.4 miles)—perfect for pups who love adventure."
  },
  {
    "name": "Lafayette Heritage Trail Park",
    "street": "4900 Heritage Park Blvd",
    "city": "Tallahassee",
    "state": "FL",
    "zip": "32311",
    "latitude": 30.43978,
    "longitude": -84.195082,
    "description": "Dog owners in Tallahassee have embraced Lafayette Heritage Trail Park (4900 Heritage Park Blvd) as a top destination—4.8 stars from 1,092 visits. Open from 7am to 7pm daily, dog owners can easily fit a visit into their day, whether morning or evening. Looking to mix things up? J. R. Alford Greenway is a nearby dog park 1.2 miles away that's worth exploring with your pup."
  },
  {
    "name": "Canopy Oaks Park",
    "street": "3250 Point View Dr",
    "city": "Tallahassee",
    "state": "FL",
    "zip": "32303",
    "latitude": 30.510112,
    "longitude": -84.3465276,
    "description": "Located at 3250 Point View Dr in Tallahassee, Canopy Oaks Park earns strong marks from local dog owners—4.8 stars from 19 reviews. For dog owners in the area, this park has become a trusted spot for time with their pups. Other dog parks in the area include Fred George Basin Greenway (3.6 miles) and San Luis Mission Park (3.9 miles)—both great for exploring with your four-legged friend."
  },
  {
    "name": "Cascades Park",
    "street": "1001 S Gadsden St",
    "city": "Tallahassee",
    "state": "FL",
    "zip": "32301",
    "latitude": 30.4324038,
    "longitude": -84.2781875,
    "description": "4,891 dog owners have made Cascades Park (1001 S Gadsden St) one of Tallahassee's most trusted parks (4.7 stars). Dog owners have embraced this park as a top choice for spending time with their pups. For more dog park adventures, explore Harriman Circle Park (0.4 miles) or All Saints Dog Park (0.4 miles) with your furry companion."
  },
  {
    "name": "Miccosukee Canopy Road Greenwa",
    "street": "5600 Miccosukee Rd",
    "city": "Tallahassee",
    "state": "FL",
    "zip": "32308",
    "latitude": 30.490716,
    "longitude": -84.185219,
    "description": "At 5600 Miccosukee Rd in Tallahassee, Miccosukee Canopy Road Greenwa has built a loyal following—4.7 stars from 543 dog owner reviews. Open from 6am to 9pm daily, there's plenty of opportunity for dog owners to find a time that works. For a change of scenery, J. R. Alford Greenway is another dog-friendly destination 2.7 miles from here."
  },
  {
    "name": "Los Robles Park",
    "street": "1555 Isabel Ct",
    "city": "Tallahassee",
    "state": "FL",
    "zip": "32303",
    "latitude": 30.4608589,
    "longitude": -84.2757331,
    "description": "At 1555 Isabel Ct in Tallahassee, Los Robles Park has built a loyal following—4.7 stars from 21 dog owner reviews. The steady stream of dog owner visits speaks to the park's appeal. For a change of scenery, Lake Ella Park is another dog-friendly destination 0.3 miles from here."
  },
  {
    "name": "Genevieve Randolph Park",
    "street": "413 E Park Ave",
    "city": "Tallahassee",
    "state": "FL",
    "zip": "32301",
    "latitude": 30.4418164,
    "longitude": -84.2780626,
    "description": "For dog owners in the Tallahassee area, Genevieve Randolph Park (413 E Park Ave) offers a 4.6-star experience based on 9 reviews. Dog owners frequent this park for its consistent quality and welcoming atmosphere. Looking for more places to take your pup? Bloxham Park is another popular dog park just 0.1 miles away."
  },
  {
    "name": "Bloxham Park",
    "street": "205 E Park Ave",
    "city": "Tallahassee",
    "state": "FL",
    "zip": "32301",
    "latitude": 30.4417614,
    "longitude": -84.2804934,
    "description": "Bloxham Park at 205 E Park Ave is well-regarded by Tallahassee dog owners, holding 4.6 stars across 39 reviews. Dog owners in the area consistently choose this park as a go-to destination for their pups. Looking for more places to take your pup? McCarty Park is another popular dog park just 0.1 miles away."
  },
  {
    "name": "Fred George Basin Greenway",
    "street": "3043 Capital Cir NW",
    "city": "Tallahassee",
    "state": "FL",
    "zip": "32303",
    "latitude": 30.4599404,
    "longitude": -84.3611321,
    "description": "For dog owners in the Tallahassee area, Fred George Basin Greenway (3043 Capital Cir NW) offers a 4.6-star experience based on 45 reviews. Dog owners frequent this park for its consistent quality and welcoming atmosphere. Other dog parks in the area include San Luis Mission Park (2.2 miles) and Martha Wellman Park (3.2 miles)—both great for exploring with your four-legged friend."
  },
  {
    "name": "McCarty Park",
    "street": "129 W Park Ave",
    "city": "Tallahassee",
    "state": "FL",
    "zip": "32301",
    "latitude": 30.4417917,
    "longitude": -84.282369,
    "description": "With 4.6 stars from 69 reviews, McCarty Park at 129 W Park Ave has become a favorite among Tallahassee dog owners. The park has earned its reputation among dog owners in the neighborhood as a reliable choice. More dog-friendly parks nearby include E Peck Greene (0.1 miles) and Bloxham Park (0.1 miles)—perfect for pups who love adventure."
  },
  {
    "name": "J. Lee Vause Park",
    "street": "6024 Old Bainbridge Rd",
    "city": "Tallahassee",
    "state": "FL",
    "zip": "32303",
    "latitude": 30.4574451,
    "longitude": -84.2954922,
    "description": "With 4.6 stars from 255 reviews, J. Lee Vause Park at 6024 Old Bainbridge Rd has become a favorite among Tallahassee dog owners. Open from 7:15am to 6:15pm daily, the park offers flexibility for dog owners with varying routines. More dog-friendly parks nearby include Carter-Howell-Strong Park (0.7 miles) and Lake Ella Park (1.0 miles)—perfect for pups who love adventure."
  },
  {
    "name": "San Luis Mission Park",
    "street": "1313 San Luis Rd",
    "city": "Tallahassee",
    "state": "FL",
    "zip": "32304",
    "latitude": 30.4567401,
    "longitude": -84.3242117,
    "description": "Dog owners in Tallahassee have made San Luis Mission Park at 1313 San Luis Rd a go-to spot, rating it 4.6 stars across 885 reviews. Open from 10am to 8pm daily, dog owners can plan visits around work or their pup's energy level. Dog owners exploring the neighborhood can also bring their furry friends to Martha Wellman Park (1.0 miles)."
  },
  {
    "name": "Tom Brown Dog Park",
    "street": "501 Easterwood Dr",
    "city": "Tallahassee",
    "state": "FL",
    "zip": "32311",
    "latitude": 30.4400979,
    "longitude": -84.218726,
    "description": "Tom Brown Dog Park at 501 Easterwood Dr is a favorite among Tallahassee dog owners, earning 4.6 stars from 1,055 reviews. For dog owners seeking a tried-and-true destination, this park delivers consistently. Nearby, Lafayette Heritage Trail Park (1.4 miles) is another dog park favorite where you can take your four-legged friend."
  },
  {
    "name": "Campbell Pond Park",
    "street": "3703 Shoreline Dr",
    "city": "Tallahassee",
    "state": "FL",
    "zip": "32305",
    "latitude": 30.3932945,
    "longitude": -84.2738509,
    "description": "With 4.5 stars from 30 reviews, Campbell Pond Park at 3703 Shoreline Dr has become a favorite among Tallahassee dog owners. Open daily, there's room in the day for dog owners to bring their furry friends. Nearby, Cascades Park (2.7 miles) offers dog owners another great spot to explore with their pups."
  },
  {
    "name": "Bradfordville Dog Park",
    "street": "6808 Beech Rdg Trl",
    "city": "Tallahassee",
    "state": "FL",
    "zip": "32312",
    "latitude": 30.5640683,
    "longitude": -84.2183551,
    "description": "Dog owners in Tallahassee have made Bradfordville Dog Park at 6808 Beech Rdg Trl a go-to spot, rating it 4.5 stars across 126 reviews. Dog owners in the area consistently choose this park as a go-to destination for their pups. Based on the reviews, dog owners can expect a reliable spot for spending time with their pup."
  },
  {
    "name": "Governor's Park",
    "street": "700 N Blair Stone Rd",
    "city": "Tallahassee",
    "state": "FL",
    "zip": "32301",
    "latitude": 30.4629525,
    "longitude": -84.2432035,
    "description": "Governor's Park at 700 N Blair Stone Rd is well-regarded by Tallahassee dog owners, holding 4.5 stars across 268 reviews. Open from 6am to 6pm daily, there's plenty of opportunity for dog owners to find a time that works. For variety, the neighborhood offers more dog parks to explore: Los Robles Park (1.9 miles) and Tom Brown Dog Park (2.1 miles)."
  },
  {
    "name": "Neighborhood BarK & Boutique",
    "street": "660 2nd St SSafety Harbor",
    "city": "Tampa",
    "state": "FL",
    "zip": "34695",
    "latitude": 27.9902082,
    "longitude": -82.6940187,
    "description": "Neighborhood BarK & Boutique (4.9 stars from 130 reviews) is a popular destination for Tampa dog owners, located at 660 2nd St S. Dog owners frequent this park for its consistent quality and welcoming atmosphere. More dog-friendly parks nearby include Safety Harbor Dog Park (0.4 miles) and Moccasin Lake Nature Park (2.1 miles)—perfect for pups who love adventure."
  },
  {
    "name": "Julian B. Lane Riverfront Park",
    "street": "1001 N Blvd",
    "city": "Tampa",
    "state": "FL",
    "zip": "33607",
    "latitude": 27.952086,
    "longitude": -82.468365,
    "description": "3,476 dog owners have made Julian B. Lane Riverfront Park (1001 N Blvd) one of Tampa's most trusted parks (4.8 stars). Open from 7am to 10pm daily, the park accommodates a variety of dog owner schedules and routines. For more dog park adventures, explore Dog Parks at Julian B. Lane (0.0 miles) or Curtis Hixon Waterfront Park (0.5 miles) with your furry companion."
  },
  {
    "name": "North Shore Park",
    "street": "901 N Shore Dr NE",
    "city": "Tampa",
    "state": "FL",
    "zip": "33701",
    "latitude": 27.782663,
    "longitude": -82.6259248,
    "description": "At 901 N Shore Dr NE in Tampa, North Shore Park stands out with 4.8 stars from 2,190 happy dog owners. This park has clearly won over local dog owners who return again and again with their furry friends. For more dog park adventures, explore Flora Wylie Park (0.2 miles) or Crescent Lake Park (0.9 miles) with your furry companion."
  },
  {
    "name": "Enterprise Dog Park",
    "street": "2655 Enterprise Rd EClearwater",
    "city": "Tampa",
    "state": "FL",
    "zip": "33759",
    "latitude": 28.0105074,
    "longitude": -82.7272732,
    "description": "Enterprise Dog Park at 2655 Enterprise Rd E is a favorite among Tampa dog owners, earning 4.8 stars from 1,522 reviews. The strong community of dog owners here reflects how much the park is valued. For variety, many dog owners also bring their furry friends to Achieva Paw Park (1.9 miles)—another great dog park in the area."
  },
  {
    "name": "Curtis Hixon Waterfront Park",
    "street": "600 N Ashley Dr",
    "city": "Tampa",
    "state": "FL",
    "zip": "33602",
    "latitude": 27.9496638,
    "longitude": -82.4609251,
    "description": "9,921 dog owners can't be wrong: Curtis Hixon Waterfront Park (600 N Ashley Dr) is a Tampa institution with 4.7 stars. Open from 7am to 10pm daily, dog owners can visit during quieter hours or join the regular crowd. While you're in the area, dog owners also recommend taking your pup to Herman Massey Park, another excellent dog park 0.2 miles away."
  },
  {
    "name": "Lettuce Lake Park",
    "street": "6920 E Fletcher Ave",
    "city": "Tampa",
    "state": "FL",
    "zip": "33637",
    "latitude": 28.0720492,
    "longitude": -82.3693613,
    "description": "With 5,790 reviews and a 4.7-star rating, Lettuce Lake Park (6920 E Fletcher Ave) has become a landmark for Tampa dog owners. Open from 8am to 6pm daily, there's plenty of opportunity for dog owners to experience what makes this park special. Dog owners in the area also frequent Temple Terrace Dog park (2.1 miles)—another top dog park worth visiting with your pup."
  },
  {
    "name": "Water Works Park",
    "street": "1701 N Highland Ave",
    "city": "Tampa",
    "state": "FL",
    "zip": "33602",
    "latitude": 27.95966,
    "longitude": -82.462285,
    "description": "Dog owners in Tampa have embraced Water Works Park (1701 N Highland Ave) as a top destination—4.7 stars from 3,959 visits. Open from 7am to 10pm daily, it's easy for dog owners to stop by whenever works best. Want to give your pup even more adventure? Queenie's Dog Park is another beloved dog park just 0.0 miles away."
  },
  {
    "name": "The Dog Bar",
    "street": "2300 Central Ave",
    "city": "Tampa",
    "state": "FL",
    "zip": "33712",
    "latitude": 27.770937,
    "longitude": -82.66457,
    "description": "With 4.7 stars across 2,168 reviews, The Dog Bar at 2300 Central Ave has clearly won over Tampa dog owners. The community of dog owners here is welcoming and the atmosphere consistently positive. Keep the adventure going at other nearby dog parks like Kenwood Dog Park (0.5 miles) or Seminole Park (0.6 miles)."
  },
  {
    "name": "Two Shepherds Taproom",
    "street": "4813 N Grady Ave",
    "city": "Tampa",
    "state": "FL",
    "zip": "33614",
    "latitude": 27.9903842,
    "longitude": -82.5086032,
    "description": "Located at 4813 N Grady Ave in Tampa, Two Shepherds Taproom earns strong marks from local dog owners—4.7 stars from 444 reviews. Dog owners in the area consistently choose this park as a go-to destination for their pups. Dog owners exploring the neighborhood can also bring their furry friends to Al Lopez Park (0.4 miles)."
  },
  {
    "name": "‍ Dog Parks at Julian B. Lane",
    "street": "1001 N Blvd",
    "city": "Tampa",
    "state": "FL",
    "zip": "33606",
    "latitude": 27.952086,
    "longitude": -82.468365,
    "description": "At 1001 N Blvd in Tampa, Dog Parks at Julian B. Lane has built a loyal following—4.7 stars from 323 dog owner reviews. Open from 7:08am to 10pm daily, dog owners have plenty of flexibility to plan a visit. More dog-friendly parks nearby include Julian B. Lane Riverfront Park (0.0 miles) and Curtis Hixon Waterfront Park (0.5 miles)—perfect for pups who love adventure."
  },
  {
    "name": "‍ Crescent Lake Dog Park",
    "street": "617 12th Ave N",
    "city": "Tampa",
    "state": "FL",
    "zip": "33701",
    "latitude": 27.7844679,
    "longitude": -82.6416604,
    "description": "Crescent Lake Dog Park at 617 12th Ave N is well-regarded by Tampa dog owners, holding 4.7 stars across 110 reviews. The park has earned its reputation among dog owners in the neighborhood as a reliable choice. Dog owners can also take their pups to nearby Crescent Lake Park (0.1 miles) or North Shore Park (1.0 miles)."
  },
  {
    "name": "Hair of the Dog Park",
    "street": "4211 N Nebraska Ave",
    "city": "Tampa",
    "state": "FL",
    "zip": "33603",
    "latitude": 27.9835134,
    "longitude": -82.451054,
    "description": "Hair of the Dog Park at 4211 N Nebraska Ave is well-regarded by Tampa dog owners, holding 4.7 stars across 93 reviews. Dog owners in the area consistently choose this park as a go-to destination for their pups. Dog owners exploring the neighborhood can also bring their furry friends to Angus Goss Dog Park (0.4 miles)."
  },
  {
    "name": "4th and Angel Dog Park",
    "street": "1802 E 4th Ave",
    "city": "Tampa",
    "state": "FL",
    "zip": "33605",
    "latitude": 27.9581929,
    "longitude": -82.4390643,
    "description": "4th and Angel Dog Park at 1802 E 4th Ave is well-regarded by Tampa dog owners, holding 4.6 stars across 10 reviews. The steady stream of dog owner visits speaks to the park's appeal. For variety, the neighborhood offers more dog parks to explore: Deputy Kotfila Memorial Dog (0.6 miles) and Madison Street Dog Park (0.7 miles)."
  },
  {
    "name": "Queenie's Dog Park",
    "street": "1710 N Highland Ave",
    "city": "Tampa",
    "state": "FL",
    "zip": "33602",
    "latitude": 27.9596908,
    "longitude": -82.4624716,
    "description": "Queenie's Dog Park (4.6 stars from 164 reviews) is a popular destination for Tampa dog owners, located at 1710 N Highland Ave. Open from 7am to 10pm daily, dog owners have plenty of flexibility to plan a visit. Dog owners exploring the neighborhood can also bring their furry friends to Water Works Park (0.0 miles)."
  },
  {
    "name": "Saladino Dog Park",
    "street": "Bryan RdBrandon",
    "city": "Tampa",
    "state": "FL",
    "zip": "33511",
    "latitude": 27.9377275,
    "longitude": -82.2775849,
    "description": "Saladino Dog Park is well-regarded by Tampa dog owners, holding 4.6 stars across 245 reviews. Open from 7am to 8pm daily, there's plenty of opportunity for dog owners to find a time that works. For a change of scenery, Bertha and Tony Saladino Park is another dog-friendly destination 1.4 miles from here."
  },
  {
    "name": "‍ Okeeheelee Park",
    "street": "7715 Forest Hill Blvd",
    "city": "West Palm Beach",
    "state": "FL",
    "zip": "33413",
    "latitude": 26.6591922,
    "longitude": -80.1561524,
    "description": "Okeeheelee Park at 7715 Forest Hill Blvd in West Palm Beach has earned its reputation with 4.8 stars from 5,636 dog owner reviews. Few parks earn this level of trust from the dog owner community. For dog owners wanting to explore more with their furry friends, Greenacres Freedom Park is another great dog park just 1.3 miles away."
  },
  {
    "name": "John D. MacArthur Beach State",
    "street": "10900 Jack Nicklaus DrNorth Palm Beach",
    "city": "West Palm Beach",
    "state": "FL",
    "zip": "33408",
    "latitude": 26.835631,
    "longitude": -80.048778,
    "description": "At 10900 Jack Nicklaus Dr in West Palm Beach, John D. MacArthur Beach State stands out with 4.8 stars from 3,082 happy dog owners. For dog owners seeking a tried-and-true destination, this park delivers consistently. Want to give your pup even more adventure? Anchorage Park is another beloved dog park just 1.9 miles away."
  },
  {
    "name": "Commons Park",
    "street": "11600 Poinciana BlvdRoyal Palm Beach",
    "city": "West Palm Beach",
    "state": "FL",
    "zip": "33411",
    "latitude": 26.697178,
    "longitude": -80.22332,
    "description": "Dog owners in West Palm Beach have embraced Commons Park (11600 Poinciana Blvd) as a top destination—4.8 stars from 1,853 visits. Open from 8am to 9pm daily, the park is convenient for before work, after work, or weekend adventures. For more dog park adventures, explore Todd A. Robiner Park (2.5 miles) or Apoxee Trail (4.5 miles) with your furry companion."
  },
  {
    "name": "Canine Cove at South County",
    "street": "12551 Glades Rd",
    "city": "West Palm Beach",
    "state": "FL",
    "zip": "33498",
    "latitude": 26.3708303,
    "longitude": -80.24387,
    "description": "With 4.8 stars from 449 reviews, Canine Cove at South County at 12551 Glades Rd has become a favorite among West Palm Beach dog owners. Open from 7am to 8pm, every day except Wednesday, dog owners have plenty of flexibility to plan a visit. Looking for more places to take your pup? Burt Aaronson South County is another popular dog park just 1.4 miles away."
  },
  {
    "name": "Palm Beach Lake Trail",
    "street": "S Lake TrailPalm Beach",
    "city": "West Palm Beach",
    "state": "FL",
    "zip": "33480",
    "latitude": 26.7107918,
    "longitude": -80.0434276,
    "description": "West Palm Beach dog owners rate Palm Beach Lake Trail highly, with 4.8 stars from 231 visits. The steady stream of dog owner visits speaks to the park's appeal. More dog-friendly parks nearby include Trinity Park (0.4 miles) and Flagler Park (0.6 miles)—perfect for pups who love adventure."
  },
  {
    "name": "Dog Beach",
    "street": "2188 Marcinski RdJupiter",
    "city": "West Palm Beach",
    "state": "FL",
    "zip": "33477",
    "latitude": 26.8969482,
    "longitude": -80.0711565,
    "description": "Located at 2188 Marcinski Rd in West Palm Beach, Dog Beach earns strong marks from local dog owners—4.8 stars from 132 reviews. For dog owners in the area, this park has become a trusted spot for time with their pups. Other dog parks in the area include FIND dog park (0.3 miles) and Dog beach (0.9 miles)—both great for exploring with your four-legged friend."
  },
  {
    "name": "Grassy Waters Preserve",
    "street": "8264 Northlake Blvd",
    "city": "West Palm Beach",
    "state": "FL",
    "zip": "33412",
    "latitude": 26.8082789,
    "longitude": -80.1692096,
    "description": "With 4.7 stars across 1,366 reviews, Grassy Waters Preserve at 8264 Northlake Blvd has clearly won over West Palm Beach dog owners. The park has earned genuine loyalty from dog owners who value what it offers. Nearby, Hog Hammock Trail (0.4 miles) is another dog park favorite where you can take your four-legged friend."
  },
  {
    "name": "Greenacres Freedom Park",
    "street": "2400 Pinehurst DrGreenacres",
    "city": "West Palm Beach",
    "state": "FL",
    "zip": "33413",
    "latitude": 26.64035,
    "longitude": -80.157508,
    "description": "West Palm Beach dog owners rate Greenacres Freedom Park at 2400 Pinehurst Dr highly, with 4.7 stars from 665 visits. Open from 7am to 10pm daily, there's room in the day for dog owners to bring their furry friends. Nearby, Okeeheelee Park (1.3 miles) offers dog owners another great spot to explore with their pups."
  },
  {
    "name": "Wellington Dog Park",
    "street": "2965 Greenbriar BlvdWellington",
    "city": "West Palm Beach",
    "state": "FL",
    "zip": "33414",
    "latitude": 26.6393515,
    "longitude": -80.2907887,
    "description": "Wellington Dog Park at 2965 Greenbriar Blvd is well-regarded by West Palm Beach dog owners, holding 4.7 stars across 380 reviews. The park serves dog owners well, providing a destination the community values. Based on the reviews, dog owners can expect a reliable spot for spending time with their pup."
  },
  {
    "name": "Cinquez Park",
    "street": "2183 W Indiantown RdJupiter",
    "city": "West Palm Beach",
    "state": "FL",
    "zip": "33458",
    "latitude": 26.934357,
    "longitude": -80.1282257,
    "description": "With 4.7 stars from 281 reviews, Cinquez Park at 2183 W Indiantown Rd has become a favorite among West Palm Beach dog owners. The park has earned its reputation among dog owners in the neighborhood as a reliable choice. Looking for more places to take your pup? FIND dog park is another popular dog park just 4.1 miles away."
  },
  {
    "name": "Hog Hammock Trail",
    "street": "8537 Northlake Blvd",
    "city": "West Palm Beach",
    "state": "FL",
    "zip": "33412",
    "latitude": 26.8124807,
    "longitude": -80.1735941,
    "description": "Hog Hammock Trail at 8537 Northlake Blvd is well-regarded by West Palm Beach dog owners, holding 4.7 stars across 249 reviews. Open from 7am to 5:30pm daily, there's plenty of opportunity for dog owners to find a time that works. Nearby, Grassy Waters Preserve (0.4 miles) offers dog owners another great spot to explore with their pups."
  },
  {
    "name": "SWA Greenway Trail System",
    "street": "7501 N Jog Rd",
    "city": "West Palm Beach",
    "state": "FL",
    "zip": "33412",
    "latitude": 26.78085,
    "longitude": -80.139736,
    "description": "SWA Greenway Trail System (4.7 stars from 123 reviews) is a popular destination for West Palm Beach dog owners, located at 7501 N Jog Rd. Open from 6:45am to 6pm daily, the park offers flexibility for dog owners with varying routines. For a change of scenery, Dyer Park is another dog-friendly destination 1.5 miles from here."
  },
  {
    "name": "BRK Republic",
    "street": "521 Clematis St",
    "city": "West Palm Beach",
    "state": "FL",
    "zip": "33401",
    "latitude": 26.7136015,
    "longitude": -80.056356,
    "description": "With 4.7 stars from 119 reviews, BRK Republic at 521 Clematis St has become a favorite among West Palm Beach dog owners. Dog owners in the area consistently choose this park as a go-to destination for their pups. For variety, the neighborhood offers more dog parks to explore: Flagler Park (0.4 miles) and Heart & Soul Park (0.5 miles)."
  },
  {
    "name": "Trinity Park",
    "street": "777 S Flagler Dr",
    "city": "West Palm Beach",
    "state": "FL",
    "zip": "33401",
    "latitude": 26.7068811,
    "longitude": -80.0488848,
    "description": "For dog owners in the West Palm Beach area, Trinity Park (777 S Flagler Dr) offers a 4.7-star experience based on 91 reviews. The park has earned its reputation among dog owners in the neighborhood as a reliable choice. Dog owners exploring the neighborhood can also bring their furry friends to Palm Beach Lake Trail (0.4 miles)."
  },
  {
    "name": "Palmetto Park",
    "street": "6300 Parker Ave",
    "city": "West Palm Beach",
    "state": "FL",
    "zip": "33405",
    "latitude": 26.658893,
    "longitude": -80.063873,
    "description": "For dog owners in the West Palm Beach area, Palmetto Park (6300 Parker Ave) offers a 4.7-star experience based on 85 reviews. Open from 7am to 7pm daily, the park accommodates early risers and evening visitors alike. Nearby, Mary Brandon Park (0.4 miles) offers dog owners another great spot to explore with their pups."
  }
]