[
  {
    "name": "Eastside Pet Salon & DOG PARK!",
    "street": "2908 Gillionville Rd",
    "city": "Albany",
    "state": "GA",
    "zip": "31721",
    "latitude": 31.5857768,
    "longitude": -84.2256177,
    "description": "Eastside Pet Salon & DOG PARK! at 2908 Gillionville Rd in Albany has 4.2 stars from 36 dog owner reviews. The park gives neighborhood dog owners a destination for outings with their four-legged friends. Dog owners might also enjoy Riverside Park, another dog park just 4.7 miles away."
  },
  {
    "name": "Riverside Park",
    "street": "215 Riverside Dr",
    "city": "Albany",
    "state": "GA",
    "zip": "31701",
    "latitude": 31.5578228,
    "longitude": -84.1521135,
    "description": "At 215 Riverside Dr, Riverside Park has 4.1 stars based on 34 reviews from Albany dog owners. Dog owners in the area appreciate having a local spot to bring their pups. Dog owners might also enjoy Eastside Pet Salon & DOG PARK!, another dog park just 4.7 miles away."
  },
  {
    "name": "Big Creek Greenway",
    "street": "",
    "city": "Alpharetta",
    "state": "GA",
    "zip": "",
    "latitude": 34.0709576,
    "longitude": -84.2747329,
    "description": "Dog owners in Alpharetta have made Big Creek Greenway a go-to spot, rating it 4.8 stars across 274 reviews. The park has earned its reputation among dog owners in the neighborhood as a reliable choice. More dog-friendly parks nearby include Wills Park (0.0 miles) and Alpharetta City Parks & Rec (1.3 miles)—perfect for pups who love adventure."
  },
  {
    "name": "‍ Wills Park",
    "street": "",
    "city": "Alpharetta",
    "state": "GA",
    "zip": "",
    "latitude": 34.0709576,
    "longitude": -84.2747329,
    "description": "Dog owners in Alpharetta have made Wills Park a go-to spot, rating it 4.8 stars across 143 reviews. Open from 9am to 8:30pm daily, dog owners have plenty of flexibility to plan a visit. For variety, the neighborhood offers more dog parks to explore: Big Creek Greenway (0.0 miles) and Alpharetta City Parks & Rec (1.3 miles)."
  },
  {
    "name": "Birmingham Park",
    "street": "750 Hickory Flat Rd",
    "city": "Alpharetta",
    "state": "GA",
    "zip": "30004",
    "latitude": 34.1687042,
    "longitude": -84.3380904,
    "description": "At 750 Hickory Flat Rd in Alpharetta, Birmingham Park has built a loyal following—4.8 stars from 89 dog owner reviews. Dog owners frequent this park for its consistent quality and welcoming atmosphere. The reviews indicate this is a trusted destination for dog owners in the area."
  },
  {
    "name": "Wills Park",
    "street": "11925 Wills Rd",
    "city": "Alpharetta",
    "state": "GA",
    "zip": "30009",
    "latitude": 34.0670737,
    "longitude": -84.3118841,
    "description": "1,470 dog owners have made Wills Park (11925 Wills Rd) one of Alpharetta's most trusted parks (4.7 stars). This park has clearly won over local dog owners who return again and again with their furry friends. Keep the adventure going at other nearby dog parks like Fetch Park (0.9 miles) or Alpharetta City Parks & Rec (1.0 miles)."
  },
  {
    "name": "Webb Bridge Park",
    "street": "4780 Webb Bridge Rd",
    "city": "Alpharetta",
    "state": "GA",
    "zip": "30005",
    "latitude": 34.0644228,
    "longitude": -84.2233051,
    "description": "For Alpharetta dog owners, Webb Bridge Park at 4780 Webb Bridge Rd has become a reliable favorite—4.7 stars from 1,382 reviews. Open from 8am to 10pm daily, the park is convenient for before work, after work, or weekend adventures. Nearby, Windward Sports Park (1.5 miles) is another dog park favorite where you can take your four-legged friend."
  },
  {
    "name": "Rock Mill Park",
    "street": "3100 Kimball Bridge Rd",
    "city": "Alpharetta",
    "state": "GA",
    "zip": "30022",
    "latitude": 34.050079,
    "longitude": -84.267556,
    "description": "At 3100 Kimball Bridge Rd in Alpharetta, Rock Mill Park has built a loyal following—4.7 stars from 646 dog owner reviews. Open from 7am to 10pm daily, the park accommodates early risers and evening visitors alike. Dog owners can also take their pups to nearby Big Creek Greenway (1.5 miles) or Wills Park (1.5 miles)."
  },
  {
    "name": "North Park",
    "street": "13450 Cogburn Rd",
    "city": "Alpharetta",
    "state": "GA",
    "zip": "30004",
    "latitude": 34.0964066,
    "longitude": -84.2836634,
    "description": "For dog owners in the Alpharetta area, North Park (13450 Cogburn Rd) offers a 4.7-star experience based on 502 reviews. The park serves dog owners well, providing a destination the community values. Dog owners can also take their pups to nearby Cogburn Road Park (0.2 miles) or Alpharetta City Parks & Rec (1.6 miles)."
  },
  {
    "name": "‍ Simpsonwood Park",
    "street": "4511 Jones Bridge Cir NWPeachtree Corners",
    "city": "Alpharetta",
    "state": "GA",
    "zip": "30092",
    "latitude": 33.987645,
    "longitude": -84.2430243,
    "description": "At 4511 Jones Bridge Cir NW in Alpharetta, Simpsonwood Park has built a loyal following—4.7 stars from 272 dog owner reviews. Dog owners in the area consistently choose this park as a go-to destination for their pups. Looking for more places to take your pup? Newtown Dream Dog Park is another popular dog park just 2.7 miles away."
  },
  {
    "name": "Windward Community Park",
    "street": "6210 Windward Pkwy",
    "city": "Alpharetta",
    "state": "GA",
    "zip": "30005",
    "latitude": 34.0923036,
    "longitude": -84.2350606,
    "description": "With 4.7 stars from 72 reviews, Windward Community Park at 6210 Windward Pkwy has become a favorite among Alpharetta dog owners. Local dog owners appreciate what this park offers their four-legged friends. Looking for more places to take your pup? Windward Sports Park is another popular dog park just 0.6 miles away."
  },
  {
    "name": "Cogburn Road Park",
    "street": "12825 Cogburn Rd",
    "city": "Alpharetta",
    "state": "GA",
    "zip": "30004",
    "latitude": 34.0942108,
    "longitude": -84.2852272,
    "description": "With 4.6 stars from 495 reviews, Cogburn Road Park at 12825 Cogburn Rd has become a favorite among Alpharetta dog owners. Open from 7am to 10pm daily, the park works well for dog owners with different schedules. Dog owners exploring the neighborhood can also bring their furry friends to North Park (0.2 miles)."
  },
  {
    "name": "Pinckneyville Park",
    "street": "4758 S Old Peachtree Rd",
    "city": "Alpharetta",
    "state": "GA",
    "zip": "30071",
    "latitude": 33.9681093,
    "longitude": -84.1957828,
    "description": "Alpharetta dog owners rate Pinckneyville Park at 4758 S Old Peachtree Rd highly, with 4.6 stars from 845 visits. Dog owners looking for a solid destination will find this park delivers. Nearby, Simpsonwood Park (3.0 miles) offers dog owners another great spot to explore with their pups."
  },
  {
    "name": "Woofstock Dog Park",
    "street": "150 Dupree Rd",
    "city": "Alpharetta",
    "state": "GA",
    "zip": "30188",
    "latitude": 34.0970902,
    "longitude": -84.5255104,
    "description": "Alpharetta dog owners rate Woofstock Dog Park at 150 Dupree Rd highly, with 4.6 stars from 959 visits. Open from 7am to 11pm daily, dog owners can plan visits around work or their pup's energy level. Dog owners exploring the neighborhood can also bring their furry friends to Pitner Road Dog Park (4.4 miles)."
  },
  {
    "name": "‍ Alpharetta City Parks & Rec",
    "street": "175 Roswell St",
    "city": "Alpharetta",
    "state": "GA",
    "zip": "30009",
    "latitude": 34.075384,
    "longitude": -84.2966279,
    "description": "Alpharetta City Parks & Rec at 175 Roswell St is well-regarded by Alpharetta dog owners, holding 4.5 stars across 64 reviews. The steady stream of dog owner visits speaks to the park's appeal. Looking for more places to take your pup? Waggy World Paw Park is another popular dog park just 0.0 miles away."
  },
  {
    "name": "Windward Sports Park",
    "street": "2001 Lake Windward Dr",
    "city": "Alpharetta",
    "state": "GA",
    "zip": "30005",
    "latitude": 34.083552,
    "longitude": -84.237244,
    "description": "At 2001 Lake Windward Dr, Windward Sports Park has 4.4 stars based on 100 reviews from Alpharetta dog owners. Open from 7am to 8pm daily, dog owners in the area can work a visit into their day. Dog owners might also enjoy Windward Community Park, another dog park just 0.6 miles away."
  },
  {
    "name": "Fowler Dog Park",
    "street": "",
    "city": "Alpharetta",
    "state": "GA",
    "zip": "",
    "latitude": 34.2073196,
    "longitude": -84.1401926,
    "description": "Fowler Dog Park in Alpharetta has 4.4 stars based on 250 reviews from dog owners. Open from 7am to 9pm daily, the park fits conveniently into different routines. Dog owners visiting for the first time may want to read recent reviews to learn what to expect."
  },
  {
    "name": "Sandy Creek Park",
    "street": "400 Bob Holman Rd",
    "city": "Athens",
    "state": "GA",
    "zip": "30607",
    "latitude": 34.0024033,
    "longitude": -83.3837553,
    "description": "Local dog owners love Sandy Creek Park at 400 Bob Holman Rd in Athens—4.7 stars from an impressive 1,153 reviews. Open from 8am to 6pm, Tuesday through Sunday, the park is convenient for before work, after work, or weekend adventures. Dog owners in the area also love bringing their pups to Greenways & Riverside Parks (1.6 miles) and Ben Burton Park (4.9 miles)."
  },
  {
    "name": "Greenways & Riverside Parks",
    "street": "205 Old Commerce Rd",
    "city": "Athens",
    "state": "GA",
    "zip": "30607",
    "latitude": 33.9796374,
    "longitude": -83.3853392,
    "description": "With 4.7 stars from 50 reviews, Greenways & Riverside Parks at 205 Old Commerce Rd has become a favorite among Athens dog owners. The park has earned its reputation among dog owners in the neighborhood as a reliable choice. More dog-friendly parks nearby include Sandy Creek Park (1.6 miles) and Memorial Park (3.7 miles)—perfect for pups who love adventure."
  },
  {
    "name": "Wiggley Field",
    "street": "325 Whit Davis Rd",
    "city": "Athens",
    "state": "GA",
    "zip": "30605",
    "latitude": 33.927364,
    "longitude": -83.3113326,
    "description": "At 325 Whit Davis Rd in Athens, Wiggley Field has built a loyal following—4.6 stars from 290 dog owner reviews. Open from 7am to 9pm daily, dog owners can plan visits around work or their pup's energy level. For variety, the neighborhood offers more dog parks to explore: Southeast Clarke Park (0.3 miles) and Memorial Park (4.3 miles)."
  },
  {
    "name": "Memorial Park",
    "street": "293 Gran Ellen Dr",
    "city": "Athens",
    "state": "GA",
    "zip": "30606",
    "latitude": 33.9264656,
    "longitude": -83.3870146,
    "description": "At 293 Gran Ellen Dr in Athens, Memorial Park has built a loyal following—4.6 stars from 816 dog owner reviews. Open from 8am to 6:30pm daily, there's plenty of opportunity for dog owners to find a time that works. For a change of scenery, Greenways & Riverside Parks is another dog-friendly destination 3.7 miles from here."
  },
  {
    "name": "Southeast Clarke Park",
    "street": "4440 Lexington Rd",
    "city": "Athens",
    "state": "GA",
    "zip": "30605",
    "latitude": 33.9315361,
    "longitude": -83.3093158,
    "description": "With 4.6 stars from 849 reviews, Southeast Clarke Park at 4440 Lexington Rd has become a favorite among Athens dog owners. Open from 8am to 8:30pm daily, the park accommodates early risers and evening visitors alike. Looking for more places to take your pup? Wiggley Field is another popular dog park just 0.3 miles away."
  },
  {
    "name": "Ben Burton Park",
    "street": "615 Mitchell Bridge Rd",
    "city": "Athens",
    "state": "GA",
    "zip": "30606",
    "latitude": 33.952593,
    "longitude": -83.4444455,
    "description": "For dog owners in the Athens area, Ben Burton Park (615 Mitchell Bridge Rd) offers a 4.5-star experience based on 774 reviews. Open from 6:45am to 9pm daily, the park works well for dog owners with different schedules. For a change of scenery, Memorial Park is another dog-friendly destination 3.8 miles from here."
  },
  {
    "name": "Piedmont Park",
    "street": "1320 Monroe Dr NE",
    "city": "Atlanta",
    "state": "GA",
    "zip": "30309",
    "latitude": 33.7489924,
    "longitude": -84.3902644,
    "description": "16,507 dog owners can't be wrong: Piedmont Park (1320 Monroe Dr NE) is a Atlanta institution with 4.8 stars. Open from 6am to 11pm daily, dog owners can find the perfect time for their furry friend. For more dog park adventures, explore Mozley Park (0.0 miles) or Field 11 Park (0.0 miles) with your furry companion."
  },
  {
    "name": "Brook Run Park",
    "street": "4770 N Peachtree Rd",
    "city": "Atlanta",
    "state": "GA",
    "zip": "30338",
    "latitude": 33.9354473,
    "longitude": -84.2943496,
    "description": "Brook Run Park at 4770 N Peachtree Rd is a favorite among Atlanta dog owners, earning 4.8 stars from 3,174 reviews. Open from 7am to 11pm daily, it's easy for dog owners to stop by whenever works best. For more dog park adventures, explore Georgetown Park (1.2 miles) or Park (1.3 miles) with your furry companion."
  },
  {
    "name": "‍ East Palisades Trailhead",
    "street": "4058 Whitewater Creek Rd NW",
    "city": "Atlanta",
    "state": "GA",
    "zip": "30327",
    "latitude": 33.8712255,
    "longitude": -84.4400463,
    "description": "Atlanta dog owners rate East Palisades Trailhead at 4058 Whitewater Creek Rd NW highly, with 4.8 stars from 742 visits. Open from 9am to 5pm daily, the park accommodates early risers and evening visitors alike. Dog owners can also take their pups to nearby Blue Heron Nature Preserve (3.4 miles) or Skyland Park (4.1 miles)."
  },
  {
    "name": "Lower Paul Park",
    "street": "2388 Paul Ave NW",
    "city": "Atlanta",
    "state": "GA",
    "zip": "30318",
    "latitude": 33.819439,
    "longitude": -84.4746617,
    "description": "Lower Paul Park at 2388 Paul Ave NW is well-regarded by Atlanta dog owners, holding 5.0 stars across 11 reviews. Open from 6am to 11pm daily, the park works well for dog owners with different schedules. Dog owners can also take their pups to nearby Fetch Park (2.4 miles) or East Palisades Trailhead (4.1 miles)."
  },
  {
    "name": "‍ Historic Fourth Ward Park",
    "street": "680 Dallas St NE",
    "city": "Atlanta",
    "state": "GA",
    "zip": "30308",
    "latitude": 33.7686235,
    "longitude": -84.3657397,
    "description": "At 680 Dallas St NE in Atlanta, Historic Fourth Ward Park stands out with 4.7 stars from 3,442 happy dog owners. Open from 6am to 11pm daily, it's easy for dog owners to stop by whenever works best. Keep the adventure going at other nearby dog parks like Central Park (0.5 miles) or Freedom Barkway Dog Park (0.6 miles)."
  },
  {
    "name": "Newtown Dream Dog Park",
    "street": "3150 Old Alabama Rd",
    "city": "Atlanta",
    "state": "GA",
    "zip": "30022",
    "latitude": 34.021394,
    "longitude": -84.267102,
    "description": "With 4.7 stars across 1,416 reviews, Newtown Dream Dog Park at 3150 Old Alabama Rd has clearly won over Atlanta dog owners. Dog owners have embraced this park as a top choice for spending time with their pups. For more dog park adventures, explore Newtown Park (0.0 miles) or Rock Mill Park (2.0 miles) with your furry companion."
  },
  {
    "name": "Tanyard Creek Park",
    "street": "73 28th St NW",
    "city": "Atlanta",
    "state": "GA",
    "zip": "30309",
    "latitude": 33.805199,
    "longitude": -84.3982851,
    "description": "With 4.7 stars from 467 reviews, Tanyard Creek Park at 73 28th St NW has become a favorite among Atlanta dog owners. Open from 6am to 11pm daily, the park works well for dog owners with different schedules. Looking for more places to take your pup? Tanyard Creek Greenspace is another popular dog park just 0.5 miles away."
  },
  {
    "name": "Kirkwood Dog Park",
    "street": "Wade Ave NE",
    "city": "Atlanta",
    "state": "GA",
    "zip": "30317",
    "latitude": 33.7550363,
    "longitude": -84.3297659,
    "description": "With 4.6 stars from 74 reviews, Kirkwood Dog Park has become a favorite among Atlanta dog owners. Open from 7am to 10pm daily, there's plenty of opportunity for dog owners to find a time that works. Dog owners exploring the neighborhood can also bring their furry friends to Walker Park (0.8 miles)."
  },
  {
    "name": "Hartsfield-Jackson Dog Park",
    "street": "6000 N Terminal Pkwy",
    "city": "Atlanta",
    "state": "GA",
    "zip": "30337",
    "latitude": 33.6374008,
    "longitude": -84.4298161,
    "description": "For dog owners in the Atlanta area, Hartsfield-Jackson Dog Park (6000 N Terminal Pkwy) offers a 4.5-star experience based on 18 reviews. Open from 7am to 11pm daily, there's plenty of opportunity for dog owners to find a time that works. Looking for more places to take your pup? John R. Lewis Memorial Park is another popular dog park just 2.0 miles away."
  },
  {
    "name": "Lenox Park",
    "street": "2196 Lake Blvd NE",
    "city": "Atlanta",
    "state": "GA",
    "zip": "30319",
    "latitude": 33.8489455,
    "longitude": -84.3485965,
    "description": "With 4.6 stars from 183 reviews, Lenox Park at 2196 Lake Blvd NE has become a favorite among Atlanta dog owners. Open from 9am to 5pm daily, the park works well for dog owners with different schedules. Dog owners exploring the neighborhood can also bring their furry friends to Brookhaven Park (0.6 miles)."
  },
  {
    "name": "Fetch Park",
    "street": "11440 Maxwell Rd",
    "city": "Atlanta",
    "state": "GA",
    "zip": "30009",
    "latitude": 34.0571674,
    "longitude": -84.3023187,
    "description": "Dog owners in Atlanta have made Fetch Park at 11440 Maxwell Rd a go-to spot, rating it 4.6 stars across 215 reviews. Open from 9am to 9pm daily, dog owners have plenty of flexibility to plan a visit. More dog-friendly parks nearby include Wills Park (0.9 miles) and Alpharetta City Parks & Rec (1.3 miles)—perfect for pups who love adventure."
  },
  {
    "name": "Adair Dog Park",
    "street": "600 W Trinity Pl",
    "city": "Atlanta",
    "state": "GA",
    "zip": "30030",
    "latitude": 33.7731967,
    "longitude": -84.2957114,
    "description": "Located at 600 W Trinity Pl in Atlanta, Adair Dog Park earns strong marks from local dog owners—4.6 stars from 227 reviews. Open from 7am to 10pm daily, there's room in the day for dog owners to bring their furry friends. More dog-friendly parks nearby include Glenlake Dog Park (0.8 miles) and Oakhurst Dog Park (1.2 miles)—perfect for pups who love adventure."
  },
  {
    "name": "Winn Park",
    "street": "32 Lafayette Dr NE",
    "city": "Atlanta",
    "state": "GA",
    "zip": "30309",
    "latitude": 33.790066,
    "longitude": -84.380712,
    "description": "At 32 Lafayette Dr NE in Atlanta, Winn Park has built a loyal following—4.6 stars from 323 dog owner reviews. Open from 6am to 11pm daily, the park works well for dog owners with different schedules. For variety, the neighborhood offers more dog parks to explore: 10th Street Dog Park (0.5 miles) and Piedmont Dog Park (0.6 miles)."
  },
  {
    "name": "Blue Heron Nature Preserve",
    "street": "4055 Roswell Rd NE",
    "city": "Atlanta",
    "state": "GA",
    "zip": "30342",
    "latitude": 33.8758416,
    "longitude": -84.3804577,
    "description": "Atlanta dog owners rate Blue Heron Nature Preserve at 4055 Roswell Rd NE highly, with 4.6 stars from 481 visits. Open from 6am to 11pm daily, there's plenty of opportunity for dog owners to find a time that works. Nearby, Skyland Park (0.7 miles) offers dog owners another great spot to explore with their pups."
  },
  {
    "name": "Oakhurst Dog Park",
    "street": "414 East Lake Dr",
    "city": "Atlanta",
    "state": "GA",
    "zip": "30030",
    "latitude": 33.7596077,
    "longitude": -84.3095249,
    "description": "At 414 East Lake Dr in Atlanta, Oakhurst Dog Park has built a loyal following—4.6 stars from 538 dog owner reviews. Open from 6am to 10pm, every day except Friday, dog owners have plenty of flexibility to plan a visit. For variety, the neighborhood offers more dog parks to explore: Kirkwood Dog Park (1.2 miles) and Adair Dog Park (1.2 miles)."
  },
  {
    "name": "Piedmont Dog Park",
    "street": "Park Dr NE",
    "city": "Atlanta",
    "state": "GA",
    "zip": "30309",
    "latitude": 33.7862703,
    "longitude": -84.3710151,
    "description": "Dog owners in Atlanta have made Piedmont Dog Park a go-to spot, rating it 4.6 stars across 806 reviews. Open from 7am to 11pm daily, dog owners have plenty of flexibility to plan a visit. For a change of scenery, Winn Park is another dog-friendly destination 0.6 miles from here."
  },
  {
    "name": "Evans Towne Center Park",
    "street": "7016 Evans Town Center Blvd",
    "city": "Augusta",
    "state": "GA",
    "zip": "30809",
    "latitude": 33.540882,
    "longitude": -82.128929,
    "description": "3,156 dog owners have made Evans Towne Center Park (7016 Evans Town Center Blvd) one of Augusta's most trusted parks (4.7 stars). Open from 6am to 10pm daily, dog owners have plenty of flexibility to visit when it suits their schedule. Want to give your pup even more adventure? Brookfield Park is another beloved dog park just 4.5 miles away."
  },
  {
    "name": "Phinizy Swamp Nature Park",
    "street": "1858 Lock and Dam Rd",
    "city": "Augusta",
    "state": "GA",
    "zip": "30906",
    "latitude": 33.3846921,
    "longitude": -81.9685609,
    "description": "Phinizy Swamp Nature Park at 1858 Lock and Dam Rd in Augusta is a community favorite, with 1,442 dog owners giving it 4.7 stars. Open from 7am to 7pm daily, dog owners have plenty of flexibility to visit when it suits their schedule. The community of dog owners has clearly embraced this as a trusted spot."
  },
  {
    "name": "Augusta Riverwalk",
    "street": "10th St",
    "city": "Augusta",
    "state": "GA",
    "zip": "30901",
    "latitude": 33.4643169,
    "longitude": -81.9761459,
    "description": "With 4.6 stars across 3,934 reviews, Augusta Riverwalk at 10th St has clearly won over Augusta dog owners. Open from 8am to 5pm weekdays, dog owners have plenty of flexibility to visit when it suits their schedule. Dog owners in the area also love bringing their pups to Pendleton King Park (2.2 miles) and Valley Park (4.7 miles)."
  },
  {
    "name": "Goodale Dog Park",
    "street": "601 Goodale Ln",
    "city": "Augusta",
    "state": "GA",
    "zip": "30813",
    "latitude": 33.456276,
    "longitude": -82.20291,
    "description": "Dog owners in Augusta have rated Goodale Dog Park (601 Goodale Ln) 4.4 stars across 217 reviews. Open from 6am to 9pm daily, dog owners have a window to spend time with their pups. For dog owners considering a visit, the reviews offer firsthand accounts from other visitors."
  },
  {
    "name": "Brookfield Park",
    "street": "2740 Mayo Rd",
    "city": "Augusta",
    "state": "GA",
    "zip": "30909",
    "latitude": 33.5211843,
    "longitude": -82.0549953,
    "description": "For dog owners in the Augusta area, Brookfield Park (2740 Mayo Rd) offers a 4.4-star experience based on 590 reviews. For dog owners in the area, this park has become a trusted spot for time with their pups. Dog owners exploring the neighborhood can also bring their furry friends to Valley Park (3.7 miles)."
  },
  {
    "name": "Pendleton King Park",
    "street": "Pendleton King Pk",
    "city": "Augusta",
    "state": "GA",
    "zip": "30904",
    "latitude": 33.4612444,
    "longitude": -82.0136073,
    "description": "Pendleton King Park provides Augusta dog owners with a local spot to visit with their pups. For dog owners in the neighborhood, this park offers a place to take their pups. For dog owners who like to explore, Augusta Riverwalk (2.2 miles) and Valley Park (2.6 miles) are both nearby parks to try with your dog."
  },
  {
    "name": "‍ Meadowbrook Park",
    "street": "3638 Meadowlark Rd",
    "city": "Augusta",
    "state": "GA",
    "zip": "30906",
    "latitude": 33.4045803,
    "longitude": -82.0734801,
    "description": "Dog owners in Augusta have rated Meadowbrook Park (3638 Meadowlark Rd) 4.2 stars across 42 reviews. Open from 7am to 9pm daily, the park gives dog owners in the neighborhood time to bring their pups. Dog owners in the neighborhood can also take their furry friends to Boykin Road Park, 3.0 miles away."
  },
  {
    "name": "Valley Park",
    "street": "1805 Valley Park E",
    "city": "Augusta",
    "state": "GA",
    "zip": "30909",
    "latitude": 33.4681762,
    "longitude": -82.0575308,
    "description": "Located at 1805 Valley Park E, Valley Park offers Augusta dog owners a neighborhood destination for their four-legged friends. Dog owners in the area appreciate having a local spot to bring their pups. Looking to explore more? Pendleton King Park is another dog-friendly park 2.6 miles from here."
  },
  {
    "name": "Boykin Road Park",
    "street": "2345 Boykin Rd",
    "city": "Augusta",
    "state": "GA",
    "zip": "30906",
    "latitude": 33.3618392,
    "longitude": -82.065302,
    "description": "At 2345 Boykin Rd in Augusta, Boykin Road Park welcomes dog owners from the surrounding neighborhood. Dog owners looking for a local destination will find this park accessible. Looking to explore more? Meadowbrook Park is another dog-friendly park 3.0 miles from here."
  },
  {
    "name": "Swift Cantrell Park",
    "street": "3140 Old 41 Hwy NW",
    "city": "Brookhaven",
    "state": "GA",
    "zip": "30144",
    "latitude": 34.0024948,
    "longitude": -84.6002385,
    "description": "4,145 dog owners have made Swift Cantrell Park (3140 Old 41 Hwy NW) one of Brookhaven's most trusted parks (4.8 stars). Open from 6am to 10pm daily, dog owners have plenty of flexibility to visit when it suits their schedule. For more dog park adventures, explore Lewis Park (3.9 miles) or Gantt Park (4.0 miles) with your furry companion."
  },
  {
    "name": "Huntley Hills Train Park",
    "street": "",
    "city": "Brookhaven",
    "state": "GA",
    "zip": "",
    "latitude": 33.892176,
    "longitude": -84.2988296,
    "description": "Huntley Hills Train Park is well-regarded by Brookhaven dog owners, holding 4.9 stars across 24 reviews. Local dog owners appreciate what this park offers their four-legged friends. Looking for more places to take your pup? Clairmont Park is another popular dog park just 1.1 miles away."
  },
  {
    "name": "Puppy Haven - Brookhaven",
    "street": "2740 Caldwell Rd NE",
    "city": "Brookhaven",
    "state": "GA",
    "zip": "30319",
    "latitude": 33.8656927,
    "longitude": -84.3335602,
    "description": "With 4.8 stars from 286 reviews, Puppy Haven - Brookhaven at 2740 Caldwell Rd NE has become a favorite among Brookhaven dog owners. For dog owners in the area, this park has become a trusted spot for time with their pups. Looking for more places to take your pup? Ashford Park is another popular dog park just 0.8 miles away."
  },
  {
    "name": "‍ Field 11 Park",
    "street": "",
    "city": "Brookhaven",
    "state": "GA",
    "zip": "",
    "latitude": 33.7489924,
    "longitude": -84.3902644,
    "description": "In Brookhaven, Field 11 Park earns strong marks from local dog owners—4.8 stars from 17 reviews. Open from 7am to 8:30pm daily, dog owners have plenty of flexibility to plan a visit. Dog owners exploring the neighborhood can also bring their furry friends to Piedmont Park (0.0 miles)."
  },
  {
    "name": "Park",
    "street": "1818 Brindley Ct",
    "city": "Brookhaven",
    "state": "GA",
    "zip": "30338",
    "latitude": 33.926496,
    "longitude": -84.3146674,
    "description": "With 4.6 stars from 15 reviews, Park at 1818 Brindley Ct has become a favorite among Brookhaven dog owners. Dog owners looking for a solid destination will find this park delivers. Looking for more places to take your pup? Georgetown Park is another popular dog park just 0.2 miles away."
  },
  {
    "name": "Ashford Park",
    "street": "2980 Redding Rd NE",
    "city": "Brookhaven",
    "state": "GA",
    "zip": "30319",
    "latitude": 33.87449,
    "longitude": -84.3249505,
    "description": "Ashford Park at 2980 Redding Rd NE is well-regarded by Brookhaven dog owners, holding 4.6 stars across 384 reviews. Open from 6am to 11pm daily, dog owners can easily fit a visit into busy schedules. Dog owners can also take their pups to nearby Puppy Haven - Brookhaven (0.8 miles) or Ashford Forest Preserve (0.9 miles)."
  },
  {
    "name": "Ashford Forest Preserve",
    "street": "3890 Clairmont Rd",
    "city": "Brookhaven",
    "state": "GA",
    "zip": "30341",
    "latitude": 33.8747915,
    "longitude": -84.3095294,
    "description": "At 3890 Clairmont Rd in Brookhaven, Ashford Forest Preserve has built a loyal following—4.5 stars from 67 dog owner reviews. Local dog owners appreciate what this park offers their four-legged friends. More dog-friendly parks nearby include Clairmont Park (0.3 miles) and Ashford Park (0.9 miles)—perfect for pups who love adventure."
  },
  {
    "name": "Henderson Park",
    "street": "4000 Henderson Park Rd",
    "city": "Brookhaven",
    "state": "GA",
    "zip": "30084",
    "latitude": 33.86944,
    "longitude": -84.223516,
    "description": "For dog owners in Brookhaven, Henderson Park at 4000 Henderson Park Rd has a 4.2-star rating (17 reviews). The park gives neighborhood dog owners a destination for outings with their four-legged friends. More dog parks in the area include Brockett Bark Park (2.7 miles) and Milam Park (4.3 miles)—great options for mixing up your pup's routine."
  },
  {
    "name": "Georgetown Park",
    "street": "4400 Dunwoody Park",
    "city": "Brookhaven",
    "state": "GA",
    "zip": "30338",
    "latitude": 33.9254357,
    "longitude": -84.3112078,
    "description": "At 4400 Dunwoody Park, Georgetown Park has 4.4 stars based on 53 reviews from Brookhaven dog owners. For dog owners in the neighborhood, this park offers a place to take their pups. Dog owners might also enjoy Park, another dog park just 0.2 miles away."
  },
  {
    "name": "Blackburn Park",
    "street": "3493 Ashford Dunwoody Rd",
    "city": "Brookhaven",
    "state": "GA",
    "zip": "30319",
    "latitude": 33.8920803,
    "longitude": -84.3259636,
    "description": "With 4.5 stars across 1,258 reviews, Blackburn Park at 3493 Ashford Dunwoody Rd has clearly won over Brookhaven dog owners. Dog owners in the area know they can count on this park for quality time with their pups. For more dog park adventures, explore Ashford Park (1.2 miles) or Clairmont Park (1.3 miles) with your furry companion."
  },
  {
    "name": "Clairmont Park",
    "street": "Clairmont Rd",
    "city": "Brookhaven",
    "state": "GA",
    "zip": "30341",
    "latitude": 33.8786993,
    "longitude": -84.3094565,
    "description": "Clairmont Park in Brookhaven has 4.3 stars from 32 dog owner reviews. Open from 6am to 8pm daily, the park gives dog owners in the neighborhood time to bring their pups. More dog parks in the area include Ashford Forest Preserve (0.3 miles) and Ashford Park (0.9 miles)—great options for mixing up your pup's routine."
  },
  {
    "name": "Columbus City Dog Park",
    "street": "3535 S Lumpkin Rd",
    "city": "Columbus",
    "state": "GA",
    "zip": "31903",
    "latitude": 32.3820084,
    "longitude": -84.9572527,
    "description": "At 3535 S Lumpkin Rd in Columbus, Columbus City Dog Park carries 4.2 stars from 113 dog owner reviews. Dog owners looking for a local destination will find this park accessible. Checking recent reviews can help dog owners decide if this park fits their needs."
  },
  {
    "name": "Dallas Dog Park",
    "street": "196 Lester Dr",
    "city": "Dallas",
    "state": "GA",
    "zip": "30132",
    "latitude": 33.921653,
    "longitude": -84.8343432,
    "description": "Dallas Dog Park at 196 Lester Dr is well-regarded by Dallas dog owners, holding 4.6 stars across 318 reviews. Dog owners frequent this park for its consistent quality and welcoming atmosphere. A solid track record makes this a reliable choice for dog owners."
  },
  {
    "name": "Dunwoody Park",
    "street": "5343 Roberts Dr",
    "city": "Dunwoody",
    "state": "GA",
    "zip": "30338",
    "latitude": 33.9567936,
    "longitude": -84.335801,
    "description": "Located at 5343 Roberts Dr in Dunwoody, Dunwoody Park earns strong marks from local dog owners—4.6 stars from 293 reviews. Open from 7am to 9pm daily, there's room in the day for dog owners to bring their furry friends. Looking for more places to take your pup? Park is another popular dog park just 2.4 miles away."
  },
  {
    "name": "Cauley Creek Park",
    "street": "7255 Bell Rd",
    "city": "Johns Creek",
    "state": "GA",
    "zip": "30097",
    "latitude": 34.0413647,
    "longitude": -84.1426889,
    "description": "Johns Creek dog owners rate Cauley Creek Park at 7255 Bell Rd highly, with 4.8 stars from 203 visits. Open from 6am to 12am daily, dog owners can easily fit a visit into busy schedules. More dog-friendly parks nearby include Chattapoochee Dog Park (0.8 miles) and Rogers Bridge Park (0.8 miles)—perfect for pups who love adventure."
  },
  {
    "name": "Rock Springs Park",
    "street": "310 Old Peachtree Rd NESuwanee",
    "city": "Johns Creek",
    "state": "GA",
    "zip": "30024",
    "latitude": 34.0351001,
    "longitude": -84.0264336,
    "description": "Located at 310 Old Peachtree Rd NE in Johns Creek, Rock Springs Park earns strong marks from local dog owners—4.7 stars from 467 reviews. Open from 7am to 9pm daily, the park offers flexibility for dog owners with varying routines. Local dog owners have clearly found this to be a worthwhile destination."
  },
  {
    "name": "Rogers Bridge Park",
    "street": "4291 Rogers Bridge Rd",
    "city": "Johns Creek",
    "state": "GA",
    "zip": "30096",
    "latitude": 34.0293819,
    "longitude": -84.1408993,
    "description": "With 4.6 stars from 311 reviews, Rogers Bridge Park at 4291 Rogers Bridge Rd has become a favorite among Johns Creek dog owners. Open from 7am to 9pm daily, the park offers flexibility for dog owners with varying routines. Looking for more places to take your pup? Chattapoochee Dog Park is another popular dog park just 0.0 miles away."
  },
  {
    "name": "‍ Technology Park",
    "street": "11555 Medlock Bridge Rd",
    "city": "Johns Creek",
    "state": "GA",
    "zip": "30097",
    "latitude": 34.0622368,
    "longitude": -84.1707077,
    "description": "With 4.5 stars from 31 reviews, Technology Park at 11555 Medlock Bridge Rd has become a favorite among Johns Creek dog owners. Dog owners in the area consistently choose this park as a go-to destination for their pups. Other dog parks in the area include Cauley Creek Park (2.2 miles) and Chattapoochee Dog Park (2.8 miles)—both great for exploring with your four-legged friend."
  },
  {
    "name": "Barks N Brews",
    "street": "695 Riverside Dr",
    "city": "Macon",
    "state": "GA",
    "zip": "31201",
    "latitude": 32.8413877,
    "longitude": -83.6269335,
    "description": "Dog owners in Macon have made Barks N Brews at 695 Riverside Dr a go-to spot, rating it 4.7 stars across 154 reviews. Dog owners in the area consistently choose this park as a go-to destination for their pups. Dog owners exploring the neighborhood can also bring their furry friends to Macon Dog Park (1.1 miles)."
  },
  {
    "name": "Macon Dog Park",
    "street": "831 Adams St",
    "city": "Macon",
    "state": "GA",
    "zip": "31201",
    "latitude": 32.8372271,
    "longitude": -83.6453802,
    "description": "Macon Dog Park (4.6 stars from 559 reviews) is a popular destination for Macon dog owners, located at 831 Adams St. Open from 8am to 9pm daily, dog owners can plan visits around work or their pup's energy level. For variety, the neighborhood offers more dog parks to explore: Tattnall Square Park (0.3 miles) and Barks N Brews (1.1 miles)."
  },
  {
    "name": "Tattnall Square Park",
    "street": "1155 College St",
    "city": "Macon",
    "state": "GA",
    "zip": "31201",
    "latitude": 32.8334469,
    "longitude": -83.6459701,
    "description": "Tattnall Square Park (4.6 stars from 834 reviews) is a popular destination for Macon dog owners, located at 1155 College St. Local dog owners appreciate what this park offers their four-legged friends. Nearby, Macon Dog Park (0.3 miles) offers dog owners another great spot to explore with their pups."
  },
  {
    "name": "Pitner Road Dog Park",
    "street": "Pitner Rd NW",
    "city": "Marietta",
    "state": "GA",
    "zip": "30101",
    "latitude": 34.0650354,
    "longitude": -84.5919753,
    "description": "Dog owners in Marietta have made Pitner Road Dog Park a go-to spot, rating it 4.6 stars across 330 reviews. The park serves dog owners well, providing a destination the community values. Nearby, Swift Cantrell Park (4.3 miles) offers dog owners another great spot to explore with their pups."
  },
  {
    "name": "Gantt Park",
    "street": "128 Maple Ave NW",
    "city": "Marietta",
    "state": "GA",
    "zip": "30064",
    "latitude": 33.95773,
    "longitude": -84.5556667,
    "description": "Gantt Park at 128 Maple Ave NW is well-regarded by Marietta dog owners, holding 4.8 stars across 6 reviews. Open from 6am to 10pm daily, dog owners can easily fit a visit into busy schedules. Nearby, Lewis Park (0.4 miles) offers dog owners another great spot to explore with their pups."
  },
  {
    "name": "Lewis Park",
    "street": "475 Campbell Hill St NW",
    "city": "Marietta",
    "state": "GA",
    "zip": "30060",
    "latitude": 33.9634061,
    "longitude": -84.5519903,
    "description": "Marietta dog owners rate Lewis Park at 475 Campbell Hill St NW highly, with 4.5 stars from 431 visits. Open from 7am to 9pm daily, dog owners can easily fit a visit into busy schedules. Other dog parks in the area include Gantt Park (0.4 miles) and Swift Cantrell Park (3.9 miles)—both great for exploring with your four-legged friend."
  },
  {
    "name": "‍ Newtown Park",
    "street": "3150 Old Alabama Rd",
    "city": "Roswell",
    "state": "GA",
    "zip": "30022",
    "latitude": 34.021394,
    "longitude": -84.267102,
    "description": "With 4.8 stars across 1,323 reviews, Newtown Park at 3150 Old Alabama Rd has clearly won over Roswell dog owners. Open from 6am to 12am daily, the park accommodates a variety of dog owner schedules and routines. Nearby, Newtown Dream Dog Park (0.0 miles) is another dog park favorite where you can take your four-legged friend."
  },
  {
    "name": "‍ Island Ford Unit, Chattahooche",
    "street": "8800 Roberts Dr",
    "city": "Roswell",
    "state": "GA",
    "zip": "30350",
    "latitude": 34.0037039,
    "longitude": -84.3353072,
    "description": "Dog owners in Roswell have embraced Island Ford Unit, Chattahooche (8800 Roberts Dr) as a top destination—4.8 stars from 1,294 visits. Open from 9am to 5pm daily, the park is convenient for before work, after work, or weekend adventures. Keep the adventure going at other nearby dog parks like Woodstock Park (2.0 miles) or Dunwoody Park (3.2 miles)."
  },
  {
    "name": "Leita Thompson Memorial Park",
    "street": "1200 Woodstock Rd",
    "city": "Roswell",
    "state": "GA",
    "zip": "30075",
    "latitude": 34.062323,
    "longitude": -84.395812,
    "description": "Leita Thompson Memorial Park (4.8 stars from 861 reviews) is a popular destination for Roswell dog owners, located at 1200 Woodstock Rd. Dog owners frequent this park for its consistent quality and welcoming atmosphere. More dog-friendly parks nearby include Dog Park (0.3 miles) and Woodstock Park (3.4 miles)—perfect for pups who love adventure."
  },
  {
    "name": "Dog Park",
    "street": "1355 Woodstock Rd",
    "city": "Roswell",
    "state": "GA",
    "zip": "30075",
    "latitude": 34.0615534,
    "longitude": -84.4009325,
    "description": "With 4.6 stars from 157 reviews, Dog Park at 1355 Woodstock Rd has become a favorite among Roswell dog owners. The steady stream of dog owner visits speaks to the park's appeal. More dog-friendly parks nearby include Leita Thompson Memorial Park (0.3 miles) and Woodstock Park (3.5 miles)—perfect for pups who love adventure."
  },
  {
    "name": "Woodstock Park",
    "street": "",
    "city": "Roswell",
    "state": "GA",
    "zip": "",
    "latitude": 34.02332,
    "longitude": -84.360022,
    "description": "In Roswell, Woodstock Park carries 4.2 stars from 54 dog owner reviews. Local dog owners use this park as a spot to spend time with their furry companions. Nearby dog parks worth exploring with your pup include Island Ford Unit, Chattahooche (2.0 miles) and Leita Thompson Memorial Park (3.4 miles)."
  },
  {
    "name": "Lost Corner Preserve",
    "street": "7300 Brandon Mill Rd NW",
    "city": "Sandy Springs",
    "state": "GA",
    "zip": "30328",
    "latitude": 33.952982,
    "longitude": -84.38456,
    "description": "Lost Corner Preserve at 7300 Brandon Mill Rd NW is well-regarded by Sandy Springs dog owners, holding 4.8 stars across 202 reviews. Open from 8am to 9:30pm daily, dog owners can easily fit a visit into busy schedules. For a change of scenery, Morgan Falls River Park is another dog-friendly destination 0.8 miles from here."
  },
  {
    "name": "Morgan Falls Overlook Park",
    "street": "200 Morgan Falls Rd",
    "city": "Sandy Springs",
    "state": "GA",
    "zip": "30350",
    "latitude": 33.9657423,
    "longitude": -84.3817317,
    "description": "Morgan Falls Overlook Park at 200 Morgan Falls Rd in Sandy Springs is a community favorite, with 3,431 dog owners giving it 4.7 stars. Open from 8am to 9pm daily, dog owners can easily fit a visit into their day, whether morning or evening. For variety, many dog owners also bring their furry friends to Morgan Falls River Park (0.1 miles)—another great dog park in the area."
  },
  {
    "name": "Marsh Creek Rain Garden Park",
    "street": "90 Johnson Ferry Rd",
    "city": "Sandy Springs",
    "state": "GA",
    "zip": "30328",
    "latitude": 33.931938,
    "longitude": -84.3885613,
    "description": "With 4.6 stars from 64 reviews, Marsh Creek Rain Garden Park at 90 Johnson Ferry Rd has become a favorite among Sandy Springs dog owners. Dog owners in the area consistently choose this park as a go-to destination for their pups. Dog owners can also take their pups to nearby Lost Corner Preserve (1.5 miles) or Morgan Falls River Park (2.3 miles)."
  },
  {
    "name": "Windsor Meadows Park",
    "street": "835 Windsor Pkwy",
    "city": "Sandy Springs",
    "state": "GA",
    "zip": "30342",
    "latitude": 33.8857775,
    "longitude": -84.36043,
    "description": "For dog owners in the Sandy Springs area, Windsor Meadows Park (835 Windsor Pkwy) offers a 4.5-star experience based on 75 reviews. Open from 7am to 8pm daily, the park works well for dog owners with different schedules. For variety, the neighborhood offers more dog parks to explore: Skyland Park (0.9 miles) and Blue Heron Nature Preserve (1.3 miles)."
  },
  {
    "name": "Morgan Falls River Park",
    "street": "100 Morgan Falls Rd",
    "city": "Sandy Springs",
    "state": "GA",
    "zip": "30350",
    "latitude": 33.965008,
    "longitude": -84.382046,
    "description": "Morgan Falls River Park at 100 Morgan Falls Rd is well-regarded by Sandy Springs dog owners, holding 4.5 stars across 951 reviews. Open from 8am to 8pm daily, dog owners can plan visits around work or their pup's energy level. For a change of scenery, Morgan Falls Overlook Park is another dog-friendly destination 0.1 miles from here."
  },
  {
    "name": "Forsyth Park",
    "street": "1 W Gaston St",
    "city": "Savannah",
    "state": "GA",
    "zip": "31401",
    "latitude": 32.0790074,
    "longitude": -81.0921335,
    "description": "Forsyth Park at 1 W Gaston St in Savannah has earned its reputation with 4.8 stars from 17,384 dog owner reviews. Tens of thousands of dog owners have discovered what makes this park special. Dog owners in the area also frequent Landings Dog Park (0.0 miles)—another top dog park worth visiting with your pup."
  },
  {
    "name": "Landings Dog Park",
    "street": "",
    "city": "Savannah",
    "state": "GA",
    "zip": "",
    "latitude": 32.0790074,
    "longitude": -81.0921335,
    "description": "Landings Dog Park in Savannah has 4.3 stars from 6 dog owner reviews. The park serves as a gathering spot for dog owners and their four-legged friends in the area. More dog parks in the area include Forsyth Park (0.0 miles) and Tiedeman Park (0.0 miles)—great options for mixing up your pup's routine."
  },
  {
    "name": "Windsor Neighborhood Park",
    "street": "12412 Woodley Rd",
    "city": "Savannah",
    "state": "GA",
    "zip": "31419",
    "latitude": 31.9782397,
    "longitude": -81.1471901,
    "description": "At 12412 Woodley Rd in Savannah, Windsor Neighborhood Park has built a loyal following—4.6 stars from 59 dog owner reviews. Open from 8am to 10pm daily, dog owners can plan visits around work or their pup's energy level. Looking for more places to take your pup? Mohawk Dog Park is another popular dog park just 1.6 miles away."
  },
  {
    "name": "Tiedeman Park",
    "street": "",
    "city": "Savannah",
    "state": "GA",
    "zip": "",
    "latitude": 32.0790074,
    "longitude": -81.0921335,
    "description": "Tiedeman Park is well-regarded by Savannah dog owners, holding 4.6 stars across 99 reviews. Dog owners looking for a solid destination will find this park delivers. Dog owners can also take their pups to nearby Forsyth Park (0.0 miles) or Landings Dog Park (0.0 miles)."
  },
  {
    "name": "‍ Easthaven dog park",
    "street": "83 Gateway Dr",
    "city": "Savannah",
    "state": "GA",
    "zip": "31322",
    "latitude": 32.073335,
    "longitude": -81.2675625,
    "description": "At 83 Gateway Dr, Easthaven dog park has 4.3 stars based on 12 reviews from Savannah dog owners. For dog owners in the neighborhood, this park offers a place to take their pups. Reading what other dog owners have experienced here can help with planning a visit."
  },
  {
    "name": "‍ Daffin Park",
    "street": "E Victory Dr",
    "city": "Savannah",
    "state": "GA",
    "zip": "31404",
    "latitude": 32.0470734,
    "longitude": -81.0808861,
    "description": "Local dog owners love Daffin Park in Savannah—4.6 stars from an impressive 1,563 reviews. The strong community of dog owners here reflects how much the park is valued. Dog owners in the area also love bringing their pups to Herty Pines Dog Park (0.3 miles) and Mother Matilda Beasley Park (1.6 miles)."
  },
  {
    "name": "Mohawk Dog Park",
    "street": "1134 Mohawk St",
    "city": "Savannah",
    "state": "GA",
    "zip": "31419",
    "latitude": 31.992677,
    "longitude": -81.1688757,
    "description": "Dog owners in Savannah have made Mohawk Dog Park at 1134 Mohawk St a go-to spot, rating it 4.5 stars across 52 reviews. Open from 7am to 7pm daily, dog owners can plan visits around work or their pup's energy level. Looking for more places to take your pup? Windsor Neighborhood Park is another popular dog park just 1.6 miles away."
  },
  {
    "name": "Herty Pines Dog Park",
    "street": "Bee Rd",
    "city": "Savannah",
    "state": "GA",
    "zip": "31404",
    "latitude": 32.0481655,
    "longitude": -81.0758021,
    "description": "In Savannah, Herty Pines Dog Park has built a loyal following—4.5 stars from 360 dog owner reviews. For dog owners in the area, this park has become a trusted spot for time with their pups. Other dog parks in the area include Daffin Park (0.3 miles) and Mother Matilda Beasley Park (1.7 miles)—both great for exploring with your four-legged friend."
  },
  {
    "name": "Mother Matilda Beasley Park",
    "street": "500 E Broad St",
    "city": "Savannah",
    "state": "GA",
    "zip": "31401",
    "latitude": 32.070023,
    "longitude": -81.087254,
    "description": "Dog owners in Savannah have rated Mother Matilda Beasley Park (500 E Broad St) 4.4 stars across 197 reviews. Open from 8am to 5pm weekdays, the park is accessible for dog owners in the area. For dog owners who like to explore, Forsyth Park (0.7 miles) and Landings Dog Park (0.7 miles) are both nearby parks to try with your dog."
  },
  {
    "name": "Cascade Springs Nature Preserv",
    "street": "2852 Cascade Rd",
    "city": "South Fulton",
    "state": "GA",
    "zip": "30311",
    "latitude": 33.720241,
    "longitude": -84.4795767,
    "description": "With 4.5 stars across 2,070 reviews, Cascade Springs Nature Preserv at 2852 Cascade Rd has clearly won over South Fulton dog owners. Open from 8am to 11pm daily, dog owners have plenty of flexibility to visit when it suits their schedule. Dog owners in the area also love bringing their pups to Melvin Drive Dog Park (2.2 miles) and Dean Rusk Park (3.8 miles)."
  },
  {
    "name": "Peachtree City Dog Park",
    "street": "193 McIntosh Trail",
    "city": "South Fulton",
    "state": "GA",
    "zip": "30269",
    "latitude": 33.3824259,
    "longitude": -84.566184,
    "description": "Dog owners in South Fulton have made Peachtree City Dog Park at 193 McIntosh Trail a go-to spot, rating it 4.5 stars across 235 reviews. Open from 7am to 7pm daily, dog owners can plan visits around work or their pup's energy level. The steady stream of positive reviews suggests dog owners consistently have good experiences here."
  },
  {
    "name": "‍ Top of Bradley Mountain",
    "street": "4158 Klondike Rd",
    "city": "Stonecrest",
    "state": "GA",
    "zip": "30038",
    "latitude": 33.6599176,
    "longitude": -84.1243627,
    "description": "Top of Bradley Mountain at 4158 Klondike Rd is well-regarded by Stonecrest dog owners, holding 4.9 stars across 95 reviews. The steady stream of dog owner visits speaks to the park's appeal. Dog owners exploring the neighborhood can also bring their furry friends to Davidson-Arabia Mountain Natur (0.9 miles)."
  },
  {
    "name": "Arabia Mountain National Herit",
    "street": "3350 Klondike Rd",
    "city": "Stonecrest",
    "state": "GA",
    "zip": "30038",
    "latitude": 33.6848523,
    "longitude": -84.1138543,
    "description": "Arabia Mountain National Herit at 3350 Klondike Rd is a favorite among Stonecrest dog owners, earning 4.7 stars from 1,701 reviews. Open from 7am to 9pm daily, it's easy for dog owners to stop by whenever works best. Nearby, Vaughters Farm (0.0 miles) is another dog park favorite where you can take your four-legged friend."
  },
  {
    "name": "Arabia Mountain Trailhead",
    "street": "Arabia Mountain Path",
    "city": "Stonecrest",
    "state": "GA",
    "zip": "30038",
    "latitude": 33.6494461,
    "longitude": -84.1497635,
    "description": "In Stonecrest, Arabia Mountain Trailhead has built a loyal following—4.7 stars from 666 dog owner reviews. Dog owners in the area consistently choose this park as a go-to destination for their pups. Dog owners can also take their pups to nearby Evans Mill Ruins Walking Trail (1.4 miles) or Panola Shoals Trailhead South (1.5 miles)."
  },
  {
    "name": "Vaughters Farm",
    "street": "3366 Klondike Rd",
    "city": "Stonecrest",
    "state": "GA",
    "zip": "30038",
    "latitude": 33.6843828,
    "longitude": -84.1139515,
    "description": "Vaughters Farm at 3366 Klondike Rd is well-regarded by Stonecrest dog owners, holding 4.7 stars across 179 reviews. Dog owners in the area consistently choose this park as a go-to destination for their pups. More dog-friendly parks nearby include Arabia Mountain National Herit (0.0 miles) and Arabia Lake (0.9 miles)—perfect for pups who love adventure."
  },
  {
    "name": "Davidson-Arabia Mountain Natur",
    "street": "3787 Klondike Rd",
    "city": "Stonecrest",
    "state": "GA",
    "zip": "30038",
    "latitude": 33.670964,
    "longitude": -84.1169223,
    "description": "With 4.7 stars from 149 reviews, Davidson-Arabia Mountain Natur at 3787 Klondike Rd has become a favorite among Stonecrest dog owners. Dog owners frequent this park for its consistent quality and welcoming atmosphere. Nearby, Arabia Lake (0.6 miles) offers dog owners another great spot to explore with their pups."
  },
  {
    "name": "Milam Park",
    "street": "3867 Norman Rd",
    "city": "Stonecrest",
    "state": "GA",
    "zip": "30021",
    "latitude": 33.8077785,
    "longitude": -84.2330618,
    "description": "With 4.7 stars from 58 reviews, Milam Park at 3867 Norman Rd has become a favorite among Stonecrest dog owners. The steady stream of dog owner visits speaks to the park's appeal. Nearby, Brockett Bark Park (1.6 miles) offers dog owners another great spot to explore with their pups."
  },
  {
    "name": "Arabia Lake",
    "street": "6445 Rockland Rd",
    "city": "Stonecrest",
    "state": "GA",
    "zip": "30038",
    "latitude": 33.6760604,
    "longitude": -84.1260116,
    "description": "For dog owners in the Stonecrest area, Arabia Lake (6445 Rockland Rd) offers a 4.7-star experience based on 33 reviews. Dog owners in the area consistently choose this park as a go-to destination for their pups. Nearby, Davidson-Arabia Mountain Natur (0.6 miles) offers dog owners another great spot to explore with their pups."
  },
  {
    "name": "Lenora Park",
    "street": "4515 Lenora Church Rd",
    "city": "Stonecrest",
    "state": "GA",
    "zip": "30039",
    "latitude": 33.8242145,
    "longitude": -84.0118248,
    "description": "Local dog owners love Lenora Park at 4515 Lenora Church Rd in Stonecrest—4.6 stars from an impressive 2,785 reviews. The park has earned genuine loyalty from dog owners who value what it offers. The strong ratings from so many dog owners reflect a park that delivers on expectations."
  },
  {
    "name": "Lorraine Park",
    "street": "3465 GA-138",
    "city": "Stonecrest",
    "state": "GA",
    "zip": "30281",
    "latitude": 33.5411821,
    "longitude": -84.2119966,
    "description": "With 4.6 stars from 220 reviews, Lorraine Park at 3465 GA-138 has become a favorite among Stonecrest dog owners. Open from 7am to 9pm daily, dog owners can easily fit a visit into busy schedules. Based on the reviews, dog owners can expect a reliable spot for spending time with their pup."
  },
  {
    "name": "Evans Mill Ruins Walking Trail",
    "street": "4028 Evans Mill Rd",
    "city": "Stonecrest",
    "state": "GA",
    "zip": "30038",
    "latitude": 33.6702223,
    "longitude": -84.1496468,
    "description": "With 4.6 stars from 138 reviews, Evans Mill Ruins Walking Trail at 4028 Evans Mill Rd has become a favorite among Stonecrest dog owners. Open from 7am to 8:45pm daily, the park offers flexibility for dog owners with varying routines. Other dog parks in the area include Fairington Park (1.2 miles) and Arabia Lake (1.4 miles)—both great for exploring with your four-legged friend."
  },
  {
    "name": "Wheeler Park",
    "street": "1400 Parker Rd SEConyers",
    "city": "Stonecrest",
    "state": "GA",
    "zip": "30094",
    "latitude": 33.654724,
    "longitude": -84.020286,
    "description": "Dog owners in Stonecrest have made Wheeler Park at 1400 Parker Rd SE a go-to spot, rating it 4.6 stars across 101 reviews. Local dog owners appreciate what this park offers their four-legged friends. Nearby, East View Park (1.4 miles) offers dog owners another great spot to explore with their pups."
  },
  {
    "name": "East View Park",
    "street": "1171 Eastview Rd NEConyers",
    "city": "Stonecrest",
    "state": "GA",
    "zip": "30012",
    "latitude": 33.6728294,
    "longitude": -84.0091559,
    "description": "At 1171 Eastview Rd NE in Stonecrest, East View Park has built a loyal following—4.6 stars from 19 dog owner reviews. Open from 8am to 8pm daily, the park offers flexibility for dog owners with varying routines. Nearby, Wheeler Park (1.4 miles) offers dog owners another great spot to explore with their pups."
  },
  {
    "name": "Panola Shoals Trailhead South",
    "street": "South River Trail",
    "city": "Stonecrest",
    "state": "GA",
    "zip": "30038",
    "latitude": 33.6515198,
    "longitude": -84.1761845,
    "description": "Dog owners in Stonecrest have made Panola Shoals Trailhead South a go-to spot, rating it 4.5 stars across 292 reviews. Dog owners looking for a solid destination will find this park delivers. Dog owners exploring the neighborhood can also bring their furry friends to Arabia Mountain Trailhead (1.5 miles)."
  },
  {
    "name": "Biffle Park",
    "street": "",
    "city": "Stonecrest",
    "state": "GA",
    "zip": "",
    "latitude": 33.8080924,
    "longitude": -84.1706273,
    "description": "In Stonecrest, Biffle Park earns strong marks from local dog owners—4.5 stars from 301 reviews. The steady stream of dog owner visits speaks to the park's appeal. Dog owners exploring the neighborhood can also bring their furry friends to Leila Mason Park (0.6 miles)."
  },
  {
    "name": "Leila Mason Park",
    "street": "5510 Stillhouse Rd",
    "city": "Stonecrest",
    "state": "GA",
    "zip": "30083",
    "latitude": 33.8008855,
    "longitude": -84.1644407,
    "description": "At 5510 Stillhouse Rd in Stonecrest, Leila Mason Park carries 4.4 stars from 53 dog owner reviews. For dog owners in the neighborhood, this park offers a place to take their pups. For pups who want more adventure, Biffle Park is a nearby dog park worth visiting (0.6 miles)."
  },
  {
    "name": "Lucious Sanders Recreation",
    "street": "2484 Bruce St",
    "city": "Stonecrest",
    "state": "GA",
    "zip": "30058",
    "latitude": 33.71312,
    "longitude": -84.100424,
    "description": "Dog owners in Stonecrest have rated Lucious Sanders Recreation (2484 Bruce St) 4.4 stars across 64 reviews. The neighborhood benefits from having this park as an option for dog owners and their pups. For pups who want more adventure, Lithonia Park is a nearby dog park worth visiting (0.6 miles)."
  },
  {
    "name": "Freedom Park",
    "street": "",
    "city": "Valdosta",
    "state": "GA",
    "zip": "",
    "latitude": 30.8327022,
    "longitude": -83.2784851,
    "description": "Freedom Park (4.7 stars from 218 reviews) is a popular destination for Valdosta dog owners. Dog owners looking for a solid destination will find this park delivers. The positive feedback from local dog owners speaks to the park's consistent quality."
  },
  {
    "name": "Robins Dog Park",
    "street": "",
    "city": "Warner Robins",
    "state": "GA",
    "zip": "",
    "latitude": 32.6200973,
    "longitude": -83.606568,
    "description": "In Warner Robins, Robins Dog Park earns strong marks from local dog owners—4.5 stars from 40 reviews. Dog owners looking for a solid destination will find this park delivers. For a change of scenery, Wellston Park1 Park is another dog-friendly destination 2.7 miles from here."
  },
  {
    "name": "Wellston Park1 Park",
    "street": "110 Olympia Dr",
    "city": "Warner Robins",
    "state": "GA",
    "zip": "31093",
    "latitude": 32.6192665,
    "longitude": -83.6521709,
    "description": "For dog owners in Warner Robins, Wellston Park1 Park at 110 Olympia Dr has a 4.3-star rating (150 reviews). Open from 6am to 9pm daily, dog owners have a window to spend time with their pups. For pups who want more adventure, Robins Dog Park is a nearby dog park worth visiting (2.7 miles)."
  }
]