[
  {
    "name": "Busse Forest Elk Pasture",
    "street": "225 N Arlington Heights RdElk Grove Village",
    "city": "Arlington Heights",
    "state": "IL",
    "zip": "60007",
    "latitude": 42.0286463,
    "longitude": -87.9872694,
    "description": "Busse Forest Elk Pasture (4.8 stars from 937 reviews) is a popular destination for Arlington Heights dog owners, located at 225 N Arlington Heights Rd. Open from 6am to 6pm daily, dog owners can easily fit a visit into busy schedules. Looking for more places to take your pup? Tamarack Park is another popular dog park just 1.4 miles away."
  },
  {
    "name": "Harmony Park",
    "street": "7 S Vail Ave",
    "city": "Arlington Heights",
    "state": "IL",
    "zip": "60005",
    "latitude": 42.0826334,
    "longitude": -87.9840294,
    "description": "Dog owners in Arlington Heights have made Harmony Park at 7 S Vail Ave a go-to spot, rating it 4.8 stars across 103 reviews. For dog owners in the area, this park has become a trusted spot for time with their pups. More dog-friendly parks nearby include Nickol Knoll Park (0.2 miles) and Falcon Park (0.2 miles)—perfect for pups who love adventure."
  },
  {
    "name": "‍ Malibu Park",
    "street": "405 Tahoe Cir DrWheeling",
    "city": "Arlington Heights",
    "state": "IL",
    "zip": "60090",
    "latitude": 42.1309815,
    "longitude": -87.9561086,
    "description": "At 405 Tahoe Cir Dr in Arlington Heights, Malibu Park has built a loyal following—4.8 stars from 35 dog owner reviews. Open from 7am to 8pm daily, there's plenty of opportunity for dog owners to find a time that works. For variety, the neighborhood offers more dog parks to explore: Husky Park (0.6 miles) and Centennial Park (0.7 miles)."
  },
  {
    "name": "Dryden Park",
    "street": "716 S Lincoln Ln",
    "city": "Arlington Heights",
    "state": "IL",
    "zip": "60005",
    "latitude": 42.0716841,
    "longitude": -87.9722052,
    "description": "Arlington Heights dog owners rate Dryden Park at 716 S Lincoln Ln highly, with 4.9 stars from 12 visits. The park has earned its reputation among dog owners in the neighborhood as a reliable choice. For a change of scenery, Central Park is another dog-friendly destination 0.5 miles from here."
  },
  {
    "name": "Lake Arlington",
    "street": "2201 N Windsor Dr",
    "city": "Arlington Heights",
    "state": "IL",
    "zip": "60004",
    "latitude": 42.117183,
    "longitude": -87.965755,
    "description": "With 4.7 stars across 1,459 reviews, Lake Arlington at 2201 N Windsor Dr has clearly won over Arlington Heights dog owners. Open from 10am to 7pm daily, the park accommodates a variety of dog owner schedules and routines. For more dog park adventures, explore Camelot Park (0.4 miles) or Centennial Park (0.8 miles) with your furry companion."
  },
  {
    "name": "Buffalo Creek Forest Preserve",
    "street": "18163 Checker RdLong Grove",
    "city": "Arlington Heights",
    "state": "IL",
    "zip": "60047",
    "latitude": 42.1609042,
    "longitude": -87.9973606,
    "description": "With 4.7 stars from 711 reviews, Buffalo Creek Forest Preserve at 18163 Checker Rd has become a favorite among Arlington Heights dog owners. Open from 6:30am to 8pm daily, dog owners can easily fit a visit into busy schedules. For a change of scenery, Lake Terramere Park is another dog-friendly destination 0.8 miles from here."
  },
  {
    "name": "‍ Pioneer Park",
    "street": "500 S Fernandez Ave",
    "city": "Arlington Heights",
    "state": "IL",
    "zip": "60005",
    "latitude": 42.0761272,
    "longitude": -87.9930281,
    "description": "Pioneer Park (4.7 stars from 260 reviews) is a popular destination for Arlington Heights dog owners, located at 500 S Fernandez Ave. Dog owners frequent this park for its consistent quality and welcoming atmosphere. Nearby, Sunset Meadows Park (0.4 miles) offers dog owners another great spot to explore with their pups."
  },
  {
    "name": "Kingsbridge Arboretum",
    "street": "1634 S Fernandez Ave",
    "city": "Arlington Heights",
    "state": "IL",
    "zip": "60005",
    "latitude": 42.0540605,
    "longitude": -87.9919764,
    "description": "At 1634 S Fernandez Ave in Arlington Heights, Kingsbridge Arboretum has built a loyal following—4.9 stars from 8 dog owner reviews. Dog owners looking for a solid destination will find this park delivers. For variety, the neighborhood offers more dog parks to explore: Volz Park (0.2 miles) and Heritage Park (0.2 miles)."
  },
  {
    "name": "Mill Creek Park",
    "street": "",
    "city": "Arlington Heights",
    "state": "IL",
    "zip": "",
    "latitude": 42.1544205,
    "longitude": -87.9589621,
    "description": "For dog owners in the Arlington Heights area, Mill Creek Park offers a 4.9-star experience based on 8 reviews. The steady stream of dog owner visits speaks to the park's appeal. Other dog parks in the area include Happy Tails Dog Park (1.2 miles) and Husky Park (1.5 miles)—both great for exploring with your four-legged friend."
  },
  {
    "name": "Husky Park",
    "street": "1100 Lee StWheeling",
    "city": "Arlington Heights",
    "state": "IL",
    "zip": "60090",
    "latitude": 42.1347273,
    "longitude": -87.9453434,
    "description": "Dog owners in Arlington Heights have made Husky Park at 1100 Lee St a go-to spot, rating it 4.7 stars across 72 reviews. The steady stream of dog owner visits speaks to the park's appeal. For variety, the neighborhood offers more dog parks to explore: Malibu Park (0.6 miles) and Centennial Park (1.3 miles)."
  },
  {
    "name": "Carefree Park",
    "street": "1231 S Belmont Ave",
    "city": "Arlington Heights",
    "state": "IL",
    "zip": "60005",
    "latitude": 42.061847,
    "longitude": -87.9773437,
    "description": "With 4.6 stars from 63 reviews, Carefree Park at 1231 S Belmont Ave has become a favorite among Arlington Heights dog owners. Open from 5am to 11pm daily, dog owners can easily fit a visit into busy schedules. Dog owners exploring the neighborhood can also bring their furry friends to Central Park (0.6 miles)."
  },
  {
    "name": "Centennial Park",
    "street": "1209 E Burr Oak Dr",
    "city": "Arlington Heights",
    "state": "IL",
    "zip": "60004",
    "latitude": 42.1281389,
    "longitude": -87.9684513,
    "description": "Centennial Park at 1209 E Burr Oak Dr is well-regarded by Arlington Heights dog owners, holding 4.6 stars across 71 reviews. Open from 5am to 11pm daily, dog owners can easily fit a visit into busy schedules. More dog-friendly parks nearby include Camelot Park (0.4 miles) and Malibu Park (0.7 miles)—perfect for pups who love adventure."
  },
  {
    "name": "Meadows Park",
    "street": "1401 W Gregory StMt Prospect",
    "city": "Arlington Heights",
    "state": "IL",
    "zip": "60056",
    "latitude": 42.073557,
    "longitude": -87.9441092,
    "description": "Arlington Heights dog owners rate Meadows Park at 1401 W Gregory St highly, with 4.6 stars from 107 visits. The park has earned its reputation among dog owners in the neighborhood as a reliable choice. Nearby, Kopp Park (0.6 miles) offers dog owners another great spot to explore with their pups."
  },
  {
    "name": "Osage Park",
    "street": "2076 N Old Hicks RdPalatine",
    "city": "Arlington Heights",
    "state": "IL",
    "zip": "60074",
    "latitude": 42.1487673,
    "longitude": -88.024119,
    "description": "With 4.6 stars from 108 reviews, Osage Park at 2076 N Old Hicks Rd has become a favorite among Arlington Heights dog owners. Open from 7am to 8pm daily, dog owners can easily fit a visit into busy schedules. Dog owners can also take their pups to nearby Lake Terramere Park (1.5 miles) or Palatine Park (1.6 miles)."
  },
  {
    "name": "Hasbrook Park",
    "street": "333 W Maude Ave",
    "city": "Arlington Heights",
    "state": "IL",
    "zip": "60004",
    "latitude": 42.1053008,
    "longitude": -87.9876487,
    "description": "Hasbrook Park (4.6 stars from 128 reviews) is a popular destination for Arlington Heights dog owners, located at 333 W Maude Ave. Open from 5am to 11pm daily, the park works well for dog owners with different schedules. More dog-friendly parks nearby include Frontier Park (0.6 miles) and Arlington Heights Park (1.1 miles)—perfect for pups who love adventure."
  },
  {
    "name": "Jaycee Memorial Park",
    "street": "",
    "city": "Arlington Heights",
    "state": "IL",
    "zip": "",
    "latitude": 42.1711365,
    "longitude": -87.8445119,
    "description": "Jaycee Memorial Park (4.6 stars from 134 reviews) is a popular destination for Arlington Heights dog owners. Open from 8am to 8pm daily, there's room in the day for dog owners to bring their furry friends. For variety, the neighborhood offers more dog parks to explore: Prairie Wolf Forest Preserve (2.1 miles) and Northbrook Dog Park (2.2 miles)."
  },
  {
    "name": "Wag 'N Paddle",
    "street": "1847 W Jefferson Ave",
    "city": "Aurora",
    "state": "IL",
    "zip": "60540",
    "latitude": 41.7698071,
    "longitude": -88.1997482,
    "description": "Wag 'N Paddle at 1847 W Jefferson Ave is well-regarded by Aurora dog owners, holding 4.8 stars across 224 reviews. Dog owners in the area consistently choose this park as a go-to destination for their pups. Looking for more places to take your pup? Frontenac park is another popular dog park just 1.8 miles away."
  },
  {
    "name": "Springbrook Prairie",
    "street": "83RD Book Rd",
    "city": "Aurora",
    "state": "IL",
    "zip": "60567",
    "latitude": 41.7728699,
    "longitude": -88.1479278,
    "description": "With 4.7 stars from 895 reviews, Springbrook Prairie at 83RD Book Rd has become a favorite among Aurora dog owners. Dog owners in the area consistently choose this park as a go-to destination for their pups. Dog owners can also take their pups to nearby Greene Valley (0.0 miles) or Wag 'N Paddle (2.7 miles)."
  },
  {
    "name": "Waubonsie Lake Park",
    "street": "998 Kautz Rd",
    "city": "Aurora",
    "state": "IL",
    "zip": "60504",
    "latitude": 41.7600511,
    "longitude": -88.2602359,
    "description": "Waubonsie Lake Park at 998 Kautz Rd is well-regarded by Aurora dog owners, holding 4.7 stars across 840 reviews. Open from 9am to 9pm daily, dog owners have plenty of flexibility to plan a visit. For variety, the neighborhood offers more dog parks to explore: Brooklyn Park (0.7 miles) and Oakhurst Forest Preserve (1.2 miles)."
  },
  {
    "name": "Oakhurst Forest Preserve",
    "street": "1680 5th Ave",
    "city": "Aurora",
    "state": "IL",
    "zip": "60504",
    "latitude": 41.7463299,
    "longitude": -88.274286,
    "description": "At 1680 5th Ave in Aurora, Oakhurst Forest Preserve has built a loyal following—4.7 stars from 644 dog owner reviews. Open from 7am to 8pm daily, dog owners have plenty of flexibility to plan a visit. More dog-friendly parks nearby include Marie Wilkinson Park (0.7 miles) and City of Aurora- Phillips Park (1.2 miles)—perfect for pups who love adventure."
  },
  {
    "name": "‍ Abraham Lincoln Park",
    "street": "259 S Russell Ave",
    "city": "Aurora",
    "state": "IL",
    "zip": "60506",
    "latitude": 41.7567343,
    "longitude": -88.334243,
    "description": "Abraham Lincoln Park (4.7 stars from 223 reviews) is a popular destination for Aurora dog owners, located at 259 S Russell Ave. Open from 6am to 8pm daily, the park works well for dog owners with different schedules. Nearby, Greene Field Park (1.0 miles) offers dog owners another great spot to explore with their pups."
  },
  {
    "name": "Hammel Woods Dog Park",
    "street": "",
    "city": "Aurora",
    "state": "IL",
    "zip": "",
    "latitude": 41.5200305,
    "longitude": -88.2017293,
    "description": "For dog owners in the Aurora area, Hammel Woods Dog Park offers a 4.7-star experience based on 214 reviews. Open from 7am to 7pm daily, dog owners can plan visits around work or their pup's energy level. Nearby, Hammel Woods - DuPage River (1.4 miles) offers dog owners another great spot to explore with their pups."
  },
  {
    "name": "Springbrook Prairie Dog Park",
    "street": "29W128 83rd St",
    "city": "Aurora",
    "state": "IL",
    "zip": "60564",
    "latitude": 41.7326025,
    "longitude": -88.2018416,
    "description": "Dog owners in Aurora have made Springbrook Prairie Dog Park at 29W128 83rd St a go-to spot, rating it 4.7 stars across 118 reviews. For dog owners in the area, this park has become a trusted spot for time with their pups. Dog owners can also take their pups to nearby Frontenac park (2.4 miles) or Wag 'N Paddle (2.6 miles)."
  },
  {
    "name": "Stuart Sports Complex Dog Park",
    "street": "39W546 Baseline RdSugar Grove",
    "city": "Aurora",
    "state": "IL",
    "zip": "60554",
    "latitude": 41.7217188,
    "longitude": -88.4504005,
    "description": "Dog owners in Aurora have made Stuart Sports Complex Dog Park at 39W546 Baseline Rd a go-to spot, rating it 4.7 stars across 65 reviews. Dog owners frequent this park for its consistent quality and welcoming atmosphere. For a change of scenery, Stuart Sports Complex is another dog-friendly destination 4.0 miles from here."
  },
  {
    "name": "Frontenac park",
    "street": "346 Cane Garden Cir",
    "city": "Aurora",
    "state": "IL",
    "zip": "60504",
    "latitude": 41.7588967,
    "longitude": -88.2312255,
    "description": "Located at 346 Cane Garden Cir in Aurora, Frontenac park earns strong marks from local dog owners—4.6 stars from 11 reviews. Open from 5:33am to 8:05pm daily, the park offers flexibility for dog owners with varying routines. Looking for more places to take your pup? Brooklyn Park is another popular dog park just 0.9 miles away."
  },
  {
    "name": "Garfield Park",
    "street": "825 Sheffer Road",
    "city": "Aurora",
    "state": "IL",
    "zip": "60505",
    "latitude": 41.7747169,
    "longitude": -88.2966844,
    "description": "With 4.6 stars from 81 reviews, Garfield Park at 825 Sheffer Road has become a favorite among Aurora dog owners. Open from 6:30am to 6pm daily, the park offers flexibility for dog owners with varying routines. Nearby, Church Road Park (1.0 miles) offers dog owners another great spot to explore with their pups."
  },
  {
    "name": "Whalon Lake Dog Park",
    "street": "1480 Royce Rd",
    "city": "Aurora",
    "state": "IL",
    "zip": "60565",
    "latitude": 41.7188573,
    "longitude": -88.0995383,
    "description": "Dog owners in Aurora have made Whalon Lake Dog Park at 1480 Royce Rd a go-to spot, rating it 4.6 stars across 344 reviews. The steady stream of dog owner visits speaks to the park's appeal. Dog owners exploring the neighborhood can also bring their furry friends to DuPage River Park (0.1 miles)."
  },
  {
    "name": "Whalon Lake",
    "street": "Royce Rd",
    "city": "Aurora",
    "state": "IL",
    "zip": "60565",
    "latitude": 41.7163596,
    "longitude": -88.1102033,
    "description": "In Aurora, Whalon Lake has built a loyal following—4.6 stars from 404 dog owner reviews. Local dog owners appreciate what this park offers their four-legged friends. Nearby, Whalon Lake Dog Park (0.6 miles) offers dog owners another great spot to explore with their pups."
  },
  {
    "name": "North Aurora Island Park",
    "street": "",
    "city": "Aurora",
    "state": "IL",
    "zip": "",
    "latitude": 41.8061399,
    "longitude": -88.3272952,
    "description": "With 4.6 stars from 476 reviews, North Aurora Island Park has become a favorite among Aurora dog owners. Open from 7am to 10pm daily, the park accommodates early risers and evening visitors alike. Dog owners exploring the neighborhood can also bring their furry friends to Church Road Park (2.2 miles)."
  },
  {
    "name": "City of Aurora- Phillips Park",
    "street": "Ray Moses Dr",
    "city": "Aurora",
    "state": "IL",
    "zip": "60505",
    "latitude": 41.7380473,
    "longitude": -88.2941318,
    "description": "City of Aurora- Phillips Park in Aurora is a community favorite, with 1,319 dog owners giving it 4.6 stars. Open from 9am to 4pm, every day except Wednesday, dog owners have plenty of flexibility to visit when it suits their schedule. For variety, many dog owners also bring their furry friends to Dog Park (0.4 miles)—another great dog park in the area."
  },
  {
    "name": "Brooklyn Park",
    "street": "634 Brooklyn Dr",
    "city": "Aurora",
    "state": "IL",
    "zip": "60502",
    "latitude": 41.7643961,
    "longitude": -88.2476598,
    "description": "At 634 Brooklyn Dr in Aurora, Brooklyn Park has built a loyal following—4.5 stars from 33 dog owner reviews. Open from 8am to 9pm daily, dog owners have plenty of flexibility to plan a visit. More dog-friendly parks nearby include Waubonsie Lake Park (0.7 miles) and Frontenac park (0.9 miles)—perfect for pups who love adventure."
  },
  {
    "name": "Church Road Park",
    "street": "1590 Church Rd",
    "city": "Aurora",
    "state": "IL",
    "zip": "60505",
    "latitude": 41.7892439,
    "longitude": -88.2918842,
    "description": "Church Road Park (4.5 stars from 90 reviews) is a popular destination for Aurora dog owners, located at 1590 Church Rd. Dog owners frequent this park for its consistent quality and welcoming atmosphere. For variety, the neighborhood offers more dog parks to explore: Garfield Park (1.0 miles) and North Aurora Island Park (2.2 miles)."
  },
  {
    "name": "McGraw Park",
    "street": "3202 Cornelius Dr",
    "city": "Bloomington",
    "state": "IL",
    "zip": "61704",
    "latitude": 40.4924578,
    "longitude": -88.9236762,
    "description": "With 4.7 stars from 450 reviews, McGraw Park at 3202 Cornelius Dr has become a favorite among Bloomington dog owners. Open from 6am to 10pm daily, there's plenty of opportunity for dog owners to find a time that works. Dog owners exploring the neighborhood can also bring their furry friends to Eagle Crest Park (1.5 miles)."
  },
  {
    "name": "Maxwell Park",
    "street": "305 N Parkside RdNormal",
    "city": "Bloomington",
    "state": "IL",
    "zip": "61761",
    "latitude": 40.5109784,
    "longitude": -89.0210591,
    "description": "At 305 N Parkside Rd in Bloomington, Maxwell Park has built a loyal following—4.6 stars from 367 dog owner reviews. Local dog owners appreciate what this park offers their four-legged friends. Other dog parks in the area include Maxwell Park (1.8 miles) and Friendship Park (2.3 miles)—both great for exploring with your four-legged friend."
  },
  {
    "name": "Shepard Park",
    "street": "750 Hershey RdNormal",
    "city": "Bloomington",
    "state": "IL",
    "zip": "61761",
    "latitude": 40.5169197,
    "longitude": -88.9436314,
    "description": "For dog owners in the Bloomington area, Shepard Park (750 Hershey Rd) offers a 4.6-star experience based on 222 reviews. Open from 6am to 11pm daily, there's plenty of opportunity for dog owners to find a time that works. Dog owners exploring the neighborhood can also bring their furry friends to Shepard Dog Park (0.0 miles)."
  },
  {
    "name": "Shepard Dog Park",
    "street": "701 Hershey RdNormal",
    "city": "Bloomington",
    "state": "IL",
    "zip": "61761",
    "latitude": 40.5169197,
    "longitude": -88.9436314,
    "description": "At 701 Hershey Rd in Bloomington, Shepard Dog Park has built a loyal following—4.6 stars from 116 dog owner reviews. Open from 6am to 9pm daily, dog owners can easily fit a visit into busy schedules. More dog-friendly parks nearby include Shepard Park (0.0 miles) and Eagle Crest Park (1.5 miles)—perfect for pups who love adventure."
  },
  {
    "name": "Savannah Green Park",
    "street": "1010 Bull StNormal",
    "city": "Bloomington",
    "state": "IL",
    "zip": "61761",
    "latitude": 40.5238217,
    "longitude": -88.9725667,
    "description": "Dog owners in Bloomington have made Savannah Green Park at 1010 Bull St a go-to spot, rating it 4.6 stars across 63 reviews. Open from 6am to 11pm daily, the park works well for dog owners with different schedules. Dog owners exploring the neighborhood can also bring their furry friends to Maxwell Park (0.9 miles)."
  },
  {
    "name": "Ewing Park",
    "street": "901 Jersey Ave",
    "city": "Bloomington",
    "state": "IL",
    "zip": "61701",
    "latitude": 40.4994226,
    "longitude": -88.9625571,
    "description": "Dog owners in Bloomington have made Ewing Park at 901 Jersey Ave a go-to spot, rating it 4.6 stars across 20 reviews. Local dog owners appreciate what this park offers their four-legged friends. Other dog parks in the area include Ewing Park (0.7 miles) and Ewing Park (1.5 miles)—both great for exploring with your four-legged friend."
  },
  {
    "name": "Brookridge Park",
    "street": "2904 Ireland Grove Rd",
    "city": "Bloomington",
    "state": "IL",
    "zip": "61704",
    "latitude": 40.4588639,
    "longitude": -88.9481799,
    "description": "Brookridge Park (4.5 stars from 16 reviews) is a popular destination for Bloomington dog owners, located at 2904 Ireland Grove Rd. Dog owners frequent this park for its consistent quality and welcoming atmosphere. More dog-friendly parks nearby include Gaelic Park (1.1 miles) and Emerson Park (1.8 miles)—perfect for pups who love adventure."
  },
  {
    "name": "Walt Bittner Park",
    "street": "3807 Rave Rd",
    "city": "Bloomington",
    "state": "IL",
    "zip": "61704",
    "latitude": 40.5131232,
    "longitude": -88.9024992,
    "description": "With 4.5 stars from 84 reviews, Walt Bittner Park at 3807 Rave Rd has become a favorite among Bloomington dog owners. Open from 6am to 10pm daily, there's plenty of opportunity for dog owners to find a time that works. Dog owners exploring the neighborhood can also bring their furry friends to Eagle Crest Park (0.7 miles)."
  },
  {
    "name": "Gaelic Park",
    "street": "3102 Cave Creek Rd",
    "city": "Bloomington",
    "state": "IL",
    "zip": "61704",
    "latitude": 40.4629312,
    "longitude": -88.9286935,
    "description": "With 4.5 stars from 104 reviews, Gaelic Park at 3102 Cave Creek Rd has become a favorite among Bloomington dog owners. Open from 6am to 10pm daily, dog owners can plan visits around work or their pup's energy level. For variety, the neighborhood offers more dog parks to explore: Brookridge Park (1.1 miles) and McGraw Park (2.1 miles)."
  },
  {
    "name": "Eagle Crest Park",
    "street": "3302 Barrington Rd",
    "city": "Bloomington",
    "state": "IL",
    "zip": "61704",
    "latitude": 40.5131054,
    "longitude": -88.9154576,
    "description": "Dog owners in Bloomington have rated Eagle Crest Park (3302 Barrington Rd) 4.3 stars across 15 reviews. Open from 6am to 10pm daily, dog owners have a window to spend time with their pups. Looking to explore more? Walt Bittner Park is another dog-friendly park 0.7 miles from here."
  },
  {
    "name": "Emerson Park",
    "street": "E Bell St",
    "city": "Bloomington",
    "state": "IL",
    "zip": "61701",
    "latitude": 40.4722747,
    "longitude": -88.9777749,
    "description": "Emerson Park holds a 4.2-star rating from 21 Bloomington dog owner visits. Open from 6am to 9pm daily, dog owners have a window to spend time with their pups. For dog owners who like to explore, Ewing Park (0.6 miles) and Friendship Park (1.4 miles) are both nearby parks to try with your dog."
  },
  {
    "name": "Love's Travel Stop",
    "street": "2007 N Main StNormal",
    "city": "Bloomington",
    "state": "IL",
    "zip": "61761",
    "latitude": 40.5415237,
    "longitude": -88.9993596,
    "description": "Dog owners in Bloomington have rated Love's Travel Stop (2007 N Main St) 4.1 stars across 220 reviews. The park gives neighborhood dog owners a destination for outings with their four-legged friends. Looking to explore more? Maxwell Park is another dog-friendly park 1.7 miles from here."
  },
  {
    "name": "Friendship Park",
    "street": "301-399 N Allin St",
    "city": "Bloomington",
    "state": "IL",
    "zip": "61701",
    "latitude": 40.4803854,
    "longitude": -89.0017503,
    "description": "For dog owners near 301-399 N Allin St in Bloomington, Friendship Park provides a convenient spot to take their dogs. Open from 6am to 9pm daily, the park is accessible for dog owners in the area. Dog owners might also enjoy Emerson Park, another dog park just 1.4 miles away."
  },
  {
    "name": "Knoch Knolls Park",
    "street": "336 Knoch Knolls Rd",
    "city": "Bolingbrook",
    "state": "IL",
    "zip": "60565",
    "latitude": 41.71367,
    "longitude": -88.1431744,
    "description": "For dog owners in the Bolingbrook area, Knoch Knolls Park (336 Knoch Knolls Rd) offers a 4.8-star experience based on 677 reviews. Local dog owners appreciate what this park offers their four-legged friends. For variety, the neighborhood offers more dog parks to explore: Weigand Riverfront Park (0.7 miles) and Champions Park (0.9 miles)."
  },
  {
    "name": "DuPage River Park",
    "street": "808 Royce Rd",
    "city": "Bolingbrook",
    "state": "IL",
    "zip": "60440",
    "latitude": 41.7195209,
    "longitude": -88.0972922,
    "description": "DuPage River Park (4.7 stars from 229 reviews) is a popular destination for Bolingbrook dog owners, located at 808 Royce Rd. The park has earned its reputation among dog owners in the neighborhood as a reliable choice. Looking for more places to take your pup? Whalon Lake Dog Park is another popular dog park just 0.1 miles away."
  },
  {
    "name": "‍ James S. Boan Woods, Bolingbro",
    "street": "410 Schmidt Rd",
    "city": "Bolingbrook",
    "state": "IL",
    "zip": "60440",
    "latitude": 41.7090711,
    "longitude": -88.0868755,
    "description": "James S. Boan Woods, Bolingbro (4.8 stars from 21 reviews) is a popular destination for Bolingbrook dog owners, located at 410 Schmidt Rd. Open from 7am to 9pm daily, dog owners can easily fit a visit into busy schedules. Dog owners can also take their pups to nearby Trout Farm Park (0.2 miles) or Whalon Lake (0.3 miles)."
  },
  {
    "name": "‍ Oldfield Oaks",
    "street": "2525 87th StDarien",
    "city": "Bolingbrook",
    "state": "IL",
    "zip": "60561",
    "latitude": 41.7292564,
    "longitude": -88.0126929,
    "description": "Located at 2525 87th St in Bolingbrook, Oldfield Oaks earns strong marks from local dog owners—4.7 stars from 125 reviews. Dog owners in the area consistently choose this park as a go-to destination for their pups. Other dog parks in the area include Gateway Wetlands Park (1.6 miles) and Winston Woods Park (2.3 miles)—both great for exploring with your four-legged friend."
  },
  {
    "name": "Lily Cache Greenway",
    "street": "708 Lakewood Farms Dr",
    "city": "Bolingbrook",
    "state": "IL",
    "zip": "60490",
    "latitude": 41.6764445,
    "longitude": -88.1310933,
    "description": "At 708 Lakewood Farms Dr in Bolingbrook, Lily Cache Greenway has built a loyal following—4.8 stars from 19 dog owner reviews. The steady stream of dog owner visits speaks to the park's appeal. Dog owners exploring the neighborhood can also bring their furry friends to Bradford Park (0.6 miles)."
  },
  {
    "name": "DuPage River Greenway Trail",
    "street": "569 Concord Ln",
    "city": "Bolingbrook",
    "state": "IL",
    "zip": "60440",
    "latitude": 41.7170198,
    "longitude": -88.0702696,
    "description": "With 4.7 stars from 60 reviews, DuPage River Greenway Trail at 569 Concord Ln has become a favorite among Bolingbrook dog owners. Open from 6am to 8:30pm daily, dog owners can plan visits around work or their pup's energy level. Dog owners can also take their pups to nearby Winston Woods Park (0.8 miles) or James S. Boan Woods, Bolingbro (1.0 miles)."
  },
  {
    "name": "Rotary Park",
    "street": "470 E Briarcliff Rd",
    "city": "Bolingbrook",
    "state": "IL",
    "zip": "60440",
    "latitude": 41.6989935,
    "longitude": -88.0497124,
    "description": "Bolingbrook dog owners rate Rotary Park at 470 E Briarcliff Rd highly, with 4.8 stars from 10 visits. Open from 7am to 9pm daily, the park offers flexibility for dog owners with varying routines. For variety, the neighborhood offers more dog parks to explore: Schraeder Park (0.0 miles) and Knights of Columbus Park (0.7 miles)."
  },
  {
    "name": "Johansen Farm Park",
    "street": "710 W Boughton Rd",
    "city": "Bolingbrook",
    "state": "IL",
    "zip": "60440",
    "latitude": 41.7067454,
    "longitude": -88.0955319,
    "description": "Johansen Farm Park (4.7 stars from 30 reviews) is a popular destination for Bolingbrook dog owners, located at 710 W Boughton Rd. Open from 10am to 6pm daily, dog owners have plenty of flexibility to plan a visit. More dog-friendly parks nearby include St. Francis Park (0.2 miles) and Trout Farm Park (0.4 miles)—perfect for pups who love adventure."
  },
  {
    "name": "Prairie Trails Park",
    "street": "1370 Danhof Dr",
    "city": "Bolingbrook",
    "state": "IL",
    "zip": "60490",
    "latitude": 41.647504,
    "longitude": -88.1696077,
    "description": "At 1370 Danhof Dr in Bolingbrook, Prairie Trails Park has built a loyal following—4.7 stars from 13 dog owner reviews. Open from 7am to 9pm daily, the park accommodates early risers and evening visitors alike. For variety, the neighborhood offers more dog parks to explore: Freedom Park (2.1 miles) and Veterans Park (2.4 miles)."
  },
  {
    "name": "Bradford Park",
    "street": "490 Bradford Pl",
    "city": "Bolingbrook",
    "state": "IL",
    "zip": "60490",
    "latitude": 41.6835059,
    "longitude": -88.1235891,
    "description": "Bradford Park (4.7 stars from 10 reviews) is a popular destination for Bolingbrook dog owners, located at 490 Bradford Pl. Open from 7am to 9pm daily, dog owners can plan visits around work or their pup's energy level. For variety, the neighborhood offers more dog parks to explore: Lily Cache Greenway (0.6 miles) and Lilac Park (1.2 miles)."
  },
  {
    "name": "Veterans Park",
    "street": "1877 Leeds Rd",
    "city": "Bolingbrook",
    "state": "IL",
    "zip": "60490",
    "latitude": 41.6795372,
    "longitude": -88.1495865,
    "description": "Veterans Park (4.6 stars from 14 reviews) is a popular destination for Bolingbrook dog owners, located at 1877 Leeds Rd. Open from 7am to 9pm daily, the park works well for dog owners with different schedules. Dog owners can also take their pups to nearby Freedom Park (0.7 miles) or Lily Cache Greenway (1.0 miles)."
  },
  {
    "name": "Gateway Wetlands Park",
    "street": "680 Feather Sound Dr",
    "city": "Bolingbrook",
    "state": "IL",
    "zip": "60440",
    "latitude": 41.7219822,
    "longitude": -88.0423929,
    "description": "For dog owners in the Bolingbrook area, Gateway Wetlands Park (680 Feather Sound Dr) offers a 4.6-star experience based on 28 reviews. Open from 7am to 9pm daily, the park works well for dog owners with different schedules. Dog owners exploring the neighborhood can also bring their furry friends to Winston Woods Park (0.7 miles)."
  },
  {
    "name": "Meyer Park",
    "street": "267 W Briarcliff Rd",
    "city": "Bolingbrook",
    "state": "IL",
    "zip": "60440",
    "latitude": 41.6982118,
    "longitude": -88.0766071,
    "description": "For dog owners in the Bolingbrook area, Meyer Park (267 W Briarcliff Rd) offers a 4.6-star experience based on 33 reviews. The park has earned its reputation among dog owners in the neighborhood as a reliable choice. Looking for more places to take your pup? Lions Park is another popular dog park just 0.1 miles away."
  },
  {
    "name": "Schraeder Park",
    "street": "469 E Briarcliff Rd",
    "city": "Bolingbrook",
    "state": "IL",
    "zip": "60440",
    "latitude": 41.6988162,
    "longitude": -88.0502723,
    "description": "Located at 469 E Briarcliff Rd in Bolingbrook, Schraeder Park earns strong marks from local dog owners—4.6 stars from 73 reviews. Open from 7am to 9pm daily, the park offers flexibility for dog owners with varying routines. Other dog parks in the area include Rotary Park (0.0 miles) and Knights of Columbus Park (0.7 miles)—both great for exploring with your four-legged friend."
  },
  {
    "name": "Discovery Park",
    "street": "300 S Highpoint DrRomeoville",
    "city": "Bolingbrook",
    "state": "IL",
    "zip": "60446",
    "latitude": 41.6212899,
    "longitude": -88.1243653,
    "description": "With 4.6 stars from 92 reviews, Discovery Park at 300 S Highpoint Dr has become a favorite among Bolingbrook dog owners. For dog owners in the area, this park has become a trusted spot for time with their pups. For a change of scenery, Jaycee Park is another dog-friendly destination 1.4 miles from here."
  },
  {
    "name": "Champaign Bark District",
    "street": "5001 Windsor Rd",
    "city": "Champaign",
    "state": "IL",
    "zip": "61822",
    "latitude": 40.0840869,
    "longitude": -88.3268686,
    "description": "Champaign Bark District at 5001 Windsor Rd holds a 4.3-star rating from 223 Champaign dog owner visits. Open from 5am to 9pm daily, the park gives dog owners in the neighborhood time to bring their pups. Dog owners can find more details about this park in the reviews from other visitors."
  },
  {
    "name": "Urbana Dog Park",
    "street": "1501 E Perkins RdUrbana",
    "city": "Champaign",
    "state": "IL",
    "zip": "61802",
    "latitude": 40.1276008,
    "longitude": -88.189869,
    "description": "Dog owners in Champaign have rated Urbana Dog Park (1501 E Perkins Rd) 4.3 stars across 211 reviews. Open from 5am to 8pm daily, dog owners can stop by when it fits their schedule. Dog owners visiting for the first time may want to read recent reviews to learn what to expect."
  },
  {
    "name": "Lakeshore East Park",
    "street": "450 E Benton Pl",
    "city": "Chicago",
    "state": "IL",
    "zip": "60601",
    "latitude": 41.8854349,
    "longitude": -87.6164075,
    "description": "Dog owners in Chicago have made Lakeshore East Park at 450 E Benton Pl a go-to spot, rating it 4.8 stars across 535 reviews. Open from 6am to 11pm daily, the park accommodates early risers and evening visitors alike. Dog owners can also take their pups to nearby Millennium Park (0.8 miles) or Challenger Dog Friendly Area (0.8 miles)."
  },
  {
    "name": "Anderson (Fred) Park",
    "street": "1629 S Wabash Ave",
    "city": "Chicago",
    "state": "IL",
    "zip": "60616",
    "latitude": 41.8541257,
    "longitude": -87.6255422,
    "description": "Dog owners in Chicago have made Anderson (Fred) Park at 1629 S Wabash Ave a go-to spot, rating it 4.8 stars across 283 reviews. Open from 6am to 11pm daily, the park offers flexibility for dog owners with varying routines. More dog-friendly parks nearby include Fred Anderson Dog Friendly (0.0 miles) and South Loop Action Cooperative (0.6 miles)—perfect for pups who love adventure."
  },
  {
    "name": "The West Loop 569 Dog Friendly",
    "street": "1358 W Monroe St",
    "city": "Chicago",
    "state": "IL",
    "zip": "60607",
    "latitude": 41.8806101,
    "longitude": -87.6616767,
    "description": "Chicago dog owners rate The West Loop 569 Dog Friendly at 1358 W Monroe St highly, with 4.8 stars from 191 visits. Open from 8am to 8pm daily, there's plenty of opportunity for dog owners to find a time that works. For a change of scenery, Bartelme (Mary) Park is another dog-friendly destination 0.6 miles from here."
  },
  {
    "name": "‍ Fred Anderson Dog Friendly",
    "street": "1623 S Wabash Ave",
    "city": "Chicago",
    "state": "IL",
    "zip": "60616",
    "latitude": 41.8541257,
    "longitude": -87.6255422,
    "description": "Fred Anderson Dog Friendly at 1623 S Wabash Ave is well-regarded by Chicago dog owners, holding 5.0 stars across 12 reviews. Local dog owners appreciate what this park offers their four-legged friends. Dog owners can also take their pups to nearby Anderson (Fred) Park (0.0 miles) or South Loop Action Cooperative (0.6 miles)."
  },
  {
    "name": "‍ Bronzeville Dog Park",
    "street": "4153 S Vincennes Ave",
    "city": "Chicago",
    "state": "IL",
    "zip": "60653",
    "latitude": 41.8191533,
    "longitude": -87.6135228,
    "description": "Bronzeville Dog Park at 4153 S Vincennes Ave is well-regarded by Chicago dog owners, holding 4.8 stars across 51 reviews. For dog owners in the area, this park has become a trusted spot for time with their pups. Looking for more places to take your pup? Bronzeville Dog Park is another popular dog park just 0.5 miles away."
  },
  {
    "name": "Wentworth Park",
    "street": "5631 S Narragansett Ave",
    "city": "Chicago",
    "state": "IL",
    "zip": "60638",
    "latitude": 41.7899042,
    "longitude": -87.781606,
    "description": "Located at 5631 S Narragansett Ave in Chicago, Wentworth Park earns strong marks from local dog owners—4.8 stars from 18 reviews. Open from 6am to 11pm daily, the park offers flexibility for dog owners with varying routines. Looking for more places to take your pup? Vittum (Harriet Elizabeth) is another popular dog park just 1.9 miles away."
  },
  {
    "name": "Millennium Park",
    "street": "201 E Randolph St",
    "city": "Chicago",
    "state": "IL",
    "zip": "60602",
    "latitude": 41.8755616,
    "longitude": -87.6244212,
    "description": "With 85,001 reviews and a 4.7-star rating, Millennium Park (201 E Randolph St) has become a landmark for Chicago dog owners. Open from 6am to 11pm daily, dog owners can find the perfect time for their furry friend. Dog owners in the area also frequent Challenger Dog Friendly Area (0.0 miles)—another top dog park worth visiting with your pup."
  },
  {
    "name": "Lincoln (Abraham) Park",
    "street": "500-5700 N Lake Shore Dr",
    "city": "Chicago",
    "state": "IL",
    "zip": "60614",
    "latitude": 41.9335596,
    "longitude": -87.6362425,
    "description": "Lincoln (Abraham) Park at 500-5700 N Lake Shore Dr is one of the most beloved dog parks in Chicago—4.7 stars from an incredible 20,613 reviews. Open from 6am to 11pm daily, dog owners can find the perfect time for their furry friend. Dog owners exploring the area should also bring their pups to Wiggly Field Dog Park (0.9 miles) and Sedgwick Park (1.3 miles)."
  },
  {
    "name": "Humboldt (Alexander Von) Park",
    "street": "1400 N Humboldt Dr",
    "city": "Chicago",
    "state": "IL",
    "zip": "60622",
    "latitude": 41.9060991,
    "longitude": -87.7057691,
    "description": "For Chicago dog owners, Humboldt (Alexander Von) Park at 1400 N Humboldt Dr has become a reliable favorite—4.7 stars from 3,610 reviews. Open from 6am to 11pm daily, dog owners can easily fit a visit into their day, whether morning or evening. Looking to mix things up? Wicker Park is a nearby dog park 1.5 miles away that's worth exploring with your pup."
  },
  {
    "name": "Winnemac Park",
    "street": "5100 N Leavitt St",
    "city": "Chicago",
    "state": "IL",
    "zip": "60625",
    "latitude": 41.974143,
    "longitude": -87.684336,
    "description": "At 5100 N Leavitt St in Chicago, Winnemac Park stands out with 4.7 stars from 1,428 happy dog owners. Open from 6am to 11pm daily, it's easy for dog owners to stop by whenever works best. Other popular dog parks nearby include River Park (0.9 miles) and Horner (Henry) Park (1.1 miles)—both favorites among local pup parents."
  },
  {
    "name": "Bartelme (Mary) Park",
    "street": "115 S Sangamon St",
    "city": "Chicago",
    "state": "IL",
    "zip": "60607",
    "latitude": 41.8801626,
    "longitude": -87.6507035,
    "description": "Local dog owners love Bartelme (Mary) Park at 115 S Sangamon St in Chicago—4.7 stars from an impressive 1,124 reviews. Open from 6am to 11pm daily, the park is convenient for before work, after work, or weekend adventures. Dog owners in the area also love bringing their pups to The West Loop 569 Dog Friendly (0.6 miles) and Fulton River Park (0.7 miles)."
  },
  {
    "name": "Walsh (John) Park",
    "street": "1722 N Ashland Ave",
    "city": "Chicago",
    "state": "IL",
    "zip": "60622",
    "latitude": 41.9131399,
    "longitude": -87.6678716,
    "description": "At 1722 N Ashland Ave in Chicago, Walsh (John) Park has built a loyal following—4.7 stars from 698 dog owner reviews. Open from 6am to 11pm daily, dog owners can easily fit a visit into busy schedules. Other dog parks in the area include Walsh Park (0.0 miles) and Doggy Paddle Aquatic Center (0.2 miles)—both great for exploring with your four-legged friend."
  },
  {
    "name": "‍ Jackson Bark",
    "street": "6000 S Lake Shore Dr",
    "city": "Chicago",
    "state": "IL",
    "zip": "60637",
    "latitude": 41.9838853,
    "longitude": -87.6527024,
    "description": "For dog owners in the Chicago area, Jackson Bark (6000 S Lake Shore Dr) offers a 4.7-star experience based on 596 reviews. Open from 6am to 9pm daily, there's room in the day for dog owners to bring their furry friends. Looking for more places to take your pup? Winnemac Park is another popular dog park just 1.8 miles away."
  },
  {
    "name": "Horner Park",
    "street": "2770 W Irving Park Rd",
    "city": "Chicago",
    "state": "IL",
    "zip": "60618",
    "latitude": 41.9540596,
    "longitude": -87.6976073,
    "description": "Chicago dog owners rate Horner Park at 2770 W Irving Park Rd highly, with 4.7 stars from 531 visits. Open from 6am to 11pm daily, there's plenty of opportunity for dog owners to find a time that works. More dog-friendly parks nearby include Horner (Henry) Park (0.5 miles) and River Park (1.4 miles)—perfect for pups who love adventure."
  },
  {
    "name": "Sedgwick Park",
    "street": "1830 N Sedgwick St",
    "city": "Chicago",
    "state": "IL",
    "zip": "60614",
    "latitude": 41.915331,
    "longitude": -87.6388343,
    "description": "With 4.6 stars from 23 reviews, Sedgwick Park at 1830 N Sedgwick St has become a favorite among Chicago dog owners. The park has earned its reputation among dog owners in the neighborhood as a reliable choice. Dog owners can also take their pups to nearby Doggy Paddle Aquatic Center (1.3 miles) or Lincoln (Abraham) Park (1.3 miles)."
  },
  {
    "name": "Katherine Legge Memorial Park",
    "street": "5901 S County Line RdHinsdale",
    "city": "Cicero",
    "state": "IL",
    "zip": "60521",
    "latitude": 41.7814841,
    "longitude": -87.9168208,
    "description": "With 4.7 stars from 717 reviews, Katherine Legge Memorial Park at 5901 S County Line Rd has become a favorite among Cicero dog owners. Open from 6am to 9pm daily, the park accommodates early risers and evening visitors alike. Dog owners exploring the neighborhood can also bring their furry friends to Oldfield Oaks Dog Park (3.6 miles)."
  },
  {
    "name": "‍ Ridgeland Common Park",
    "street": "Lake StOak Park",
    "city": "Cicero",
    "state": "IL",
    "zip": "60302",
    "latitude": 41.8881708,
    "longitude": -87.7800296,
    "description": "Ridgeland Common Park is well-regarded by Cicero dog owners, holding 4.7 stars across 295 reviews. The park has earned its reputation among dog owners in the neighborhood as a reliable choice. Dog owners can also take their pups to nearby Ridgeland Common Dog Park (0.4 miles) or Fox Center & Park (1.0 miles)."
  },
  {
    "name": "‍ Fox Center & Park",
    "street": "624 S Oak Park AveOak Park",
    "city": "Cicero",
    "state": "IL",
    "zip": "60304",
    "latitude": 41.8774245,
    "longitude": -87.794061,
    "description": "Fox Center & Park at 624 S Oak Park Ave is well-regarded by Cicero dog owners, holding 4.6 stars across 165 reviews. Open from 6am to 10pm daily, dog owners can plan visits around work or their pup's energy level. Looking for more places to take your pup? Ridgeland Common Dog Park is another popular dog park just 0.8 miles away."
  },
  {
    "name": "Oldfield Oaks Dog Park",
    "street": "",
    "city": "Cicero",
    "state": "IL",
    "zip": "",
    "latitude": 41.7508713,
    "longitude": -87.9739593,
    "description": "Oldfield Oaks Dog Park is well-regarded by Cicero dog owners, holding 4.6 stars across 155 reviews. Open from 7am to 8pm daily, the park works well for dog owners with different schedules. Nearby, Oldfield Oaks (2.5 miles) offers dog owners another great spot to explore with their pups."
  },
  {
    "name": "Miller Meadow",
    "street": "2175 S 1st AveForest Park",
    "city": "Cicero",
    "state": "IL",
    "zip": "60130",
    "latitude": 41.8649417,
    "longitude": -87.8335029,
    "description": "With 4.5 stars from 675 reviews, Miller Meadow at 2175 S 1st Ave has become a favorite among Cicero dog owners. Dog owners looking for a solid destination will find this park delivers. For a change of scenery, Miller Meadow Off-Leash Dog is another dog-friendly destination 1.4 miles from here."
  },
  {
    "name": "‍ Barrie Park",
    "street": "127 Garfield StOak Park",
    "city": "Cicero",
    "state": "IL",
    "zip": "60302",
    "latitude": 41.8707751,
    "longitude": -87.7782104,
    "description": "For dog owners in the Cicero area, Barrie Park (127 Garfield St) offers a 4.5-star experience based on 386 reviews. Open from 6am to 10pm daily, the park accommodates early risers and evening visitors alike. Looking for more places to take your pup? Euclid Square Park is another popular dog park just 0.3 miles away."
  },
  {
    "name": "Safety Park",
    "street": "5498 W 34th St",
    "city": "Cicero",
    "state": "IL",
    "zip": "60804",
    "latitude": 41.831037,
    "longitude": -87.760734,
    "description": "Located at 5498 W 34th St in Cicero, Safety Park earns strong marks from local dog owners—4.5 stars from 273 reviews. The park has earned its reputation among dog owners in the neighborhood as a reliable choice. Looking for more places to take your pup? Cicero's Park is another popular dog park just 0.5 miles away."
  },
  {
    "name": "Laramie Park",
    "street": "1634 S Laramie Ave",
    "city": "Cicero",
    "state": "IL",
    "zip": "60804",
    "latitude": 41.857881,
    "longitude": -87.7543924,
    "description": "For dog owners in the Cicero area, Laramie Park (1634 S Laramie Ave) offers a 4.5-star experience based on 244 reviews. The park serves dog owners well, providing a destination the community values. For variety, the neighborhood offers more dog parks to explore: Cicero Waggin' Tails Animal (0.1 miles) and Holmes Park (0.2 miles)."
  },
  {
    "name": "Euclid Square Park",
    "street": "705 W. FillmoreOak Park",
    "city": "Cicero",
    "state": "IL",
    "zip": "60304",
    "latitude": 41.8672094,
    "longitude": -87.7792009,
    "description": "Cicero dog owners rate Euclid Square Park at 705 W. Fillmore highly, with 4.5 stars from 195 visits. Open from 6am to 10pm daily, dog owners can plan visits around work or their pup's energy level. Dog owners can also take their pups to nearby Barrie Park (0.3 miles) or Fox Center & Park (1.0 miles)."
  },
  {
    "name": "Freedom Park",
    "street": "3701 Scoville AveBerwyn",
    "city": "Cicero",
    "state": "IL",
    "zip": "60402",
    "latitude": 41.823591,
    "longitude": -87.786353,
    "description": "With 4.5 stars from 133 reviews, Freedom Park at 3701 Scoville Ave has become a favorite among Cicero dog owners. Open from 6am to 10pm daily, dog owners can plan visits around work or their pup's energy level. More dog-friendly parks nearby include Veterans Memorial Park (0.4 miles) and Haley Park (0.5 miles)—perfect for pups who love adventure."
  },
  {
    "name": "Smirz Park",
    "street": "3400 Highland AveBerwyn",
    "city": "Cicero",
    "state": "IL",
    "zip": "60402",
    "latitude": 41.830533,
    "longitude": -87.780619,
    "description": "Smirz Park (4.5 stars from 79 reviews) is a popular destination for Cicero dog owners, located at 3400 Highland Ave. Dog owners looking for a solid destination will find this park delivers. Dog owners can also take their pups to nearby Freedom Park (0.6 miles) or Janura Park (0.7 miles)."
  },
  {
    "name": "Veterans Memorial Park",
    "street": "4101 Ridgeland AveStickney",
    "city": "Cicero",
    "state": "IL",
    "zip": "60402",
    "latitude": 41.817774,
    "longitude": -87.782495,
    "description": "At 4101 Ridgeland Ave in Cicero, Veterans Memorial Park carries 4.4 stars from 56 dog owner reviews. The park gives neighborhood dog owners a destination for outings with their four-legged friends. For pups who want more adventure, Haley Park is a nearby dog park worth visiting (0.2 miles)."
  },
  {
    "name": "Miller Meadow Off-Leash Dog",
    "street": "",
    "city": "Cicero",
    "state": "IL",
    "zip": "",
    "latitude": 41.8794989,
    "longitude": -87.8136997,
    "description": "Miller Meadow Off-Leash Dog in Cicero has 4.4 stars from 67 dog owner reviews. The park gives neighborhood dog owners a destination for outings with their four-legged friends. For dog owners who like to explore, Fox Center & Park (1.0 miles) and Miller Meadow (1.4 miles) are both nearby parks to try with your dog."
  },
  {
    "name": "Janura Park",
    "street": "6601 W 28th StBerwyn",
    "city": "Cicero",
    "state": "IL",
    "zip": "60402",
    "latitude": 41.8398581,
    "longitude": -87.7758894,
    "description": "229 dog owners have reviewed Janura Park at 6601 W 28th St in Cicero, averaging 4.4 stars. Open from 6am to 10:30pm daily, the park is accessible for dog owners in the area. Dog owners in the neighborhood can also take their furry friends to Smirz Park, 0.7 miles away."
  },
  {
    "name": "Mraz Park",
    "street": "",
    "city": "Cicero",
    "state": "IL",
    "zip": "",
    "latitude": 41.8505874,
    "longitude": -87.7936685,
    "description": "Mraz Park in Cicero has 4.3 stars from 65 dog owner reviews. Open from 6am to 10pm daily, dog owners have a window to spend time with their pups. Dog owners might also enjoy Janura Park, another dog park just 1.2 miles away."
  },
  {
    "name": "Cicero's Park",
    "street": "5102 31st Pl",
    "city": "Cicero",
    "state": "IL",
    "zip": "60804",
    "latitude": 41.8357175,
    "longitude": -87.7521886,
    "description": "At 5102 31st Pl in Cicero, Cicero's Park carries 4.2 stars from 35 dog owner reviews. Open from 6am to 10:30pm daily, the park is accessible for dog owners in the area. Looking to explore more? Safety Park is another dog-friendly park 0.5 miles from here."
  },
  {
    "name": "Fairview Park",
    "street": "2095 W Eldorado St",
    "city": "Decatur",
    "state": "IL",
    "zip": "62522",
    "latitude": 39.8451522,
    "longitude": -88.9893029,
    "description": "At 2095 W Eldorado St in Decatur, Fairview Park has built a loyal following—4.6 stars from 814 dog owner reviews. Open from 6am to 10pm daily, dog owners have plenty of flexibility to plan a visit. Looking for more places to take your pup? Decatur Park is another popular dog park just 2.5 miles away."
  },
  {
    "name": "Nelson Park",
    "street": "2475 E Pavilion Dr",
    "city": "Decatur",
    "state": "IL",
    "zip": "62521",
    "latitude": 39.8354786,
    "longitude": -88.9196104,
    "description": "With 4.5 stars across 1,033 reviews, Nelson Park at 2475 E Pavilion Dr has clearly won over Decatur dog owners. Open from 6am to 10pm daily, dog owners can easily fit a visit into their day, whether morning or evening. For more dog park adventures, explore (Members only)Nelson Park (0.6 miles) or Decatur Park (1.6 miles) with your furry companion."
  },
  {
    "name": "(Members only)Nelson Park",
    "street": "2240 E Cantrell St",
    "city": "Decatur",
    "state": "IL",
    "zip": "62521",
    "latitude": 39.8336388,
    "longitude": -88.9307767,
    "description": "77 dog owners have reviewed (Members only)Nelson Park at 2240 E Cantrell St in Decatur, averaging 4.3 stars. Open from 6am to 10pm daily, local dog owners have time to explore with their furry companions. More dog parks in the area include Nelson Park (0.6 miles) and Decatur Park (1.0 miles)—great options for mixing up your pup's routine."
  },
  {
    "name": "Decatur Park",
    "street": "620 E Riverside Ave",
    "city": "Decatur",
    "state": "IL",
    "zip": "62521",
    "latitude": 39.8274577,
    "longitude": -88.9479184,
    "description": "For dog owners in Decatur, Decatur Park at 620 E Riverside Ave has a 4.2-star rating (110 reviews). Open from 8am to 5pm weekdays, the park is accessible for dog owners in the area. More dog parks in the area include (Members only)Nelson Park (1.0 miles) and Nelson Park (1.6 miles)—great options for mixing up your pup's routine."
  },
  {
    "name": "Brent Leh Dog Park",
    "street": "328 Olive StEdwardsville",
    "city": "‍ Edwardsville",
    "state": "IL",
    "zip": "62025",
    "latitude": 38.808108,
    "longitude": -89.9611548,
    "description": "Brent Leh Dog Park (4.7 stars from 165 reviews) is a popular destination for Edwardsville dog owners, located at 328 Olive St. Open from 6am to 9pm daily, there's plenty of opportunity for dog owners to find a time that works. Based on the reviews, dog owners can expect a reliable spot for spending time with their pup."
  },
  {
    "name": "SEBA Park",
    "street": "151 S Water St",
    "city": "Elgin",
    "state": "IL",
    "zip": "60177",
    "latitude": 41.9928575,
    "longitude": -88.29566,
    "description": "At 151 S Water St in Elgin, SEBA Park has built a loyal following—4.7 stars from 553 dog owner reviews. Open from 5am to 9pm daily, the park accommodates early risers and evening visitors alike. Nearby, Panton Mill Park (0.1 miles) offers dog owners another great spot to explore with their pups."
  },
  {
    "name": "Panton Mill Park",
    "street": "9 N Water St",
    "city": "Elgin",
    "state": "IL",
    "zip": "60177",
    "latitude": 41.9944217,
    "longitude": -88.295518,
    "description": "Dog owners in Elgin have made Panton Mill Park at 9 N Water St a go-to spot, rating it 4.7 stars across 268 reviews. Open from 5am to 9pm daily, there's plenty of opportunity for dog owners to find a time that works. For variety, the neighborhood offers more dog parks to explore: SEBA Park (0.1 miles) and Sperry Park (1.0 miles)."
  },
  {
    "name": "‍ Hawthorne Hill Nature Center",
    "street": "28 Brookside Dr",
    "city": "Elgin",
    "state": "IL",
    "zip": "60123",
    "latitude": 42.0353774,
    "longitude": -88.3379009,
    "description": "With 4.7 stars from 169 reviews, Hawthorne Hill Nature Center at 28 Brookside Dr has become a favorite among Elgin dog owners. The park serves dog owners well, providing a destination the community values. For variety, the neighborhood offers more dog parks to explore: Randall Ridge Park (0.8 miles) and Eagle/Burnidge Park (1.3 miles)."
  },
  {
    "name": "‍ Fitchie Creek Forest Preserve",
    "street": "39W993 Russell Rd",
    "city": "Elgin",
    "state": "IL",
    "zip": "60124",
    "latitude": 42.0227501,
    "longitude": -88.3947878,
    "description": "Dog owners in Elgin have made Fitchie Creek Forest Preserve at 39W993 Russell Rd a go-to spot, rating it 4.7 stars across 165 reviews. Dog owners looking for a solid destination will find this park delivers. For a change of scenery, Copper Springs Park is another dog-friendly destination 1.2 miles from here."
  },
  {
    "name": "Bowes Creek Woods Forest Prese",
    "street": "9N420 Crawford Rd",
    "city": "Elgin",
    "state": "IL",
    "zip": "60124",
    "latitude": 42.0112812,
    "longitude": -88.4403928,
    "description": "Located at 9N420 Crawford Rd in Elgin, Bowes Creek Woods Forest Prese earns strong marks from local dog owners—4.7 stars from 48 reviews. Open from 7am to 5pm daily, the park accommodates early risers and evening visitors alike. Looking for more places to take your pup? Fitchie Creek Forest Preserve is another popular dog park just 2.5 miles away."
  },
  {
    "name": "Lords Park",
    "street": "100 Oakwood Blvd",
    "city": "Elgin",
    "state": "IL",
    "zip": "60120",
    "latitude": 42.0389349,
    "longitude": -88.2617088,
    "description": "Lords Park at 100 Oakwood Blvd in Elgin is a community favorite, with 1,210 dog owners giving it 4.6 stars. Dog owners in the area know they can count on this park for quality time with their pups. For more dog park adventures, explore Arthur L. Janura Preserve (0.6 miles) or Prairie Park (0.6 miles) with your furry companion."
  },
  {
    "name": "Schweitzer Woods Forest Preser",
    "street": "16N690 Sleepy Hollow RdWest Dundee",
    "city": "Elgin",
    "state": "IL",
    "zip": "60118",
    "latitude": 42.1052072,
    "longitude": -88.3204611,
    "description": "At 16N690 Sleepy Hollow Rd in Elgin, Schweitzer Woods Forest Preser has built a loyal following—4.6 stars from 458 dog owner reviews. For dog owners in the area, this park has become a trusted spot for time with their pups. Dog owners can also take their pups to nearby William C. Bartels Park (2.2 miles) or Tyler Creek Forest Preserve (3.3 miles)."
  },
  {
    "name": "Hawk Hollow Forest Preserve",
    "street": "",
    "city": "Elgin",
    "state": "IL",
    "zip": "",
    "latitude": 41.9908485,
    "longitude": -88.1850028,
    "description": "With 4.6 stars from 316 reviews, Hawk Hollow Forest Preserve has become a favorite among Elgin dog owners. Open from 6:30am to 8pm daily, the park works well for dog owners with different schedules. Other dog parks in the area include Hawk Hollow Dog Park (1.7 miles) and Riley's Run Dog Park (2.7 miles)—both great for exploring with your four-legged friend."
  },
  {
    "name": "Tyler Creek Forest Preserve",
    "street": "401 Davis Rd",
    "city": "Elgin",
    "state": "IL",
    "zip": "60123",
    "latitude": 42.062372,
    "longitude": -88.292578,
    "description": "At 401 Davis Rd in Elgin, Tyler Creek Forest Preserve has built a loyal following—4.6 stars from 224 dog owner reviews. Open from 5am to 5pm daily, dog owners can easily fit a visit into busy schedules. Dog owners exploring the neighborhood can also bring their furry friends to Wing Street Park (1.2 miles)."
  },
  {
    "name": "‍ Rolling Knolls Forest Preserve",
    "street": "11N260 Rohrssen Rd",
    "city": "Elgin",
    "state": "IL",
    "zip": "60120",
    "latitude": 42.0406133,
    "longitude": -88.2250174,
    "description": "With 4.6 stars from 186 reviews, Rolling Knolls Forest Preserve at 11N260 Rohrssen Rd has become a favorite among Elgin dog owners. Open from 7am to 8pm daily, dog owners can plan visits around work or their pup's energy level. More dog-friendly parks nearby include Freedom Run Dog Park (1.2 miles) and Arthur L. Janura Preserve (1.7 miles)—perfect for pups who love adventure."
  },
  {
    "name": "Riley's Run Dog Park",
    "street": "650 Lambert LnBartlett",
    "city": "Elgin",
    "state": "IL",
    "zip": "60103",
    "latitude": 42.0102058,
    "longitude": -88.2312325,
    "description": "At 650 Lambert Ln in Elgin, Riley's Run Dog Park has built a loyal following—4.6 stars from 112 dog owner reviews. Open from 6:30am to 7pm daily, the park offers flexibility for dog owners with varying routines. Other dog parks in the area include Prairie Park (2.0 miles) and Rolling Knolls Forest Preserve (2.1 miles)—both great for exploring with your four-legged friend."
  },
  {
    "name": "‍ Eagle/Burnidge Park",
    "street": "1600 Eagle Rd",
    "city": "Elgin",
    "state": "IL",
    "zip": "60123",
    "latitude": 42.0465999,
    "longitude": -88.3164075,
    "description": "Eagle/Burnidge Park (4.6 stars from 40 reviews) is a popular destination for Elgin dog owners, located at 1600 Eagle Rd. The steady stream of dog owner visits speaks to the park's appeal. Nearby, Wing Park (0.6 miles) offers dog owners another great spot to explore with their pups."
  },
  {
    "name": "Primrose Farm Park",
    "street": "37 W 755 Bolcum Road",
    "city": "Elgin",
    "state": "IL",
    "zip": "60175",
    "latitude": 41.9546378,
    "longitude": -88.3544474,
    "description": "Elgin dog owners rate Primrose Farm Park at 37 W 755 Bolcum Road highly, with 4.6 stars from 35 visits. The park serves dog owners well, providing a destination the community values. Looking for more places to take your pup? Otter Creek Forest Preserve is another popular dog park just 3.1 miles away."
  },
  {
    "name": "Randall Ridge Park",
    "street": "2835 Winchester Dr",
    "city": "Elgin",
    "state": "IL",
    "zip": "60124",
    "latitude": 42.0396096,
    "longitude": -88.3523199,
    "description": "Dog owners in Elgin have made Randall Ridge Park at 2835 Winchester Dr a go-to spot, rating it 4.6 stars across 21 reviews. Dog owners frequent this park for its consistent quality and welcoming atmosphere. Dog owners exploring the neighborhood can also bring their furry friends to Hawthorne Hill Nature Center (0.8 miles)."
  },
  {
    "name": "Wing Street Park",
    "street": "638 Wing St",
    "city": "Elgin",
    "state": "IL",
    "zip": "60123",
    "latitude": 42.045255,
    "longitude": -88.2946837,
    "description": "Wing Street Park (4.5 stars from 22 reviews) is a popular destination for Elgin dog owners, located at 638 Wing St. For dog owners in the area, this park has become a trusted spot for time with their pups. Other dog parks in the area include Wing Park (0.5 miles) and Marie Grolich Park (0.9 miles)—both great for exploring with your four-legged friend."
  },
  {
    "name": "William C. Bartels Park",
    "street": "104 Barrington AveEast Dundee",
    "city": "Elgin",
    "state": "IL",
    "zip": "60118",
    "latitude": 42.101392,
    "longitude": -88.2780943,
    "description": "William C. Bartels Park (4.5 stars from 107 reviews) is a popular destination for Elgin dog owners, located at 104 Barrington Ave. Open from 6am to 7pm daily, the park accommodates early risers and evening visitors alike. Dog owners can also take their pups to nearby Schweitzer Woods Forest Preser (2.2 miles) or Tyler Creek Forest Preserve (2.8 miles)."
  },
  {
    "name": "Dog Beach",
    "street": "1631 Sheridan Rd",
    "city": "Evanston",
    "state": "IL",
    "zip": "60201",
    "latitude": 42.0464059,
    "longitude": -87.6731484,
    "description": "Dog owners in Evanston have rated Dog Beach (1631 Sheridan Rd) 4.2 stars across 79 reviews. Open from 7am to 7:30pm daily, the park fits conveniently into different routines. Looking to explore more? Pottawattomie Park is another dog-friendly park 2.0 miles from here."
  },
  {
    "name": "Hammel Woods - DuPage River",
    "street": "23435 W Black RdShorewood",
    "city": "Joliet",
    "state": "IL",
    "zip": "60431",
    "latitude": 41.5361338,
    "longitude": -88.18557,
    "description": "Dog owners in Joliet have made Hammel Woods - DuPage River at 23435 W Black Rd a go-to spot, rating it 4.7 stars across 887 reviews. Dog owners in the area consistently choose this park as a go-to destination for their pups. Looking for more places to take your pup? Hammel Woods Dog Park is another popular dog park just 1.4 miles away."
  },
  {
    "name": "Trantina Farms Dog Park",
    "street": "15707 W 151st StHomer Glen",
    "city": "Joliet",
    "state": "IL",
    "zip": "60491",
    "latitude": 41.6129328,
    "longitude": -88.0004047,
    "description": "Trantina Farms Dog Park (4.6 stars from 139 reviews) is a popular destination for Joliet dog owners, located at 15707 W 151st St. Open from 6am to 7pm daily, the park works well for dog owners with different schedules. For variety, the neighborhood offers more dog parks to explore: Messenger Marsh (3.8 miles) and Volunteer Park (4.9 miles)."
  },
  {
    "name": "Daisy Dog Park",
    "street": "13214 Blakely DrPlainfield",
    "city": "Joliet",
    "state": "IL",
    "zip": "60585",
    "latitude": 41.6408447,
    "longitude": -88.2423398,
    "description": "At 13214 Blakely Dr, Daisy Dog Park has 4.4 stars based on 110 reviews from Joliet dog owners. Open from 7am to 7pm daily, dog owners have a window to spend time with their pups. Dog owners might also enjoy Prairie Trails Park, another dog park just 3.8 miles away."
  },
  {
    "name": "Butterworth Dog Park",
    "street": "15th Street &8th Ave",
    "city": "Moline",
    "state": "IL",
    "zip": "61265",
    "latitude": 41.4913818,
    "longitude": -90.5158154,
    "description": "125 dog owners have reviewed Butterworth Dog Park at 15th Street & in Moline, averaging 4.3 stars. The park gives neighborhood dog owners a destination for outings with their four-legged friends. Dog owners looking for variety can also visit Centennial Park (4.3 miles) or Jefferson Park (4.6 miles) with their four-legged friends."
  },
  {
    "name": "‍ BURNING BUSH TRAILS PARK",
    "street": "1313 N Burning Bush LnMt Prospect",
    "city": "‍ Mount Prospect",
    "state": "IL",
    "zip": "60056",
    "latitude": 42.0980562,
    "longitude": -87.8972042,
    "description": "For dog owners in the Mount Prospect area, BURNING BUSH TRAILS PARK (1313 N Burning Bush Ln) offers a 4.8-star experience based on 173 reviews. Dog owners frequent this park for its consistent quality and welcoming atmosphere. For a change of scenery, Willow Trails Park is another dog-friendly destination 0.6 miles from here."
  },
  {
    "name": "Prairie Lakes Park",
    "street": "515 E Thacker StDes Plaines",
    "city": "‍ Mount Prospect",
    "state": "IL",
    "zip": "60018",
    "latitude": 42.0356142,
    "longitude": -87.9124764,
    "description": "For dog owners in the Mount Prospect area, Prairie Lakes Park (515 E Thacker St) offers a 4.7-star experience based on 805 reviews. For dog owners in the area, this park has become a trusted spot for time with their pups. Dog owners exploring the neighborhood can also bring their furry friends to Des Plaines Manor Park (0.6 miles)."
  },
  {
    "name": "Cornell Park",
    "street": "187 Ardmore RdDes Plaines",
    "city": "‍ Mount Prospect",
    "state": "IL",
    "zip": "60016",
    "latitude": 42.055718,
    "longitude": -87.9125713,
    "description": "For dog owners in the Mount Prospect area, Cornell Park (187 Ardmore Rd) offers a 5.0-star experience based on 8 reviews. For dog owners in the area, this park has become a trusted spot for time with their pups. Other dog parks in the area include Des Plaines Manor Park (0.9 miles) and Busse Park (1.1 miles)—both great for exploring with your four-legged friend."
  },
  {
    "name": "Izaak Walton Park",
    "street": "201 N Elmhurst RdProspect Heights",
    "city": "‍ Mount Prospect",
    "state": "IL",
    "zip": "60070",
    "latitude": 42.0914866,
    "longitude": -87.936668,
    "description": "Izaak Walton Park at 201 N Elmhurst Rd is well-regarded by Mount Prospect dog owners, holding 4.7 stars across 23 reviews. Dog owners looking for a solid destination will find this park delivers. Looking for more places to take your pup? Jaycee Park is another popular dog park just 0.2 miles away."
  },
  {
    "name": "Busse Park",
    "street": "101 S Owen StMt Prospect",
    "city": "‍ Mount Prospect",
    "state": "IL",
    "zip": "60056",
    "latitude": 42.064363,
    "longitude": -87.929768,
    "description": "Dog owners in Mount Prospect have made Busse Park at 101 S Owen St a go-to spot, rating it 4.8 stars across 8 reviews. The park serves dog owners well, providing a destination the community values. Other dog parks in the area include Kopp Park (0.4 miles) and Lions Recreation Center (0.4 miles)—both great for exploring with your four-legged friend."
  },
  {
    "name": "Des Plaines Manor Park",
    "street": "500 Lasalle StDes Plaines",
    "city": "‍ Mount Prospect",
    "state": "IL",
    "zip": "60016",
    "latitude": 42.04349,
    "longitude": -87.91648,
    "description": "For dog owners in the Mount Prospect area, Des Plaines Manor Park (500 Lasalle St) offers a 4.7-star experience based on 6 reviews. Local dog owners appreciate what this park offers their four-legged friends. Nearby, Prairie Lakes Park (0.6 miles) offers dog owners another great spot to explore with their pups."
  },
  {
    "name": "Robert T Jackson Clearwater",
    "street": "1724 W Lonnquist BlvdMt Prospect",
    "city": "‍ Mount Prospect",
    "state": "IL",
    "zip": "60056",
    "latitude": 42.0516906,
    "longitude": -87.9624406,
    "description": "Dog owners in Mount Prospect have made Robert T Jackson Clearwater at 1724 W Lonnquist Blvd a go-to spot, rating it 4.6 stars across 288 reviews. Open from 5am to 11pm daily, dog owners can easily fit a visit into busy schedules. Dog owners exploring the neighborhood can also bring their furry friends to Tamarack Park (0.7 miles)."
  },
  {
    "name": "River Trails Park",
    "street": "1500 E Euclid AveMt Prospect",
    "city": "‍ Mount Prospect",
    "state": "IL",
    "zip": "60056",
    "latitude": 42.0877341,
    "longitude": -87.9142513,
    "description": "With 4.6 stars from 288 reviews, River Trails Park at 1500 E Euclid Ave has become a favorite among Mount Prospect dog owners. For dog owners in the area, this park has become a trusted spot for time with their pups. For a change of scenery, Sycamore Trails Park is another dog-friendly destination 0.5 miles from here."
  },
  {
    "name": "Lions Recreation Center",
    "street": "411 S Maple StMt Prospect",
    "city": "‍ Mount Prospect",
    "state": "IL",
    "zip": "60056",
    "latitude": 42.059063,
    "longitude": -87.933827,
    "description": "Lions Recreation Center (4.6 stars from 148 reviews) is a popular destination for Mount Prospect dog owners, located at 411 S Maple St. The park has earned its reputation among dog owners in the neighborhood as a reliable choice. For a change of scenery, Busse Park is another dog-friendly destination 0.4 miles from here."
  },
  {
    "name": "‍ Prairie Wolf Forest Preserve",
    "street": "11403 IL-22Highland Park",
    "city": "‍ Mount Prospect",
    "state": "IL",
    "zip": "60035",
    "latitude": 42.199738,
    "longitude": -87.8325784,
    "description": "Located at 11403 IL-22 in Mount Prospect, Prairie Wolf Forest Preserve earns strong marks from local dog owners—4.6 stars from 125 reviews. The park serves dog owners well, providing a destination the community values. Other dog parks in the area include Moraine Beach (1.9 miles) and Jaycee Memorial Park (2.1 miles)—both great for exploring with your four-legged friend."
  },
  {
    "name": "Dog Park",
    "street": "W Main St",
    "city": "‍ Mount Prospect",
    "state": "IL",
    "zip": "60013",
    "latitude": 42.2084162,
    "longitude": -88.2496329,
    "description": "With 4.6 stars from 121 reviews, Dog Park has become a favorite among Mount Prospect dog owners. Open from 7am to 10pm daily, the park offers flexibility for dog owners with varying routines. Based on the reviews, dog owners can expect a reliable spot for spending time with their pup."
  },
  {
    "name": "Central Park",
    "street": "",
    "city": "‍ Mount Prospect",
    "state": "IL",
    "zip": "",
    "latitude": 42.0415823,
    "longitude": -87.8873916,
    "description": "With 4.6 stars from 76 reviews, Central Park has become a favorite among Mount Prospect dog owners. Open from 7am to 9pm daily, the park offers flexibility for dog owners with varying routines. Nearby, Lions Woods (0.8 miles) offers dog owners another great spot to explore with their pups."
  },
  {
    "name": "Lions Woods",
    "street": "6 N River RdDes Plaines",
    "city": "‍ Mount Prospect",
    "state": "IL",
    "zip": "60016",
    "latitude": 42.0534187,
    "longitude": -87.8878737,
    "description": "At 6 N River Rd in Mount Prospect, Lions Woods has built a loyal following—4.6 stars from 71 dog owner reviews. Open from 6:30am to 8pm daily, the park works well for dog owners with different schedules. Dog owners can also take their pups to nearby Central Park (0.8 miles) or Cornell Park (1.3 miles)."
  },
  {
    "name": "Jaycee Park",
    "street": "64 Compton LnProspect Heights",
    "city": "‍ Mount Prospect",
    "state": "IL",
    "zip": "60070",
    "latitude": 42.0927227,
    "longitude": -87.9334919,
    "description": "Jaycee Park at 64 Compton Ln is well-regarded by Mount Prospect dog owners, holding 4.6 stars across 20 reviews. Local dog owners appreciate what this park offers their four-legged friends. Looking for more places to take your pup? Izaak Walton Park is another popular dog park just 0.2 miles away."
  },
  {
    "name": "Hawthorne Glen Park",
    "street": "4126 Miller DrGlenview",
    "city": "‍ Mount Prospect",
    "state": "IL",
    "zip": "60026",
    "latitude": 42.1035114,
    "longitude": -87.8572053,
    "description": "Dog owners in Mount Prospect have made Hawthorne Glen Park at 4126 Miller Dr a go-to spot, rating it 4.5 stars across 11 reviews. Open from 7am to 8pm daily, dog owners can easily fit a visit into busy schedules. Other dog parks in the area include Willow Trails Park (1.9 miles) and Beck Lake Off-Leash Dog Area (1.9 miles)—both great for exploring with your four-legged friend."
  },
  {
    "name": "Greene Valley",
    "street": "23W799 79th St",
    "city": "Naperville",
    "state": "IL",
    "zip": "60565",
    "latitude": 41.7728699,
    "longitude": -88.1479278,
    "description": "Greene Valley at 23W799 79th St is well-regarded by Naperville dog owners, holding 4.7 stars across 965 reviews. Dog owners in the area consistently choose this park as a go-to destination for their pups. Other dog parks in the area include Springbrook Prairie (0.0 miles) and Wag 'N Paddle (2.7 miles)—both great for exploring with your four-legged friend."
  },
  {
    "name": "Rock Springs Park",
    "street": "1428 E 3rd St",
    "city": "O'Fallon",
    "state": "IL",
    "zip": "62269",
    "latitude": 38.5898083,
    "longitude": -89.90002,
    "description": "Rock Springs Park (4.7 stars from 572 reviews) is a popular destination for O'Fallon dog owners, located at 1428 E 3rd St. Open from 6am to 8pm daily, dog owners can easily fit a visit into busy schedules. The steady stream of positive reviews suggests dog owners consistently have good experiences here."
  },
  {
    "name": "Orland Park",
    "street": "13951 LaGrange Rd",
    "city": "Orland Park",
    "state": "IL",
    "zip": "60462",
    "latitude": 41.5970377,
    "longitude": -87.8524938,
    "description": "Orland Park (4.8 stars from 19 reviews) is a popular destination for Orland Park dog owners, located at 13951 LaGrange Rd. The steady stream of dog owner visits speaks to the park's appeal. Nearby, Kelly Park (0.8 miles) offers dog owners another great spot to explore with their pups."
  },
  {
    "name": "Messenger Marsh",
    "street": "S Bell RdHomer Glen",
    "city": "Orland Park",
    "state": "IL",
    "zip": "60491",
    "latitude": 41.630555,
    "longitude": -87.9311076,
    "description": "In Orland Park, Messenger Marsh has built a loyal following—4.6 stars from 119 dog owner reviews. Dog owners looking for a solid destination will find this park delivers. More dog-friendly parks nearby include Doogan Park (3.4 miles) and Centennial Park (3.5 miles)—perfect for pups who love adventure."
  },
  {
    "name": "Bremen Grove",
    "street": "",
    "city": "Orland Park",
    "state": "IL",
    "zip": "",
    "latitude": 41.5733669,
    "longitude": -87.7844944,
    "description": "Bremen Grove is well-regarded by Orland Park dog owners, holding 4.5 stars across 39 reviews. Open from 6am to 9pm daily, the park works well for dog owners with different schedules. Nearby, Tinley Park (2.0 miles) offers dog owners another great spot to explore with their pups."
  },
  {
    "name": "Kelly Park",
    "street": "16675 Haven AveOrland Hills",
    "city": "Orland Park",
    "state": "IL",
    "zip": "60487",
    "latitude": 41.5874833,
    "longitude": -87.8437644,
    "description": "Kelly Park (4.5 stars from 186 reviews) is a popular destination for Orland Park dog owners, located at 16675 Haven Ave. Local dog owners appreciate what this park offers their four-legged friends. For variety, the neighborhood offers more dog parks to explore: Orland Park (0.8 miles) and Helen Park (1.3 miles)."
  },
  {
    "name": "Crescent Park",
    "street": "9705 W 143rd St",
    "city": "Orland Park",
    "state": "IL",
    "zip": "60462",
    "latitude": 41.6303602,
    "longitude": -87.8564918,
    "description": "Dog owners in Orland Park have rated Crescent Park (9705 W 143rd St) 4.4 stars across 33 reviews. Local dog owners use this park as a spot to spend time with their furry companions. Looking to explore more? Orland Grove is another dog-friendly park 0.1 miles from here."
  },
  {
    "name": "Doogan Park",
    "street": "14710 Park Ln",
    "city": "Orland Park",
    "state": "IL",
    "zip": "60462",
    "latitude": 41.6222089,
    "longitude": -87.8670051,
    "description": "At 14710 Park Ln in Orland Park, Doogan Park carries 4.4 stars from 67 dog owner reviews. The park serves as a gathering spot for dog owners and their four-legged friends in the area. Looking to explore more? Centennial Park is another dog-friendly park 0.2 miles from here."
  },
  {
    "name": "Orland Grove",
    "street": "",
    "city": "Orland Park",
    "state": "IL",
    "zip": "",
    "latitude": 41.630663,
    "longitude": -87.8536288,
    "description": "In Orland Park, Orland Grove carries 4.4 stars from 93 dog owner reviews. The park serves as a gathering spot for dog owners and their four-legged friends in the area. Nearby dog parks worth exploring with your pup include Crescent Park (0.1 miles) and Centennial Park (0.7 miles)."
  },
  {
    "name": "Tinley Park",
    "street": "18200 84th AveTinley Park",
    "city": "Orland Park",
    "state": "IL",
    "zip": "60487",
    "latitude": 41.5710476,
    "longitude": -87.8224052,
    "description": "Dog owners in Orland Park have rated Tinley Park (18200 84th Ave) 4.3 stars across 25 reviews. This park provides dog owners in the community with a place to visit with their dogs. For pups who want more adventure, Kelly Park is a nearby dog park worth visiting (1.6 miles)."
  },
  {
    "name": "Schussler Park",
    "street": "14609 Poplar Rd",
    "city": "Orland Park",
    "state": "IL",
    "zip": "60462",
    "latitude": 41.6206166,
    "longitude": -87.8372276,
    "description": "Schussler Park at 14609 Poplar Rd holds a 4.4-star rating from 131 Orland Park dog owner visits. Local dog owners use this park as a spot to spend time with their furry companions. Dog owners in the neighborhood can also take their furry friends to Helen Park, 1.0 miles away."
  },
  {
    "name": "Helen Park",
    "street": "9031 Helen Ln",
    "city": "Orland Park",
    "state": "IL",
    "zip": "60462",
    "latitude": 41.6066574,
    "longitude": -87.842487,
    "description": "For dog owners near 9031 Helen Ln in Orland Park, Helen Park provides a convenient spot to take their dogs. Local dog owners use this park as a spot to spend time with their furry companions. For dog owners who like to explore, Orland Park (0.8 miles) and Schussler Park (1.0 miles) are both nearby parks to try with your dog."
  },
  {
    "name": "Deer Grove Forest Preserve",
    "street": "W Dundee Rd",
    "city": "Palatine",
    "state": "IL",
    "zip": "60067",
    "latitude": 42.135078,
    "longitude": -88.0826505,
    "description": "In Palatine, Deer Grove Forest Preserve has built a loyal following—4.8 stars from 713 dog owner reviews. The park has earned its reputation among dog owners in the neighborhood as a reliable choice. Other dog parks in the area include Palatine Park (1.8 miles) and Riemer Reservoir Park (1.8 miles)—both great for exploring with your four-legged friend."
  },
  {
    "name": "Ashwood Park",
    "street": "700 Wren Ave",
    "city": "Palatine",
    "state": "IL",
    "zip": "60067",
    "latitude": 42.123915,
    "longitude": -88.040089,
    "description": "Located at 700 Wren Ave in Palatine, Ashwood Park earns strong marks from local dog owners—4.7 stars from 28 reviews. Open from 7am to 8pm daily, the park offers flexibility for dog owners with varying routines. Dog owners can also take their pups to nearby Palatine Park (0.8 miles) or Cedar Park (1.3 miles)."
  },
  {
    "name": "Palatine Park",
    "street": "1103 N Smith St",
    "city": "Palatine",
    "state": "IL",
    "zip": "60067",
    "latitude": 42.1341404,
    "longitude": -88.048421,
    "description": "With 4.7 stars from 60 reviews, Palatine Park at 1103 N Smith St has become a favorite among Palatine dog owners. Open from 9am to 5pm daily, dog owners can plan visits around work or their pup's energy level. Dog owners can also take their pups to nearby Ashwood Park (0.8 miles) or Riemer Reservoir Park (1.5 miles)."
  },
  {
    "name": "Cedar Park",
    "street": "501 W Palatine Rd",
    "city": "Palatine",
    "state": "IL",
    "zip": "60067",
    "latitude": 42.11027,
    "longitude": -88.056229,
    "description": "Palatine dog owners rate Cedar Park at 501 W Palatine Rd highly, with 4.6 stars from 14 visits. The park has earned its reputation among dog owners in the neighborhood as a reliable choice. For a change of scenery, Riemer Reservoir Park is another dog-friendly destination 0.4 miles from here."
  },
  {
    "name": "Riemer Reservoir Park",
    "street": "745 W Wood St",
    "city": "Palatine",
    "state": "IL",
    "zip": "60067",
    "latitude": 42.1147084,
    "longitude": -88.0615031,
    "description": "With 4.6 stars from 298 reviews, Riemer Reservoir Park at 745 W Wood St has become a favorite among Palatine dog owners. Open from 8am to 8pm daily, the park accommodates early risers and evening visitors alike. For variety, the neighborhood offers more dog parks to explore: Cedar Park (0.4 miles) and Ashwood Park (1.3 miles)."
  },
  {
    "name": "Meadow Valley Park",
    "street": "601 Ernest St",
    "city": "Peoria",
    "state": "IL",
    "zip": "61571",
    "latitude": 40.6890783,
    "longitude": -89.4641328,
    "description": "Meadow Valley Park (4.6 stars from 171 reviews) is a popular destination for Peoria dog owners, located at 601 Ernest St. For dog owners in the area, this park has become a trusted spot for time with their pups. Nearby, Oakwood Dog Park (3.0 miles) offers dog owners another great spot to explore with their pups."
  },
  {
    "name": "Happy Tails Dog Park",
    "street": "Coal Car DrPekin",
    "city": "Peoria",
    "state": "IL",
    "zip": "61554",
    "latitude": 40.5641666,
    "longitude": -89.6266589,
    "description": "Dog owners in Peoria have made Happy Tails Dog Park a go-to spot, rating it 4.6 stars across 158 reviews. Open from 6am to 11:30pm daily, there's room in the day for dog owners to bring their furry friends. The consistent ratings suggest dog owners know what to expect here."
  },
  {
    "name": "Upper Grandview Drive Park",
    "street": "3615 N Grandview Dr",
    "city": "Peoria",
    "state": "IL",
    "zip": "61614",
    "latitude": 40.7299814,
    "longitude": -89.5535864,
    "description": "Upper Grandview Drive Park at 3615 N Grandview Dr is well-regarded by Peoria dog owners, holding 4.6 stars across 112 reviews. Open from 6am to 9pm daily, dog owners can plan visits around work or their pup's energy level. For a change of scenery, Duryea Dog Park is another dog-friendly destination 1.6 miles from here."
  },
  {
    "name": "Oakwood Dog Park",
    "street": "N Main St",
    "city": "Peoria",
    "state": "IL",
    "zip": "61550",
    "latitude": 40.6458043,
    "longitude": -89.4551228,
    "description": "In Peoria, Oakwood Dog Park has built a loyal following—4.6 stars from 92 dog owner reviews. Dog owners looking for a solid destination will find this park delivers. Dog owners exploring the neighborhood can also bring their furry friends to Meadow Valley Park (3.0 miles)."
  },
  {
    "name": "Vicary Bottoms Park",
    "street": "2000 N Kickapoo Creek Rd",
    "city": "Peoria",
    "state": "IL",
    "zip": "61604",
    "latitude": 40.7080681,
    "longitude": -89.6569807,
    "description": "Vicary Bottoms Park at 2000 N Kickapoo Creek Rd is well-regarded by Peoria dog owners, holding 4.6 stars across 55 reviews. Open from 8:30am to 4:30pm weekdays, the park accommodates early risers and evening visitors alike. Looking for more places to take your pup? Laura Bradley Park is another popular dog park just 1.7 miles away."
  },
  {
    "name": "Brady Park",
    "street": "",
    "city": "Peoria",
    "state": "IL",
    "zip": "",
    "latitude": 40.666149,
    "longitude": -89.5800978,
    "description": "With 4.6 stars from 27 reviews, Brady Park has become a favorite among Peoria dog owners. For dog owners in the area, this park has become a trusted spot for time with their pups. Other dog parks in the area include Laura Bradley Park (3.5 miles) and Upper Grandview Drive Park (4.6 miles)—both great for exploring with your four-legged friend."
  },
  {
    "name": "Laura Bradley Park",
    "street": "1314 N Park Rd",
    "city": "Peoria",
    "state": "IL",
    "zip": "61606",
    "latitude": 40.7028919,
    "longitude": -89.625394,
    "description": "For Peoria dog owners, Laura Bradley Park at 1314 N Park Rd has become a reliable favorite—4.5 stars from 1,128 reviews. Open from 6am to 8pm daily, the park is convenient for before work, after work, or weekend adventures. Nearby, Vicary Bottoms Park (1.7 miles) is another dog park favorite where you can take your four-legged friend."
  },
  {
    "name": "Schmoeger Park",
    "street": "3321 N Western Ave",
    "city": "Peoria",
    "state": "IL",
    "zip": "61604",
    "latitude": 40.7283735,
    "longitude": -89.6223798,
    "description": "At 3321 N Western Ave, Schmoeger Park has 4.1 stars based on 22 reviews from Peoria dog owners. Open from 6am to 10pm daily, dog owners can stop by when it fits their schedule. Nearby dog parks worth exploring with your pup include Laura Bradley Park (1.8 miles) and Vicary Bottoms Park (2.3 miles)."
  },
  {
    "name": "‍ Duryea Dog Park",
    "street": "1001 E Duryea AvePeoria Heights",
    "city": "Peoria",
    "state": "IL",
    "zip": "61616",
    "latitude": 40.744628,
    "longitude": -89.578082,
    "description": "Dog owners in the Peoria area will find Duryea Dog Park at 1001 E Duryea Ave—a local option for spending time with their pups. Open from 5am to 10pm daily, the park is accessible for dog owners in the area. For dog owners who like to explore, Upper Grandview Drive Park (1.6 miles) and Schmoeger Park (2.6 miles) are both nearby parks to try with your dog."
  },
  {
    "name": "Dog Paddle Beach",
    "street": "5329 Forest Hills CtLoves Park",
    "city": "Rockford",
    "state": "IL",
    "zip": "61111",
    "latitude": 42.337113,
    "longitude": -89.0172061,
    "description": "Dog owners in Rockford have made Dog Paddle Beach at 5329 Forest Hills Ct a go-to spot, rating it 4.9 stars across 45 reviews. The park has earned its reputation among dog owners in the neighborhood as a reliable choice. For a change of scenery, Schoonmaker Park is another dog-friendly destination 3.4 miles from here."
  },
  {
    "name": "Schoonmaker Park",
    "street": "10893 Ventura BlvdMachesney Park",
    "city": "Rockford",
    "state": "IL",
    "zip": "61115",
    "latitude": 42.3773127,
    "longitude": -89.0546132,
    "description": "With 4.6 stars from 175 reviews, Schoonmaker Park at 10893 Ventura Blvd has become a favorite among Rockford dog owners. Open from 5am to 10pm daily, dog owners can easily fit a visit into busy schedules. Dog owners exploring the neighborhood can also bring their furry friends to Dog Paddle Beach (3.4 miles)."
  },
  {
    "name": "Searls Park",
    "street": "4950 Safford Rd",
    "city": "Rockford",
    "state": "IL",
    "zip": "61101",
    "latitude": 42.3011104,
    "longitude": -89.1205742,
    "description": "Dog owners in Rockford have made Searls Park at 4950 Safford Rd a go-to spot, rating it 4.6 stars across 321 reviews. Dog owners looking for a solid destination will find this park delivers. The steady stream of positive reviews suggests dog owners consistently have good experiences here."
  },
  {
    "name": "Willow Park",
    "street": "905 Norman DrHoffman Estates",
    "city": "Schaumburg",
    "state": "IL",
    "zip": "60192",
    "latitude": 42.087439,
    "longitude": -88.1029429,
    "description": "Willow Park at 905 Norman Dr is well-regarded by Schaumburg dog owners, holding 4.9 stars across 16 reviews. Open from 7am to 8pm daily, the park offers flexibility for dog owners with varying routines. More dog-friendly parks nearby include Bo's Run Dog Park (0.2 miles) and Plum Grove Reservoir Park (1.9 miles)—perfect for pups who love adventure."
  },
  {
    "name": "Busse Woods",
    "street": "4006 Busse WdsElk Grove Village",
    "city": "Schaumburg",
    "state": "IL",
    "zip": "60007",
    "latitude": 42.0841936,
    "longitude": -88.0131275,
    "description": "For Schaumburg dog owners, Busse Woods at 4006 Busse Wds needs no introduction—4.7 stars, 5,133 reviews. Open from 8am to 8pm daily, the park accommodates everything from early morning walks to evening adventures. Dog owners exploring the area should also bring their pups to Sunset Meadows Park (1.1 miles) and Pioneer Park (1.2 miles)."
  },
  {
    "name": "Bison's Bluff Nature Playgroun",
    "street": "1111 E Schaumburg Rd",
    "city": "Schaumburg",
    "state": "IL",
    "zip": "60194",
    "latitude": 42.0282846,
    "longitude": -88.0551396,
    "description": "Bison's Bluff Nature Playgroun at 1111 E Schaumburg Rd is a favorite among Schaumburg dog owners, earning 4.7 stars from 1,526 reviews. Open from 10am to 4pm daily, the park is convenient for before work, after work, or weekend adventures. Other popular dog parks nearby include Olympic Park (0.7 miles) and Connelly Park (0.8 miles)—both favorites among local pup parents."
  },
  {
    "name": "Prairie Park",
    "street": "431 Knollwood Dr",
    "city": "Schaumburg",
    "state": "IL",
    "zip": "60194",
    "latitude": 42.0454945,
    "longitude": -88.1372777,
    "description": "Located at 431 Knollwood Dr in Schaumburg, Prairie Park earns strong marks from local dog owners—4.7 stars from 48 reviews. Open from 9am to 4:30pm daily, dog owners can plan visits around work or their pup's energy level. Dog owners exploring the neighborhood can also bring their furry friends to Brandenburg Park (0.0 miles)."
  },
  {
    "name": "Schaumburg Park",
    "street": "601 Morse Ave",
    "city": "Schaumburg",
    "state": "IL",
    "zip": "60193",
    "latitude": 42.0002633,
    "longitude": -88.0957391,
    "description": "For dog owners in the Schaumburg area, Schaumburg Park (601 Morse Ave) offers a 4.7-star experience based on 6 reviews. Dog owners in the area consistently choose this park as a go-to destination for their pups. More dog-friendly parks nearby include Eagle Park (0.9 miles) and Goose Lake Park (1.3 miles)—perfect for pups who love adventure."
  },
  {
    "name": "‍ Veteran's Gateway Park",
    "street": "4 S Roselle Rd",
    "city": "Schaumburg",
    "state": "IL",
    "zip": "60193",
    "latitude": 42.0270733,
    "longitude": -88.080027,
    "description": "At 4 S Roselle Rd in Schaumburg, Veteran's Gateway Park has built a loyal following—4.6 stars from 15 dog owner reviews. For dog owners in the area, this park has become a trusted spot for time with their pups. Other dog parks in the area include Michael P. Doherty Park (0.5 miles) and Schaumburg Park (0.6 miles)—both great for exploring with your four-legged friend."
  },
  {
    "name": "‍ Oak Hollow Park",
    "street": "Spruce Dr",
    "city": "Schaumburg",
    "state": "IL",
    "zip": "60193",
    "latitude": 42.0213411,
    "longitude": -88.0915183,
    "description": "For dog owners in the Schaumburg area, Oak Hollow Park offers a 4.6-star experience based on 25 reviews. For dog owners in the area, this park has become a trusted spot for time with their pups. More dog-friendly parks nearby include Eagle Park (0.6 miles) and Volkening Lake (0.7 miles)—perfect for pups who love adventure."
  },
  {
    "name": "Eagle Park",
    "street": "621 Boxwood Dr",
    "city": "Schaumburg",
    "state": "IL",
    "zip": "60193",
    "latitude": 42.0139458,
    "longitude": -88.0961003,
    "description": "Eagle Park at 621 Boxwood Dr is well-regarded by Schaumburg dog owners, holding 4.6 stars across 32 reviews. Dog owners frequent this park for its consistent quality and welcoming atmosphere. For variety, the neighborhood offers more dog parks to explore: Oak Hollow Park (0.6 miles) and Campanelli Park (0.8 miles)."
  },
  {
    "name": "Woodstock Park",
    "street": "400 W Weathersfield Way",
    "city": "Schaumburg",
    "state": "IL",
    "zip": "60193",
    "latitude": 42.0191104,
    "longitude": -88.1108088,
    "description": "Schaumburg dog owners rate Woodstock Park at 400 W Weathersfield Way highly, with 4.6 stars from 34 visits. The park serves dog owners well, providing a destination the community values. More dog-friendly parks nearby include Campanelli Park (0.0 miles) and Volkening Lake (0.7 miles)—perfect for pups who love adventure."
  },
  {
    "name": "Carson Park",
    "street": "1451 Kathleen WayElk Grove Village",
    "city": "Schaumburg",
    "state": "IL",
    "zip": "60007",
    "latitude": 41.9954437,
    "longitude": -88.0375528,
    "description": "Carson Park at 1451 Kathleen Way is well-regarded by Schaumburg dog owners, holding 4.6 stars across 48 reviews. The park serves dog owners well, providing a destination the community values. More dog-friendly parks nearby include Olympic Park (2.1 miles) and Goose Lake Park (2.3 miles)—perfect for pups who love adventure."
  },
  {
    "name": "Gray Farm Park",
    "street": "120 Cloverdale Ln",
    "city": "Schaumburg",
    "state": "IL",
    "zip": "60194",
    "latitude": 42.0284249,
    "longitude": -88.1284516,
    "description": "Schaumburg dog owners rate Gray Farm Park at 120 Cloverdale Ln highly, with 4.6 stars from 86 visits. Open from 7am to 11pm daily, dog owners can plan visits around work or their pup's energy level. Looking for more places to take your pup? Douglas O Mclemore Park is another popular dog park just 0.5 miles away."
  },
  {
    "name": "Clauss Farm Recreation Area",
    "street": "555 W Bryn Mawr AveRoselle",
    "city": "Schaumburg",
    "state": "IL",
    "zip": "60172",
    "latitude": 41.9749011,
    "longitude": -88.0933248,
    "description": "At 555 W Bryn Mawr Ave in Schaumburg, Clauss Farm Recreation Area has built a loyal following—4.6 stars from 87 dog owner reviews. Open from 7am to 10pm daily, dog owners have plenty of flexibility to plan a visit. More dog-friendly parks nearby include Goose Lake Park (1.0 miles) and Odlum Park (1.5 miles)—perfect for pups who love adventure."
  },
  {
    "name": "Hawk Hollow Dog Park",
    "street": "1099 Bittersweet DrBartlett",
    "city": "Schaumburg",
    "state": "IL",
    "zip": "60103",
    "latitude": 41.971304,
    "longitude": -88.164514,
    "description": "Located at 1099 Bittersweet Dr in Schaumburg, Hawk Hollow Dog Park earns strong marks from local dog owners—4.6 stars from 197 reviews. Open from 7am to 7:30pm daily, there's plenty of opportunity for dog owners to find a time that works. Dog owners exploring the neighborhood can also bring their furry friends to Hawk Hollow Forest Preserve (1.7 miles)."
  },
  {
    "name": "Community Park",
    "street": "1001 Zenith DrGlenview",
    "city": "Schaumburg",
    "state": "IL",
    "zip": "60025",
    "latitude": 42.0716962,
    "longitude": -87.8636576,
    "description": "Community Park at 1001 Zenith Dr is well-regarded by Schaumburg dog owners, holding 4.6 stars across 377 reviews. Dog owners looking for a solid destination will find this park delivers. More dog-friendly parks nearby include Beck Lake Off-Leash Dog Area (0.6 miles) and Lions Woods (1.8 miles)—perfect for pups who love adventure."
  },
  {
    "name": "‍ Volkening Lake",
    "street": "900 W Schaumburg Rd",
    "city": "Schaumburg",
    "state": "IL",
    "zip": "60194",
    "latitude": 42.026534,
    "longitude": -88.10293,
    "description": "Located at 900 W Schaumburg Rd in Schaumburg, Volkening Lake earns strong marks from local dog owners—4.6 stars from 606 reviews. Open from 7am to 11pm daily, the park works well for dog owners with different schedules. Other dog parks in the area include Campanelli Park (0.7 miles) and Woodstock Park (0.7 miles)—both great for exploring with your four-legged friend."
  },
  {
    "name": "Olympic Park",
    "street": "1675 Old Schaumburg Rd",
    "city": "Schaumburg",
    "state": "IL",
    "zip": "60173",
    "latitude": 42.0250237,
    "longitude": -88.0418206,
    "description": "1,110 dog owners have made Olympic Park (1675 Old Schaumburg Rd) one of Schaumburg's most trusted parks (4.6 stars). Open from 7am to 11pm daily, the park accommodates a variety of dog owner schedules and routines. For more dog park adventures, explore Connelly Park (0.3 miles) or Bison's Bluff Nature Playgroun (0.7 miles) with your furry companion."
  },
  {
    "name": "Donald W. Lyon Park",
    "street": "7640 Kostner Ave",
    "city": "Skokie",
    "state": "IL",
    "zip": "60076",
    "latitude": 42.019801,
    "longitude": -87.7381286,
    "description": "At 7640 Kostner Ave in Skokie, Donald W. Lyon Park carries 4.4 stars from 51 dog owner reviews. Open from 6am to 10pm daily, dog owners can stop by when it fits their schedule. For dog owners who like to explore, Pooch Park (1.6 miles) and Pottawattomie Park (3.1 miles) are both nearby parks to try with your dog."
  },
  {
    "name": "Gillson Park",
    "street": "",
    "city": "Skokie",
    "state": "IL",
    "zip": "",
    "latitude": 42.076066,
    "longitude": -87.7115555,
    "description": "147 dog owners have reviewed Gillson Park in Skokie, averaging 4.3 stars. Open from 6am to 10:30pm daily, the park fits conveniently into different routines. Dog owners looking for variety can also visit Dog Beach (2.8 miles) or Pooch Park (3.3 miles) with their four-legged friends."
  },
  {
    "name": "Washington Park",
    "street": "1501 S Grand Ave W",
    "city": "Springfield",
    "state": "IL",
    "zip": "62704",
    "latitude": 39.7878409,
    "longitude": -89.6799913,
    "description": "Washington Park at 1501 S Grand Ave W in Springfield is a community favorite, with 1,775 dog owners giving it 4.7 stars. Dog owners in the area know they can count on this park for quality time with their pups. For more dog park adventures, explore Washington Park (0.3 miles) or Duncan Park (1.4 miles) with your furry companion."
  },
  {
    "name": "Southwind Park",
    "street": "4965 S 2nd St",
    "city": "Springfield",
    "state": "IL",
    "zip": "62703",
    "latitude": 39.7290196,
    "longitude": -89.6556189,
    "description": "With 4.7 stars across 1,181 reviews, Southwind Park at 4965 S 2nd St has clearly won over Springfield dog owners. Open from 6am to 10:30pm daily, there's always time for dog owners to bring their pup for some quality time. Want to give your pup even more adventure? Lick Creek Preserve Hiking is another beloved dog park just 1.9 miles away."
  },
  {
    "name": "Lick Creek Preserve Hiking",
    "street": "5600 Old Chatham Rd",
    "city": "Springfield",
    "state": "IL",
    "zip": "62711",
    "latitude": 39.7407952,
    "longitude": -89.6878239,
    "description": "For dog owners in the Springfield area, Lick Creek Preserve Hiking (5600 Old Chatham Rd) offers a 4.9-star experience based on 11 reviews. Dog owners looking for a solid destination will find this park delivers. Other dog parks in the area include Southwind Park (1.9 miles) and Hobbs Park (2.7 miles)—both great for exploring with your four-legged friend."
  },
  {
    "name": "Marine Point Park",
    "street": "E Lake Shore Dr",
    "city": "Springfield",
    "state": "IL",
    "zip": "62712",
    "latitude": 39.7479887,
    "longitude": -89.5879523,
    "description": "Marine Point Park (4.7 stars from 190 reviews) is a popular destination for Springfield dog owners. Open from 6am to 9pm daily, dog owners can easily fit a visit into busy schedules. Dog owners can also take their pups to nearby The Springfield Park (2.9 miles) or Hobbs Park (3.6 miles)."
  },
  {
    "name": "Cotton Hill Park",
    "street": "",
    "city": "Springfield",
    "state": "IL",
    "zip": "",
    "latitude": 39.7990175,
    "longitude": -89.6439575,
    "description": "Springfield dog owners rate Cotton Hill Park highly, with 4.6 stars from 37 visits. Open from 6am to 10pm daily, dog owners can easily fit a visit into busy schedules. More dog-friendly parks nearby include Rotary Park (0.0 miles) and Illinois State Fair Campground (0.0 miles)—perfect for pups who love adventure."
  },
  {
    "name": "Union Square Park",
    "street": "500 E Madison St",
    "city": "Springfield",
    "state": "IL",
    "zip": "62701",
    "latitude": 39.803874,
    "longitude": -89.649083,
    "description": "With 4.6 stars from 142 reviews, Union Square Park at 500 E Madison St has become a favorite among Springfield dog owners. Open from 8am to 10pm daily, dog owners can easily fit a visit into busy schedules. Dog owners exploring the neighborhood can also bring their furry friends to Cotton Hill Park (0.4 miles)."
  },
  {
    "name": "Carpenter Park",
    "street": "1 Carpenter Park Trl",
    "city": "Springfield",
    "state": "IL",
    "zip": "62707",
    "latitude": 39.8673737,
    "longitude": -89.6271589,
    "description": "For dog owners in the Springfield area, Carpenter Park (1 Carpenter Park Trl) offers a 4.6-star experience based on 232 reviews. Dog owners in the area consistently choose this park as a go-to destination for their pups. Dog owners can also take their pups to nearby Kennedy Park (2.0 miles) or Fairview Park (2.9 miles)."
  },
  {
    "name": "Lincoln Park",
    "street": "1601 N 5th St",
    "city": "Springfield",
    "state": "IL",
    "zip": "62702",
    "latitude": 39.8277758,
    "longitude": -89.6511778,
    "description": "With 4.6 stars from 710 reviews, Lincoln Park at 1601 N 5th St has become a favorite among Springfield dog owners. Open from 8am to 10:30pm daily, dog owners have plenty of flexibility to plan a visit. For variety, the neighborhood offers more dog parks to explore: Fairview Park (1.1 miles) and Union Square Park (1.7 miles)."
  },
  {
    "name": "Illinois State Fair Campground",
    "street": "",
    "city": "Springfield",
    "state": "IL",
    "zip": "",
    "latitude": 39.7990175,
    "longitude": -89.6439575,
    "description": "In Springfield, Illinois State Fair Campground earns strong marks from local dog owners—4.5 stars from 157 reviews. Open from 11:30am to 9pm daily, there's plenty of opportunity for dog owners to find a time that works. Other dog parks in the area include Cotton Hill Park (0.0 miles) and Rotary Park (0.0 miles)—both great for exploring with your four-legged friend."
  },
  {
    "name": "‍ Stuart Park",
    "street": "1800 Winch Ln",
    "city": "Springfield",
    "state": "IL",
    "zip": "62702",
    "latitude": 39.8232025,
    "longitude": -89.7016746,
    "description": "With 4.5 stars from 291 reviews, Stuart Park at 1800 Winch Ln has become a favorite among Springfield dog owners. Open from 7am to 10pm daily, dog owners can plan visits around work or their pup's energy level. Other dog parks in the area include Jefferson Park (1.0 miles) and Duncan Park (2.1 miles)—both great for exploring with your four-legged friend."
  },
  {
    "name": "Pampered Pet Center, Inc.",
    "street": "3401 Gateway Dr",
    "city": "Springfield",
    "state": "IL",
    "zip": "62711",
    "latitude": 39.7511845,
    "longitude": -89.7564335,
    "description": "Dog owners in Springfield have rated Pampered Pet Center, Inc. (3401 Gateway Dr) 4.4 stars across 33 reviews. Dog owners in the area appreciate having a local spot to bring their pups. For dog owners who like to explore, Centennial Park (0.4 miles) and Lick Creek Preserve Hiking (3.7 miles) are both nearby parks to try with your dog."
  },
  {
    "name": "Duncan Park",
    "street": "500 N MacArthur Blvd",
    "city": "Springfield",
    "state": "IL",
    "zip": "62702",
    "latitude": 39.806065,
    "longitude": -89.668175,
    "description": "Located at 500 N MacArthur Blvd, Duncan Park in Springfield is rated 4.4 stars by 84 dog owners. Open from 5am to 10:30pm daily, the park gives dog owners in the neighborhood time to bring their pups. Nearby dog parks worth exploring with your pup include Union Square Park (1.0 miles) and Cotton Hill Park (1.4 miles)."
  },
  {
    "name": "Jefferson Park",
    "street": "300 N Oxford Rd",
    "city": "Springfield",
    "state": "IL",
    "zip": "62702",
    "latitude": 39.8088204,
    "longitude": -89.7012128,
    "description": "At 300 N Oxford Rd in Springfield, Jefferson Park carries 4.3 stars from 56 dog owner reviews. Open from 6am to 10pm daily, dog owners in the area can work a visit into their day. Dog owners looking for variety can also visit Stuart Park (1.0 miles) or Washington Park (1.6 miles) with their four-legged friends."
  },
  {
    "name": "James O. Breen Community Dog",
    "street": "",
    "city": "St. Charles",
    "state": "IL",
    "zip": "",
    "latitude": 41.9139808,
    "longitude": -88.3128183,
    "description": "For dog owners in the St. Charles area, James O. Breen Community Dog offers a 4.8-star experience based on 68 reviews. Dog owners in the area consistently choose this park as a go-to destination for their pups. For variety, the neighborhood offers more dog parks to explore: East Side Sports Complex Dog (0.0 miles) and Primrose Farm Park (3.5 miles)."
  },
  {
    "name": "‍ East Side Sports Complex Dog",
    "street": "",
    "city": "St. Charles",
    "state": "IL",
    "zip": "",
    "latitude": 41.9139808,
    "longitude": -88.3128183,
    "description": "East Side Sports Complex Dog in St. Charles has 4.4 stars based on 141 reviews from dog owners. Open from 9am to 7pm daily, dog owners have flexibility to plan a visit with their four-legged friends. Nearby dog parks worth exploring with your pup include James O. Breen Community Dog (0.0 miles) and Primrose Farm Park (3.5 miles)."
  },
  {
    "name": "Independence Grove Off-Leash",
    "street": "31531 N Milwaukee AveLibertyville",
    "city": "Waukegan",
    "state": "IL",
    "zip": "60048",
    "latitude": 42.2842641,
    "longitude": -87.9536023,
    "description": "Waukegan dog owners rate Independence Grove Off-Leash at 31531 N Milwaukee Ave highly, with 4.7 stars from 386 visits. Open from 6:30am to 7pm daily, dog owners can plan visits around work or their pup's energy level. The consistent ratings suggest dog owners know what to expect here."
  },
  {
    "name": "Duck Farm Off-Leash Dog Area",
    "street": "21201 Grand AveLake Villa",
    "city": "Waukegan",
    "state": "IL",
    "zip": "60046",
    "latitude": 42.4154369,
    "longitude": -88.0627551,
    "description": "At 21201 Grand Ave in Waukegan, Duck Farm Off-Leash Dog Area has built a loyal following—4.7 stars from 217 dog owner reviews. Open from 6:30am to 7pm daily, dog owners can easily fit a visit into busy schedules. The steady stream of positive reviews suggests dog owners consistently have good experiences here."
  },
  {
    "name": "Waukegan Savanna Forest Preser",
    "street": "38820 N Delany RdWadsworth",
    "city": "Waukegan",
    "state": "IL",
    "zip": "60083",
    "latitude": 42.4277021,
    "longitude": -87.9040534,
    "description": "For dog owners in the Waukegan area, Waukegan Savanna Forest Preser (38820 N Delany Rd) offers a 4.6-star experience based on 87 reviews. Dog owners in the area consistently choose this park as a go-to destination for their pups. Dog owners exploring the neighborhood can also bring their furry friends to Larsen Nature Preserve And (4.3 miles)."
  },
  {
    "name": "‍ Enclosed Dog Park",
    "street": "",
    "city": "Waukegan",
    "state": "IL",
    "zip": "",
    "latitude": 42.327724,
    "longitude": -87.8394189,
    "description": "Enclosed Dog Park serves dog owners in the Waukegan neighborhood looking for a place to visit with their pups. The neighborhood benefits from having this park as an option for dog owners and their pups. Dog owners in the neighborhood can also take their furry friends to Larsen Nature Preserve And, 3.9 miles away."
  },
  {
    "name": "‍ Larsen Nature Preserve And",
    "street": "1720 Western Ave",
    "city": "Waukegan",
    "state": "IL",
    "zip": "60085",
    "latitude": 42.3833699,
    "longitude": -87.8456098,
    "description": "At 1720 Western Ave in Waukegan, Larsen Nature Preserve And has built a loyal following—4.5 stars from 150 dog owner reviews. Dog owners in the area consistently choose this park as a go-to destination for their pups. Dog owners exploring the neighborhood can also bring their furry friends to Enclosed Dog Park (3.9 miles)."
  }
]