[
  {
    "name": "Waggin' Tails Dog Park",
    "street": "2900 Home Pl",
    "city": "Kansas City",
    "state": "KS",
    "zip": "66048",
    "latitude": 39.2776078,
    "longitude": -94.8994708,
    "description": "Kansas City dog owners rate Waggin' Tails Dog Park at 2900 Home Pl highly, with 4.6 stars from 186 visits. Dog owners looking for a solid destination will find this park delivers. The reviews indicate this is a trusted destination for dog owners in the area."
  },
  {
    "name": "Leash Free Dog Run",
    "street": "Wyandotte County Lake Park Rd",
    "city": "Kansas City",
    "state": "KS",
    "zip": "66109",
    "latitude": 39.1688523,
    "longitude": -94.7830641,
    "description": "53 dog owners have reviewed Leash Free Dog Run in Kansas City, averaging 4.1 stars. Open from 6am to 10pm daily, the park fits conveniently into different routines. Checking recent reviews can help dog owners decide if this park fits their needs."
  },
  {
    "name": "Leo Alvey Park",
    "street": "4850 Metropolitan Ave",
    "city": "Kansas City",
    "state": "KS",
    "zip": "66106",
    "latitude": 39.0731767,
    "longitude": -94.6925226,
    "description": "At 4850 Metropolitan Ave in Kansas City, Leo Alvey Park carries 4.1 stars from 153 dog owner reviews. Open from 6am to 9pm daily, the park is accessible for dog owners in the area. Dog owners visiting for the first time may want to read recent reviews to learn what to expect."
  },
  {
    "name": "Swanson's Streamway Dog Park",
    "street": "6241 Woodland Dr",
    "city": "Lenexa",
    "state": "KS",
    "zip": "66218",
    "latitude": 39.003591,
    "longitude": -94.8255103,
    "description": "Located at 6241 Woodland Dr in Lenexa, Swanson's Streamway Dog Park earns strong marks from local dog owners—4.8 stars from 140 reviews. Dog owners looking for a solid destination will find this park delivers. Other dog parks in the area include Shawnee Mission Park (2.7 miles) and Buffalo Meadows Park (3.9 miles)—both great for exploring with your four-legged friend."
  },
  {
    "name": "Buffalo Meadows Park",
    "street": "9650 Lone Elm Rd",
    "city": "Lenexa",
    "state": "KS",
    "zip": "66220",
    "latitude": 38.9469757,
    "longitude": -94.8345572,
    "description": "With 4.6 stars from 150 reviews, Buffalo Meadows Park at 9650 Lone Elm Rd has become a favorite among Lenexa dog owners. Open from 5am to 11pm daily, the park accommodates early risers and evening visitors alike. For variety, the neighborhood offers more dog parks to explore: Shawnee Mission Park (3.9 miles) and Swanson's Streamway Dog Park (3.9 miles)."
  },
  {
    "name": "Konza Prairie Biological Stati",
    "street": "100 Konza Prairie Ln",
    "city": "Manhattan",
    "state": "KS",
    "zip": "66502",
    "latitude": 39.1015496,
    "longitude": -96.6085875,
    "description": "Located at 100 Konza Prairie Ln in Manhattan, Konza Prairie Biological Stati earns strong marks from local dog owners—4.9 stars from 183 reviews. Open from 7am to 7pm daily, dog owners can plan visits around work or their pup's energy level. For a change of scenery, Stagg Hill Park is another dog-friendly destination 4.5 miles from here."
  },
  {
    "name": "Warner Memorial Park",
    "street": "",
    "city": "Manhattan",
    "state": "KS",
    "zip": "",
    "latitude": 39.1836082,
    "longitude": -96.5716694,
    "description": "Manhattan dog owners rate Warner Memorial Park highly, with 4.7 stars from 159 visits. Open from 8am to 11pm daily, dog owners can plan visits around work or their pup's energy level. Dog owners exploring the neighborhood can also bring their furry friends to Goodnow Park (0.7 miles)."
  },
  {
    "name": "Fairmont Park",
    "street": "125 Messenger Rd",
    "city": "Manhattan",
    "state": "KS",
    "zip": "66502",
    "latitude": 39.1772998,
    "longitude": -96.5461217,
    "description": "With 4.6 stars from 311 reviews, Fairmont Park at 125 Messenger Rd has become a favorite among Manhattan dog owners. Open from 6am to 11pm daily, the park offers flexibility for dog owners with varying routines. Dog owners can also take their pups to nearby Griffith Park (0.5 miles) or Goodnow Park (1.2 miles)."
  },
  {
    "name": "‍ Griffith Park",
    "street": "KS-18",
    "city": "Manhattan",
    "state": "KS",
    "zip": "66502",
    "latitude": 39.1748395,
    "longitude": -96.5548566,
    "description": "Dog owners in Manhattan have rated Griffith Park 4.4 stars across 7 reviews. Open from 6am to 11pm daily, the park gives dog owners in the neighborhood time to bring their pups. Nearby dog parks worth exploring with your pup include Fairmont Park (0.5 miles) and Warner Memorial Park (1.1 miles)."
  },
  {
    "name": "Park",
    "street": "5101 Miller Pkwy",
    "city": "Manhattan",
    "state": "KS",
    "zip": "66503",
    "latitude": 39.1682324,
    "longitude": -96.6229095,
    "description": "Located at 5101 Miller Pkwy, Park in Manhattan is rated 4.4 stars by 16 dog owners. Open from 6am to 10pm daily, the park is accessible for dog owners in the area. Dog owners might also enjoy Stagg Hill Park, another dog park just 0.5 miles away."
  },
  {
    "name": "Stagg Hill Park",
    "street": "3010 Irene Cir",
    "city": "Manhattan",
    "state": "KS",
    "zip": "66502",
    "latitude": 39.1660722,
    "longitude": -96.61369,
    "description": "Stagg Hill Park at 3010 Irene Cir in Manhattan has 4.4 stars from 41 dog owner reviews. Open from 6am to 10:30pm daily, the park fits conveniently into different routines. Dog owners might also enjoy Park, another dog park just 0.5 miles away."
  },
  {
    "name": "Northeast Community Park",
    "street": "680 Knox Ln",
    "city": "Manhattan",
    "state": "KS",
    "zip": "66502",
    "latitude": 39.2040382,
    "longitude": -96.5461148,
    "description": "For dog owners in Manhattan, Northeast Community Park at 680 Knox Ln has a 4.4-star rating (163 reviews). Open from 6am to 11pm daily, the park gives dog owners in the neighborhood time to bring their pups. For pups who want more adventure, Goodnow Park is a nearby dog park worth visiting (1.3 miles)."
  },
  {
    "name": "CiCo Park",
    "street": "Kimball Ave",
    "city": "Manhattan",
    "state": "KS",
    "zip": "66503",
    "latitude": 39.2012846,
    "longitude": -96.6379362,
    "description": "In Manhattan, CiCo Park has built a loyal following—4.4 stars from 554 dog owner reviews. Open from 5am to 11pm daily, the park works well for dog owners with different schedules. For variety, the neighborhood offers more dog parks to explore: Park (2.4 miles) and Stagg Hill Park (2.8 miles)."
  },
  {
    "name": "Goodnow Park",
    "street": "1101 N 4th St",
    "city": "Manhattan",
    "state": "KS",
    "zip": "66502",
    "latitude": 39.1899509,
    "longitude": -96.5614889,
    "description": "Dog owners in Manhattan have rated Goodnow Park (1101 N 4th St) 4.3 stars across 75 reviews. Open from 6am to 11pm daily, dog owners in the area can work a visit into their day. Dog owners in the neighborhood can also take their furry friends to Warner Memorial Park, 0.7 miles away."
  },
  {
    "name": "Shawnee Mission Park",
    "street": "18932 Barkley Dr",
    "city": "Overland Park",
    "state": "KS",
    "zip": "66219",
    "latitude": 38.9849368,
    "longitude": -94.7807396,
    "description": "At 18932 Barkley Dr in Overland Park, Shawnee Mission Park has built a loyal following—4.9 stars from 338 dog owner reviews. Dog owners looking for a solid destination will find this park delivers. Dog owners can also take their pups to nearby Swanson's Streamway Dog Park (2.7 miles) or Buffalo Meadows Park (3.9 miles)."
  },
  {
    "name": "Deanna Rose Children's Farmste",
    "street": "13800 Switzer Rd",
    "city": "Overland Park",
    "state": "KS",
    "zip": "66221",
    "latitude": 38.8782783,
    "longitude": -94.7005825,
    "description": "Dog owners have made Deanna Rose Children's Farmste at 13800 Switzer Rd one of Overland Park's most popular destinations—4.8 stars from 5,802 visits. Open from 9am to 5pm daily, dog owners have maximum flexibility to plan their visit. Dog owners exploring the area should also bring their pups to Lexington Park (2.6 miles) and Nottingham Downs Park (2.7 miles)."
  },
  {
    "name": "Bar K",
    "street": "501 Berkley Pkwy",
    "city": "Overland Park",
    "state": "KS",
    "zip": "64120",
    "latitude": 39.1146622,
    "longitude": -94.5778417,
    "description": "3,256 dog owners have made Bar K (501 Berkley Pkwy) one of Overland Park's most trusted parks (4.7 stars). Dog owners appreciate the reliable experience this park provides for their four-legged companions. Looking to mix things up? Berkley Riverfront is a nearby dog park 0.5 miles away that's worth exploring with your pup."
  },
  {
    "name": "‍ Franklin Park",
    "street": "8700 Roe Ave",
    "city": "Overland Park",
    "state": "KS",
    "zip": "66207",
    "latitude": 38.972853,
    "longitude": -94.637774,
    "description": "With 4.7 stars from 434 reviews, Franklin Park at 8700 Roe Ave has become a favorite among Overland Park dog owners. Open from 7am to 11pm daily, the park offers flexibility for dog owners with varying routines. Nearby, Antioch Acres Park (2.8 miles) offers dog owners another great spot to explore with their pups."
  },
  {
    "name": "Nottingham Downs Park",
    "street": "12520 Lamar Ave",
    "city": "Overland Park",
    "state": "KS",
    "zip": "66209",
    "latitude": 38.900411,
    "longitude": -94.659232,
    "description": "Located at 12520 Lamar Ave in Overland Park, Nottingham Downs Park earns strong marks from local dog owners—4.7 stars from 15 reviews. Open from 5am to 10pm daily, there's room in the day for dog owners to bring their furry friends. Dog owners exploring the neighborhood can also bring their furry friends to Lexington Park (1.2 miles)."
  },
  {
    "name": "Kill Creek Streamway Dog Park",
    "street": "33460 W 95th St",
    "city": "Overland Park",
    "state": "KS",
    "zip": "66018",
    "latitude": 38.9566694,
    "longitude": -94.9729724,
    "description": "With 4.6 stars from 158 reviews, Kill Creek Streamway Dog Park at 33460 W 95th St has become a favorite among Overland Park dog owners. Open from 6am to 10pm daily, dog owners have plenty of flexibility to plan a visit. A solid track record makes this a reliable choice for dog owners."
  },
  {
    "name": "Platte Landing Park",
    "street": "300 S Main St",
    "city": "Overland Park",
    "state": "KS",
    "zip": "64152",
    "latitude": 39.1939574,
    "longitude": -94.6837918,
    "description": "Located at 300 S Main St in Overland Park, Platte Landing Park earns strong marks from local dog owners—4.6 stars from 316 reviews. Open from 5:30am to 9pm daily, there's room in the day for dog owners to bring their furry friends. Nearby, E. H. Young Riverfront Park (4.0 miles) offers dog owners another great spot to explore with their pups."
  },
  {
    "name": "Thomas S. Stoll Memorial Park",
    "street": "12500 W 119th St",
    "city": "Overland Park",
    "state": "KS",
    "zip": "66210",
    "latitude": 38.9129325,
    "longitude": -94.7323404,
    "description": "Thomas S. Stoll Memorial Park at 12500 W 119th St is well-regarded by Overland Park dog owners, holding 4.6 stars across 845 reviews. Open from 5am to 10pm daily, the park offers flexibility for dog owners with varying routines. Nearby, Deanna Rose Children's Farmste (2.9 miles) offers dog owners another great spot to explore with their pups."
  },
  {
    "name": "Waggin' Trail Dog Park",
    "street": "432 E 32nd Ave",
    "city": "Overland Park",
    "state": "KS",
    "zip": "64116",
    "latitude": 39.1522943,
    "longitude": -94.5768219,
    "description": "Waggin' Trail Dog Park at 432 E 32nd Ave is a favorite among Overland Park dog owners, earning 4.6 stars from 1,077 reviews. Open from 7am to 7pm daily, the park is convenient for before work, after work, or weekend adventures. Dog owners in the area also love bringing their pups to Berkley Riverfront (2.4 miles) and E. H. Young Riverfront Park (2.4 miles)."
  },
  {
    "name": "Creekside Park",
    "street": "15599 Nall Ave",
    "city": "Overland Park",
    "state": "KS",
    "zip": "66223",
    "latitude": 38.8458034,
    "longitude": -94.6490665,
    "description": "For dog owners in Overland Park, Creekside Park at 15599 Nall Ave has a 4.4-star rating (40 reviews). Open from 5am to 10pm daily, dog owners have flexibility to plan a visit with their four-legged friends. Looking to explore more? Deanna Rose Children's Farmste is another dog-friendly park 3.6 miles from here."
  },
  {
    "name": "Westbrooke Park",
    "street": "10702 W 88th Terrace",
    "city": "Overland Park",
    "state": "KS",
    "zip": "66214",
    "latitude": 38.9674348,
    "longitude": -94.7099579,
    "description": "At 10702 W 88th Terrace, Westbrooke Park has 4.4 stars based on 41 reviews from Overland Park dog owners. Open from 5am to 10pm daily, dog owners can stop by when it fits their schedule. For dog owners who like to explore, Antioch Acres Park (1.8 miles) and Franklin Park (3.9 miles) are both nearby parks to try with your dog."
  },
  {
    "name": "Leawoof Dog Park",
    "street": "106th & Lee Boulevard",
    "city": "Overland Park",
    "state": "KS",
    "zip": "66211",
    "latitude": 38.9333436,
    "longitude": -94.6199569,
    "description": "Leawoof Dog Park (4.5 stars from 423 reviews) is a popular destination for Overland Park dog owners, located at 106th & Lee Boulevard. Dog owners frequent this park for its consistent quality and welcoming atmosphere. For a change of scenery, Franklin Park is another dog-friendly destination 2.9 miles from here."
  },
  {
    "name": "Antioch Acres Park",
    "street": "8706 W 79th St",
    "city": "Overland Park",
    "state": "KS",
    "zip": "66204",
    "latitude": 38.9858868,
    "longitude": -94.6865942,
    "description": "Dog owners in Overland Park have rated Antioch Acres Park (8706 W 79th St) 4.4 stars across 88 reviews. Open from 5am to 10pm daily, the park gives dog owners in the neighborhood time to bring their pups. Dog owners in the neighborhood can also take their furry friends to Westbrooke Park, 1.8 miles away."
  },
  {
    "name": "Swope Dog Park",
    "street": "5051 E Gregory Blvd",
    "city": "Overland Park",
    "state": "KS",
    "zip": "64132",
    "latitude": 38.996687,
    "longitude": -94.529123,
    "description": "At 5051 E Gregory Blvd in Overland Park, Swope Dog Park has built a loyal following—4.4 stars from 563 dog owner reviews. Open from 5am to 12am daily, dog owners have plenty of flexibility to plan a visit. For variety, the neighborhood offers more dog parks to explore: Swope Park (2.8 miles) and Loose Park (4.2 miles)."
  },
  {
    "name": "Penn Valley Off Leash Dog Park",
    "street": "",
    "city": "Overland Park",
    "state": "KS",
    "zip": "",
    "latitude": 39.100105,
    "longitude": -94.5781416,
    "description": "For dog owners in the Overland Park area, Penn Valley Off Leash Dog Park offers a 4.4-star experience based on 584 reviews. Open from 5am to 12am daily, the park accommodates early risers and evening visitors alike. Looking for more places to take your pup? Frank A. Theis Park is another popular dog park just 0.0 miles away."
  },
  {
    "name": "Lexington Park",
    "street": "12050 Lowell Ave",
    "city": "Overland Park",
    "state": "KS",
    "zip": "66213",
    "latitude": 38.9115899,
    "longitude": -94.6771706,
    "description": "Located at 12050 Lowell Ave, Lexington Park offers Overland Park dog owners a neighborhood destination for their four-legged friends. Open from 5am to 10pm daily, dog owners have a window to spend time with their pups. Dog owners in the neighborhood can also take their furry friends to Nottingham Downs Park, 1.2 miles away."
  },
  {
    "name": "Dog Park",
    "street": "1811 NW Brickyard Rd",
    "city": "Topeka",
    "state": "KS",
    "zip": "66618",
    "latitude": 39.0819108,
    "longitude": -95.7259068,
    "description": "For dog owners in the Topeka area, Dog Park (1811 NW Brickyard Rd) offers a 4.8-star experience based on 8 reviews. For dog owners in the area, this park has become a trusted spot for time with their pups. More dog-friendly parks nearby include Hills Pet Nutrition Bark Park (1.6 miles) and Big Shunga Park (3.4 miles)—perfect for pups who love adventure."
  },
  {
    "name": "Hills Pet Nutrition Bark Park",
    "street": "620 SW Zoo Pkwy",
    "city": "Topeka",
    "state": "KS",
    "zip": "66606",
    "latitude": 39.058184,
    "longitude": -95.7273241,
    "description": "With 4.5 stars from 175 reviews, Hills Pet Nutrition Bark Park at 620 SW Zoo Pkwy has become a favorite among Topeka dog owners. Dog owners frequent this park for its consistent quality and welcoming atmosphere. Nearby, Dog Park (1.6 miles) offers dog owners another great spot to explore with their pups."
  },
  {
    "name": "Big Shunga Park",
    "street": "",
    "city": "Topeka",
    "state": "KS",
    "zip": "",
    "latitude": 39.049011,
    "longitude": -95.677556,
    "description": "Dog owners in Topeka have made Big Shunga Park a go-to spot, rating it 4.5 stars across 211 reviews. Open from 6am to 11pm daily, there's plenty of opportunity for dog owners to find a time that works. For a change of scenery, Shawnee Lake Off-Leash Dog is another dog-friendly destination 0.0 miles from here."
  },
  {
    "name": "Shawnee Lake Off-Leash Dog",
    "street": "",
    "city": "Topeka",
    "state": "KS",
    "zip": "",
    "latitude": 39.049011,
    "longitude": -95.677556,
    "description": "In Topeka, Shawnee Lake Off-Leash Dog carries 4.4 stars from 21 dog owner reviews. Open from 6am to 11pm daily, dog owners in the area can work a visit into their day. More dog parks in the area include Big Shunga Park (0.0 miles) and Hills Pet Nutrition Bark Park (2.7 miles)—great options for mixing up your pup's routine."
  },
  {
    "name": "Pawnee Prairie Park",
    "street": "2625 S Tyler Rd",
    "city": "Wichita",
    "state": "KS",
    "zip": "67209",
    "latitude": 37.6473849,
    "longitude": -97.4440834,
    "description": "Pawnee Prairie Park at 2625 S Tyler Rd in Wichita is a community favorite, with 1,088 dog owners giving it 4.7 stars. Open from 4am to 12am daily, dog owners can plan visits around their pup's favorite times to be active. Thousands of dog owners have found this to be a reliable destination for their pups."
  },
  {
    "name": "Haysville Dog Park",
    "street": "400 W 79th St SHaysville",
    "city": "Wichita",
    "state": "KS",
    "zip": "67060",
    "latitude": 37.5493016,
    "longitude": -97.4204013,
    "description": "Located at 400 W 79th St S in Wichita, Haysville Dog Park earns strong marks from local dog owners—4.7 stars from 173 reviews. Open from 5am to 12am daily, the park accommodates early risers and evening visitors alike. Dog owners looking for a dependable spot will find this park lives up to its ratings."
  },
  {
    "name": "Sedgwick County Park",
    "street": "6501 W 21st St",
    "city": "Wichita",
    "state": "KS",
    "zip": "67205",
    "latitude": 37.723214,
    "longitude": -97.421481,
    "description": "Dog owners in Wichita have embraced Sedgwick County Park (6501 W 21st St) as a top destination—4.6 stars from 3,248 visits. Open from 6am to 10pm daily, dog owners have room to work around busy schedules. With this many positive experiences, dog owners can visit with confidence."
  },
  {
    "name": "Naftzger Park",
    "street": "601 E Douglas Ave",
    "city": "Wichita",
    "state": "KS",
    "zip": "67202",
    "latitude": 37.686134,
    "longitude": -97.3314752,
    "description": "Naftzger Park (4.6 stars from 330 reviews) is a popular destination for Wichita dog owners, located at 601 E Douglas Ave. Open from 6am to 12am daily, dog owners have plenty of flexibility to plan a visit. Dog owners can also take their pups to nearby Murfin Dog Park (4.2 miles) or Chapin Park (4.6 miles)."
  },
  {
    "name": "Decarsky Park",
    "street": "",
    "city": "Wichita",
    "state": "KS",
    "zip": "",
    "latitude": 37.5455735,
    "longitude": -97.2689331,
    "description": "For dog owners in the Wichita area, Decarsky Park offers a 4.6-star experience based on 108 reviews. The park has earned its reputation among dog owners in the neighborhood as a reliable choice. Local dog owners have clearly found this to be a worthwhile destination."
  },
  {
    "name": "W.B. Harrison Park",
    "street": "1300 S Webb Rd",
    "city": "Wichita",
    "state": "KS",
    "zip": "67207",
    "latitude": 37.6681919,
    "longitude": -97.2260473,
    "description": "With 4.5 stars from 541 reviews, W.B. Harrison Park at 1300 S Webb Rd has become a favorite among Wichita dog owners. Open from 6am to 12am daily, the park works well for dog owners with different schedules. For a change of scenery, Dog Park is another dog-friendly destination 4.7 miles from here."
  },
  {
    "name": "‍ Murfin Dog Park",
    "street": "3313 N Hillside St",
    "city": "Wichita",
    "state": "KS",
    "zip": "67219",
    "latitude": 37.7418761,
    "longitude": -97.3010076,
    "description": "Murfin Dog Park at 3313 N Hillside St holds a 4.4-star rating from 116 Wichita dog owner visits. Open from 6am to 12am daily, the park gives dog owners in the neighborhood time to bring their pups. Looking to explore more? Naftzger Park is another dog-friendly park 4.2 miles from here."
  },
  {
    "name": "‍ Chapin Park",
    "street": "2400 E Mac",
    "city": "Wichita",
    "state": "KS",
    "zip": "67216",
    "latitude": 37.6227592,
    "longitude": -97.3068214,
    "description": "Chapin Park at 2400 E MacArthur Rd is well-regarded by Wichita dog owners, holding 4.4 stars across 771 reviews. Open from 6am to 12am daily, the park works well for dog owners with different schedules. Dog owners exploring the neighborhood can also bring their furry friends to Naftzger Park (4.6 miles)."
  }
]