[
  {
    "name": "Hynson Dog Park",
    "street": "Gilbert St",
    "city": "‍ Alexandria",
    "state": "LA",
    "zip": "71301",
    "latitude": 31.2882116,
    "longitude": -92.4534378,
    "description": "Dog owners in Alexandria have rated Hynson Dog Park 4.4 stars across 175 reviews. Open from 7am to 7pm daily, dog owners have a window to spend time with their pups. Dog owners can find more details about this park in the reviews from other visitors."
  },
  {
    "name": "City-Brooks Community Park",
    "street": "1515 Dalrymple Dr",
    "city": "Baton Rouge",
    "state": "LA",
    "zip": "70806",
    "latitude": 30.4312312,
    "longitude": -91.167521,
    "description": "With 4.6 stars across 1,079 reviews, City-Brooks Community Park at 1515 Dalrymple Dr has clearly won over Baton Rouge dog owners. Open from 7am to 6pm daily, the park accommodates a variety of dog owner schedules and routines. Nearby, Raising Cane's Dog Park (0.3 miles) is another dog park favorite where you can take your four-legged friend."
  },
  {
    "name": "Dog Park",
    "street": "12400 Burbank Dr",
    "city": "Baton Rouge",
    "state": "LA",
    "zip": "70810",
    "latitude": 30.3868378,
    "longitude": -91.1557645,
    "description": "Dog Park (4.6 stars from 536 reviews) is a popular destination for Baton Rouge dog owners, located at 12400 Burbank Dr. Open from 6am to 7pm, Tuesday through Sunday, there's plenty of opportunity for dog owners to find a time that works. Looking for more places to take your pup? City-Brooks Community Park is another popular dog park just 3.1 miles away."
  },
  {
    "name": "Raising Canes Dog Park",
    "street": "13900 S Harrells Ferry Rd",
    "city": "Baton Rouge",
    "state": "LA",
    "zip": "70816",
    "latitude": 30.4253091,
    "longitude": -91.0071143,
    "description": "With 4.6 stars from 182 reviews, Raising Canes Dog Park at 13900 S Harrells Ferry Rd has become a favorite among Baton Rouge dog owners. Open from 8am to 8pm daily, the park offers flexibility for dog owners with varying routines. Dog owners looking for a dependable spot will find this park lives up to its ratings."
  },
  {
    "name": "West Baton Rouge Dog Park",
    "street": "610 Rosedale Rd",
    "city": "Baton Rouge",
    "state": "LA",
    "zip": "70767",
    "latitude": 30.4635248,
    "longitude": -91.2076891,
    "description": "West Baton Rouge Dog Park (4.6 stars from 25 reviews) is a popular destination for Baton Rouge dog owners, located at 610 Rosedale Rd. The steady stream of dog owner visits speaks to the park's appeal. Dog owners can also take their pups to nearby Raising Cane's Dog Park (3.0 miles) or City-Brooks Community Park (3.3 miles)."
  },
  {
    "name": "‍ Raising Cane's Dog Park",
    "street": "1442 City Park Ave",
    "city": "Baton Rouge",
    "state": "LA",
    "zip": "70808",
    "latitude": 30.4346765,
    "longitude": -91.1692752,
    "description": "For dog owners in the Baton Rouge area, Raising Cane's Dog Park (1442 City Park Ave) offers a 4.5-star experience based on 552 reviews. Open from 7am to 7pm, every day except Tuesday and Thursday, the park accommodates early risers and evening visitors alike. For variety, the neighborhood offers more dog parks to explore: City-Brooks Community Park (0.3 miles) and West Baton Rouge Dog Park (3.0 miles)."
  },
  {
    "name": "Field of Dreams",
    "street": "4714 Hazel Jones Rd",
    "city": "Bossier City",
    "state": "LA",
    "zip": "71111",
    "latitude": 32.5469088,
    "longitude": -93.6734758,
    "description": "Dog owners in Bossier City have made Field of Dreams at 4714 Hazel Jones Rd a go-to spot, rating it 4.8 stars across 321 reviews. Open from 6am to 8pm daily, there's plenty of opportunity for dog owners to find a time that works. For variety, the neighborhood offers more dog parks to explore: Hooter Park (3.0 miles) and Mike Wood Memorial Park (4.4 miles)."
  },
  {
    "name": "Red River National Wildlife",
    "street": "150 Eagle Bend Point",
    "city": "Bossier City",
    "state": "LA",
    "zip": "71112",
    "latitude": 32.4474431,
    "longitude": -93.6723251,
    "description": "With 4.7 stars from 838 reviews, Red River National Wildlife at 150 Eagle Bend Point has become a favorite among Bossier City dog owners. Open from 8am to 4pm, Monday through Saturday, the park accommodates early risers and evening visitors alike. Dog owners exploring the neighborhood can also bring their furry friends to Mike Wood Memorial Park (2.6 miles)."
  },
  {
    "name": "Hooter Park",
    "street": "1519 Hooter St",
    "city": "Bossier City",
    "state": "LA",
    "zip": "71112",
    "latitude": 32.5061995,
    "longitude": -93.6887699,
    "description": "Hooter Park (5.0 stars from 6 reviews) is a popular destination for Bossier City dog owners, located at 1519 Hooter St. Dog owners frequent this park for its consistent quality and welcoming atmosphere. Dog owners can also take their pups to nearby Mike Wood Memorial Park (2.1 miles) or East Kings Highway Park (2.8 miles)."
  },
  {
    "name": "Veterans Memorial Park",
    "street": "",
    "city": "Bossier City",
    "state": "LA",
    "zip": "",
    "latitude": 32.5135356,
    "longitude": -93.7477839,
    "description": "With 4.6 stars from 223 reviews, Veterans Memorial Park has become a favorite among Bossier City dog owners. For dog owners in the area, this park has become a trusted spot for time with their pups. Looking for more places to take your pup? Stoner Avenue Recreation Area is another popular dog park just 0.0 miles away."
  },
  {
    "name": "Stoner Avenue Recreation Area",
    "street": "",
    "city": "Bossier City",
    "state": "LA",
    "zip": "",
    "latitude": 32.5135356,
    "longitude": -93.7477839,
    "description": "Stoner Avenue Recreation Area is well-regarded by Bossier City dog owners, holding 4.5 stars across 6 reviews. Local dog owners appreciate what this park offers their four-legged friends. Dog owners can also take their pups to nearby Veterans Memorial Park (0.0 miles) or Shreveport Dog Park (0.9 miles)."
  },
  {
    "name": "‍ Mike Wood Memorial Park",
    "street": "2200 Dennis St",
    "city": "Bossier City",
    "state": "LA",
    "zip": "71112",
    "latitude": 32.4842592,
    "longitude": -93.6631662,
    "description": "Bossier City dog owners rate Mike Wood Memorial Park at 2200 Dennis St highly, with 4.5 stars from 410 visits. Dog owners in the area consistently choose this park as a go-to destination for their pups. More dog-friendly parks nearby include Hooter Park (2.1 miles) and Red River National Wildlife (2.6 miles)—perfect for pups who love adventure."
  },
  {
    "name": "Southern Hills Park",
    "street": "1002 W Bert Kouns Industrial Loop",
    "city": "Bossier City",
    "state": "LA",
    "zip": "71118",
    "latitude": 32.4021495,
    "longitude": -93.7851043,
    "description": "Southern Hills Park at 1002 W Bert Kouns Industrial Loop is well-regarded by Bossier City dog owners, holding 4.4 stars across 597 reviews. The steady stream of dog owner visits speaks to the park's appeal. The consistent ratings suggest dog owners know what to expect here."
  },
  {
    "name": "‍ East Kings Highway Park",
    "street": "1200 E Kings Hwy",
    "city": "Bossier City",
    "state": "LA",
    "zip": "71105",
    "latitude": 32.47103,
    "longitude": -93.711569,
    "description": "East Kings Highway Park at 1200 E Kings Hwy is well-regarded by Bossier City dog owners, holding 4.4 stars across 755 reviews. Open from 6am to 10pm daily, dog owners can easily fit a visit into busy schedules. More dog-friendly parks nearby include Betty Virginia Park (2.3 miles) and Hooter Park (2.8 miles)—perfect for pups who love adventure."
  },
  {
    "name": "Moncus Park",
    "street": "2913 Johnston St",
    "city": "Lafayette",
    "state": "LA",
    "zip": "70503",
    "latitude": 30.2055904,
    "longitude": -92.0409975,
    "description": "With 4.7 stars from 583 reviews, Moncus Park at 2913 Johnston St has become a favorite among Lafayette dog owners. Open from 5am to 10pm daily, the park offers flexibility for dog owners with varying routines. Dog owners can also take their pups to nearby Parc de Lafayette (1.9 miles) or The Saloom Family Community (2.0 miles)."
  },
  {
    "name": "Acadiana Park",
    "street": "1205 E Alexander St",
    "city": "Lafayette",
    "state": "LA",
    "zip": "70501",
    "latitude": 30.2534678,
    "longitude": -91.9860147,
    "description": "Acadiana Park (4.7 stars from 271 reviews) is a popular destination for Lafayette dog owners, located at 1205 E Alexander St. Local dog owners appreciate what this park offers their four-legged friends. For variety, the neighborhood offers more dog parks to explore: Mouton Park (1.1 miles) and Graham Brown Memorial Park (1.5 miles)."
  },
  {
    "name": "Mouton Park",
    "street": "803 Center St",
    "city": "Lafayette",
    "state": "LA",
    "zip": "70501",
    "latitude": 30.2396774,
    "longitude": -91.9947382,
    "description": "Lafayette dog owners rate Mouton Park at 803 Center St highly, with 4.6 stars from 28 visits. Local dog owners appreciate what this park offers their four-legged friends. Looking for more places to take your pup? Veteran's Park is another popular dog park just 1.1 miles away."
  },
  {
    "name": "Parc de Lafayette",
    "street": "539 Jefferson St",
    "city": "Lafayette",
    "state": "LA",
    "zip": "70501",
    "latitude": 30.2251042,
    "longitude": -92.0186898,
    "description": "At 539 Jefferson St in Lafayette, Parc de Lafayette has built a loyal following—4.5 stars from 34 dog owner reviews. The park serves dog owners well, providing a destination the community values. For variety, the neighborhood offers more dog parks to explore: The Saloom Family Community (0.1 miles) and Chargois Park (0.1 miles)."
  },
  {
    "name": "Skye's Dream Dog Park",
    "street": "",
    "city": "Lafayette",
    "state": "LA",
    "zip": "",
    "latitude": 30.2735323,
    "longitude": -91.8992837,
    "description": "13 dog owners have reviewed Skye's Dream Dog Park in Lafayette, averaging 4.3 stars. Dog owners in the area appreciate having a local spot to bring their pups. Reviews from other dog owners provide perspective on what to expect at this park."
  },
  {
    "name": "Veterans Park",
    "street": "200 Feu Follet Rd",
    "city": "Lafayette",
    "state": "LA",
    "zip": "70508",
    "latitude": 30.18198,
    "longitude": -92.015093,
    "description": "Located at 200 Feu Follet Rd, Veterans Park in Lafayette is rated 4.4 stars by 248 dog owners. For dog owners in the neighborhood, this park offers a place to take their pups. Dog owners might also enjoy Beaullieu Park, another dog park just 1.7 miles away."
  },
  {
    "name": "Graham Brown Memorial Park",
    "street": "1234 E Pont Des Mouton Rd",
    "city": "Lafayette",
    "state": "LA",
    "zip": "70507",
    "latitude": 30.2724479,
    "longitude": -91.9967683,
    "description": "For dog owners in Lafayette, Graham Brown Memorial Park at 1234 E Pont Des Mouton Rd has a 4.4-star rating (284 reviews). Open from 7am to 8pm daily, local dog owners have time to explore with their furry companions. Dog owners looking for variety can also visit Acadiana Park (1.5 miles) or Mouton Park (2.3 miles) with their four-legged friends."
  },
  {
    "name": "‍ Veteran's Park",
    "street": "100 Moss St",
    "city": "Lafayette",
    "state": "LA",
    "zip": "70501",
    "latitude": 30.230188,
    "longitude": -92.009009,
    "description": "For dog owners in Lafayette, Veteran's Park at 100 Moss St has a 4.2-star rating (19 reviews). The neighborhood benefits from having this park as an option for dog owners and their pups. Looking to explore more? The Saloom Family Community is another dog-friendly park 0.6 miles from here."
  },
  {
    "name": "Beaullieu Park",
    "street": "411 W Bluebird Dr",
    "city": "Lafayette",
    "state": "LA",
    "zip": "70508",
    "latitude": 30.1598961,
    "longitude": -92.0271178,
    "description": "For dog owners in Lafayette, Beaullieu Park at 411 W Bluebird Dr has a 4.3-star rating (276 reviews). Dog owners in the area appreciate having a local spot to bring their pups. For dog owners who like to explore, Veterans Park (1.7 miles) and Moncus Park (3.3 miles) are both nearby parks to try with your dog."
  },
  {
    "name": "The Saloom Family Community",
    "street": "",
    "city": "Lafayette",
    "state": "LA",
    "zip": "",
    "latitude": 30.2262187,
    "longitude": -92.0178202,
    "description": "The Saloom Family Community serves dog owners in the Lafayette neighborhood looking for a place to visit with their pups. The park gives neighborhood dog owners a destination for outings with their four-legged friends. More dog parks in the area include Chargois Park (0.0 miles) and Parc de Lafayette (0.1 miles)—great options for mixing up your pup's routine."
  },
  {
    "name": "Chargois Park",
    "street": "",
    "city": "Lafayette",
    "state": "LA",
    "zip": "",
    "latitude": 30.2262187,
    "longitude": -92.0178202,
    "description": "Chargois Park holds a 4.2-star rating from 123 Lafayette dog owner visits. The park serves as a gathering spot for dog owners and their four-legged friends in the area. For pups who want more adventure, The Saloom Family Community is a nearby dog park worth visiting (0.0 miles)."
  },
  {
    "name": "Bark Du Lac Dog Park",
    "street": "100-198 W Pine St",
    "city": "‍ Lake Charles",
    "state": "LA",
    "zip": "70601",
    "latitude": 30.2329221,
    "longitude": -93.2187372,
    "description": "Dog owners in Lake Charles have rated Bark Du Lac Dog Park (100-198 W Pine St) 4.3 stars across 191 reviews. Open from 9am to 9pm daily, dog owners have a window to spend time with their pups. For dog owners considering a visit, the reviews offer firsthand accounts from other visitors."
  },
  {
    "name": "New Orleans City Park",
    "street": "1 Palm Dr",
    "city": "New Orleans",
    "state": "LA",
    "zip": "70124",
    "latitude": 29.9759983,
    "longitude": -90.0782127,
    "description": "At 1 Palm Dr in New Orleans, New Orleans City Park draws dog owners from across the area—4.8 stars from 19,349 reviews. Open from 5am to 10pm daily, dog owners can find the perfect time for their furry friend. The neighborhood offers dog owners more places to bring their pups: Hardin Park (0.8 miles) and The Dog House (1.1 miles)."
  },
  {
    "name": "‍ Lafreniere Park",
    "street": "3000 Downs Blvd",
    "city": "New Orleans",
    "state": "LA",
    "zip": "70003",
    "latitude": 29.9988019,
    "longitude": -90.2087903,
    "description": "Lafreniere Park at 3000 Downs Blvd in New Orleans is a community favorite, with 4,452 dog owners giving it 4.7 stars. Dog owners appreciate the reliable experience this park provides for their four-legged companions. For variety, many dog owners also bring their furry friends to Rio Vista Dog Park (4.0 miles)—another great dog park in the area."
  },
  {
    "name": "‍ Audubon Park",
    "street": "6500 Magazine St",
    "city": "New Orleans",
    "state": "LA",
    "zip": "70118",
    "latitude": 29.924361,
    "longitude": -90.127358,
    "description": "Audubon Park at 6500 Magazine St in New Orleans has earned its reputation with 4.7 stars from 8,318 dog owner reviews. Open from 5am to 10pm daily, dog owners have maximum flexibility to plan their visit. The neighborhood offers dog owners more places to bring their pups: Carver Playground (0.7 miles) and Wisner Playground (1.2 miles)."
  },
  {
    "name": "‍ The Dog House",
    "street": "2736 Banks St",
    "city": "New Orleans",
    "state": "LA",
    "zip": "70119",
    "latitude": 29.9630566,
    "longitude": -90.090139,
    "description": "For dog owners in the New Orleans area, The Dog House (2736 Banks St) offers a 4.6-star experience based on 40 reviews. The park has earned its reputation among dog owners in the neighborhood as a reliable choice. Nearby, New Orleans City Park (1.1 miles) offers dog owners another great spot to explore with their pups."
  },
  {
    "name": "Kenner City Park",
    "street": "3800 Loyola Dr",
    "city": "New Orleans",
    "state": "LA",
    "zip": "70065",
    "latitude": 30.0338731,
    "longitude": -90.2676194,
    "description": "New Orleans dog owners rate Kenner City Park at 3800 Loyola Dr highly, with 4.6 stars from 58 visits. Dog owners in the area consistently choose this park as a go-to destination for their pups. For a change of scenery, Lafreniere Park is another dog-friendly destination 4.3 miles from here."
  },
  {
    "name": "Fleur De Lis Park",
    "street": "6701 Fleur De Lis Dr",
    "city": "New Orleans",
    "state": "LA",
    "zip": "70124",
    "latitude": 30.0143142,
    "longitude": -90.1182857,
    "description": "For dog owners in the New Orleans area, Fleur De Lis Park (6701 Fleur De Lis Dr) offers a 4.6-star experience based on 76 reviews. Open from 6am to 10pm daily, there's room in the day for dog owners to bring their furry friends. More dog-friendly parks nearby include Pontiff Park (2.4 miles) and New Orleans City Park (3.6 miles)—perfect for pups who love adventure."
  },
  {
    "name": "Clouet Gardens",
    "street": "710 Clouet St",
    "city": "New Orleans",
    "state": "LA",
    "zip": "70117",
    "latitude": 29.9637033,
    "longitude": -90.0454939,
    "description": "Clouet Gardens (4.6 stars from 103 reviews) is a popular destination for New Orleans dog owners, located at 710 Clouet St. Open from 6am to 9:30pm daily, the park offers flexibility for dog owners with varying routines. Dog owners exploring the neighborhood can also bring their furry friends to Mickey Markey Park (0.2 miles)."
  },
  {
    "name": "Woldenberg Park",
    "street": "1 Canal St",
    "city": "New Orleans",
    "state": "LA",
    "zip": "70130",
    "latitude": 29.9508819,
    "longitude": -90.0632066,
    "description": "Dog owners have made Woldenberg Park at 1 Canal St one of New Orleans's most popular destinations—4.6 stars from 5,745 visits. Tens of thousands of dog owners have discovered what makes this park special. Dog owners in the area also frequent Cabrini Playground (0.9 miles)—another top dog park worth visiting with your pup."
  },
  {
    "name": "Parc des Familles Dog Park",
    "street": "6101 Lafitte Pkwy",
    "city": "New Orleans",
    "state": "LA",
    "zip": "70072",
    "latitude": 29.8018526,
    "longitude": -90.0914731,
    "description": "For dog owners in the New Orleans area, Parc des Familles Dog Park (6101 Lafitte Pkwy) offers a 4.5-star experience based on 49 reviews. Open from 7am to 6pm daily, dog owners can plan visits around work or their pup's energy level. Dog owners looking for a dependable spot will find this park lives up to its ratings."
  },
  {
    "name": "‍ McDonough Zachery Park",
    "street": "1500 Toledano St",
    "city": "New Orleans",
    "state": "LA",
    "zip": "70115",
    "latitude": 29.927426,
    "longitude": -90.089694,
    "description": "Located at 1500 Toledano St, McDonough Zachery Park in New Orleans is rated 4.3 stars by 15 dog owners. The neighborhood benefits from having this park as an option for dog owners and their pups. For dog owners who like to explore, Coliseum Square Park (1.1 miles) and Wisner Dog Park (1.2 miles) are both nearby parks to try with your dog."
  },
  {
    "name": "‍ Wisner Playground",
    "street": "4877 Laurel St",
    "city": "New Orleans",
    "state": "LA",
    "zip": "70115",
    "latitude": 29.9183368,
    "longitude": -90.1079842,
    "description": "Located at 4877 Laurel St in New Orleans, Wisner Playground earns strong marks from local dog owners—4.5 stars from 66 reviews. Open from 6am to 9pm daily, dog owners can plan visits around work or their pup's energy level. Other dog parks in the area include Wisner Dog Park (0.0 miles) and Audubon Park (1.2 miles)—both great for exploring with your four-legged friend."
  },
  {
    "name": "Carver Playground",
    "street": "7410 Prytania St",
    "city": "New Orleans",
    "state": "LA",
    "zip": "70118",
    "latitude": 29.9334361,
    "longitude": -90.1333282,
    "description": "At 7410 Prytania St in New Orleans, Carver Playground carries 4.4 stars from 29 dog owner reviews. Open from 6am to 9pm daily, dog owners have a window to spend time with their pups. Dog owners might also enjoy Audubon Park, another dog park just 0.7 miles away."
  },
  {
    "name": "Camellia City Bark Park",
    "street": "901 Howze Beach Rd",
    "city": "New Orleans",
    "state": "LA",
    "zip": "70458",
    "latitude": 30.2466145,
    "longitude": -89.7698004,
    "description": "For dog owners in the New Orleans area, Camellia City Bark Park (901 Howze Beach Rd) offers a 4.5-star experience based on 142 reviews. Open from 7am to 5pm daily, dog owners have plenty of flexibility to plan a visit. Local dog owners have clearly found this to be a worthwhile destination."
  },
  {
    "name": "Coliseum Square Park",
    "street": "1708 Coliseum St",
    "city": "New Orleans",
    "state": "LA",
    "zip": "70130",
    "latitude": 29.936014,
    "longitude": -90.0741407,
    "description": "Located at 1708 Coliseum St in New Orleans, Coliseum Square Park earns strong marks from local dog owners—4.5 stars from 583 reviews. Open from 6am to 10:30pm daily, there's plenty of opportunity for dog owners to find a time that works. Nearby, McDonough Zachery Park (1.1 miles) offers dog owners another great spot to explore with their pups."
  },
  {
    "name": "Mickey Markey Park",
    "street": "3301 Royal St",
    "city": "New Orleans",
    "state": "LA",
    "zip": "70117",
    "latitude": 29.962938,
    "longitude": -90.042693,
    "description": "90 dog owners have reviewed Mickey Markey Park at 3301 Royal St in New Orleans, averaging 4.4 stars. Dog owners in the area appreciate having a local spot to bring their pups. Dog owners might also enjoy Clouet Gardens, another dog park just 0.2 miles away."
  },
  {
    "name": "Rio Vista Dog Park",
    "street": "",
    "city": "New Orleans",
    "state": "LA",
    "zip": "",
    "latitude": 29.9665206,
    "longitude": -90.1529006,
    "description": "Rio Vista Dog Park serves dog owners in the New Orleans neighborhood looking for a place to visit with their pups. The neighborhood benefits from having this park as an option for dog owners and their pups. For dog owners who like to explore, Pontiff Park (1.5 miles) and Harrell Park (1.7 miles) are both nearby parks to try with your dog."
  },
  {
    "name": "‍ Betty Virginia Park",
    "street": "3901 Fairfield Ave",
    "city": "Shreveport",
    "state": "LA",
    "zip": "71106",
    "latitude": 32.469088,
    "longitude": -93.75024,
    "description": "With 4.6 stars across 1,065 reviews, Betty Virginia Park at 3901 Fairfield Ave has clearly won over Shreveport dog owners. Open from 5am to 10pm daily, the park is convenient for before work, after work, or weekend adventures. Nearby, Shreveport Dog Park (2.2 miles) is another dog park favorite where you can take your four-legged friend."
  },
  {
    "name": "Shreveport Dog Park",
    "street": "857 E Stoner Ave",
    "city": "Shreveport",
    "state": "LA",
    "zip": "71101",
    "latitude": 32.499971,
    "longitude": -93.7452041,
    "description": "At 857 E Stoner Ave, Shreveport Dog Park has 4.4 stars based on 396 reviews from Shreveport dog owners. The neighborhood benefits from having this park as an option for dog owners and their pups. Dog owners looking for variety can also visit Veterans Memorial Park (0.9 miles) or Stoner Avenue Recreation Area (0.9 miles) with their four-legged friends."
  }
]