[
  {
    "name": "Fort Williams Park",
    "street": "1000 Shore Rd",
    "city": "Portland",
    "state": "ME",
    "zip": "04107",
    "latitude": 43.6225164,
    "longitude": -70.2161915,
    "description": "For Portland dog owners, Fort Williams Park at 1000 Shore Rd has become a reliable favorite—4.8 stars from 3,378 reviews. For dog owners seeking a tried-and-true destination, this park delivers consistently. Other popular dog parks nearby include Hinckley Park (2.0 miles) and Bug Light Park (2.1 miles)—both favorites among local pup parents."
  },
  {
    "name": "Presumpscot River Preserve",
    "street": "99 Overset Rd",
    "city": "Portland",
    "state": "ME",
    "zip": "04103",
    "latitude": 43.719806,
    "longitude": -70.281826,
    "description": "Presumpscot River Preserve (4.8 stars from 195 reviews) is a popular destination for Portland dog owners, located at 99 Overset Rd. For dog owners in the area, this park has become a trusted spot for time with their pups. Dog owners exploring the neighborhood can also bring their furry friends to Oat Nuts Park (0.5 miles)."
  },
  {
    "name": "Bug Light Park",
    "street": "",
    "city": "Portland",
    "state": "ME",
    "zip": "",
    "latitude": 43.6382443,
    "longitude": -70.2529189,
    "description": "In Portland, Bug Light Park stands out with 4.7 stars from 2,249 happy dog owners. Open from 6am to 10pm daily, dog owners can plan visits around their pup's favorite times to be active. Keep the adventure going at other nearby dog parks like Hinckley Park (0.7 miles) or McIntyre Park (1.0 miles)."
  },
  {
    "name": "Hadlock Field",
    "street": "271 Park Ave",
    "city": "Portland",
    "state": "ME",
    "zip": "04102",
    "latitude": 43.6567752,
    "longitude": -70.2782328,
    "description": "At 271 Park Ave in Portland, Hadlock Field stands out with 4.7 stars from 2,190 happy dog owners. Dog owners appreciate the reliable experience this park provides for their four-legged companions. Other popular dog parks nearby include Dougherty Field (0.3 miles) and Western Promenade (0.5 miles)—both favorites among local pup parents."
  },
  {
    "name": "Fort Allen Park",
    "street": "49 Eastern Promenade",
    "city": "Portland",
    "state": "ME",
    "zip": "04101",
    "latitude": 43.6700076,
    "longitude": -70.2466008,
    "description": "1,870 dog owners have made Fort Allen Park (49 Eastern Promenade) one of Portland's most trusted parks (4.7 stars). Open from 6:30am to 10pm daily, dog owners have room to work around busy schedules. Looking to mix things up? Eastern Promenade Trail is a nearby dog park 0.0 miles away that's worth exploring with your pup."
  },
  {
    "name": "Western Promenade",
    "street": "Valley St",
    "city": "Portland",
    "state": "ME",
    "zip": "04102",
    "latitude": 43.6489851,
    "longitude": -70.2776343,
    "description": "Western Promenade is well-regarded by Portland dog owners, holding 4.7 stars across 577 reviews. Open from 7am to 9pm daily, the park accommodates early risers and evening visitors alike. Looking for more places to take your pup? Hadlock Field is another popular dog park just 0.5 miles away."
  },
  {
    "name": "Quarry Run Dog Park",
    "street": "1026 Ocean Ave",
    "city": "Portland",
    "state": "ME",
    "zip": "04103",
    "latitude": 43.7002506,
    "longitude": -70.2599573,
    "description": "Located at 1026 Ocean Ave in Portland, Quarry Run Dog Park earns strong marks from local dog owners—4.7 stars from 431 reviews. Open from 6:30am to 10pm daily, dog owners have plenty of flexibility to plan a visit. For a change of scenery, Pine Grove Park is another dog-friendly destination 1.2 miles from here."
  },
  {
    "name": "Fore River Sanctuary",
    "street": "157-169 Rowe Ave",
    "city": "Portland",
    "state": "ME",
    "zip": "04102",
    "latitude": 43.6709842,
    "longitude": -70.3193196,
    "description": "Located at 157-169 Rowe Ave in Portland, Fore River Sanctuary earns strong marks from local dog owners—4.7 stars from 206 reviews. The steady stream of dog owner visits speaks to the park's appeal. Dog owners exploring the neighborhood can also bring their furry friends to Jewell Falls - Rowe Trailhead (0.2 miles)."
  },
  {
    "name": "Fort Sumner Park",
    "street": "64 North St",
    "city": "Portland",
    "state": "ME",
    "zip": "04101",
    "latitude": 43.6672019,
    "longitude": -70.2499787,
    "description": "Dog owners in Portland have made Fort Sumner Park at 64 North St a go-to spot, rating it 4.7 stars across 197 reviews. Open from 6am to 10pm daily, dog owners can easily fit a visit into busy schedules. Other dog parks in the area include Fort Allen Park (0.3 miles) and Eastern Promenade Trail (0.3 miles)—both great for exploring with your four-legged friend."
  },
  {
    "name": "Eastern Promenade Trail",
    "street": "Eastern Promenade",
    "city": "Portland",
    "state": "ME",
    "zip": "04101",
    "latitude": 43.6698049,
    "longitude": -70.2462095,
    "description": "Dog owners in Portland have made Eastern Promenade Trail a go-to spot, rating it 4.7 stars across 185 reviews. Open from 6am to 10pm, Monday through Saturday, there's plenty of opportunity for dog owners to find a time that works. Other dog parks in the area include Fort Allen Park (0.0 miles) and Fort Sumner Park (0.3 miles)—both great for exploring with your four-legged friend."
  },
  {
    "name": "Oat Nuts Park",
    "street": "189 Summit St",
    "city": "Portland",
    "state": "ME",
    "zip": "04103",
    "latitude": 43.7128915,
    "longitude": -70.2854065,
    "description": "With 4.7 stars from 74 reviews, Oat Nuts Park at 189 Summit St has become a favorite among Portland dog owners. Dog owners looking for a solid destination will find this park delivers. Looking for more places to take your pup? Pine Grove Park is another popular dog park just 0.5 miles away."
  },
  {
    "name": "McIntyre Park",
    "street": "11 Taylor St",
    "city": "Portland",
    "state": "ME",
    "zip": "04102",
    "latitude": 43.6478687,
    "longitude": -70.2668073,
    "description": "For dog owners in the Portland area, McIntyre Park (11 Taylor St) offers a 4.7-star experience based on 19 reviews. Open from 8am to 4:30pm weekdays, there's plenty of opportunity for dog owners to find a time that works. Looking for more places to take your pup? Western Promenade is another popular dog park just 0.5 miles away."
  },
  {
    "name": "Jewell Falls - Rowe Trailhead",
    "street": "167 Rowe Ave",
    "city": "Portland",
    "state": "ME",
    "zip": "04102",
    "latitude": 43.668417,
    "longitude": -70.3209878,
    "description": "Dog owners in Portland have made Jewell Falls - Rowe Trailhead at 167 Rowe Ave a go-to spot, rating it 4.6 stars across 72 reviews. Dog owners looking for a solid destination will find this park delivers. For variety, the neighborhood offers more dog parks to explore: Fore River Sanctuary (0.2 miles) and Capisic Brook Trail (0.7 miles)."
  },
  {
    "name": "Pine Grove Park",
    "street": "Pine Grove Trail",
    "city": "Portland",
    "state": "ME",
    "zip": "04103",
    "latitude": 43.7060836,
    "longitude": -70.2833191,
    "description": "8 dog owners have reviewed Pine Grove Park in Portland, averaging 4.4 stars. Open from 5:30am to 8pm daily, dog owners in the area can work a visit into their day. Dog owners looking for variety can also visit Oat Nuts Park (0.5 miles) or Presumpscot River Preserve (1.0 miles) with their four-legged friends."
  },
  {
    "name": "Happy Tails",
    "street": "119 Bishop St",
    "city": "Portland",
    "state": "ME",
    "zip": "04103",
    "latitude": 43.6875325,
    "longitude": -70.2985832,
    "description": "Happy Tails (4.6 stars from 106 reviews) is a popular destination for Portland dog owners, located at 119 Bishop St. The park has earned its reputation among dog owners in the neighborhood as a reliable choice. Looking for more places to take your pup? Mayor Baxter Woods is another popular dog park just 0.7 miles away."
  },
  {
    "name": "Capisic Pond Park",
    "street": "1-39 Macy St",
    "city": "Portland",
    "state": "ME",
    "zip": "04102",
    "latitude": 43.665018,
    "longitude": -70.3066726,
    "description": "Capisic Pond Park at 1-39 Macy St is well-regarded by Portland dog owners, holding 4.6 stars across 145 reviews. Open from 6:30am to 9:30pm daily, dog owners can easily fit a visit into busy schedules. More dog-friendly parks nearby include Capisic Brook Trail (0.3 miles) and Presumpscot Park (0.7 miles)—perfect for pups who love adventure."
  }
]