[
  {
    "name": "‍ Fresh Pond Reservation",
    "street": "250 Fresh Pond Pkwy",
    "city": "Boston",
    "state": "MA",
    "zip": "02138",
    "latitude": 42.3831659,
    "longitude": -71.1427457,
    "description": "Fresh Pond Reservation (4.8 stars from 770 reviews) is a popular destination for Boston dog owners, located at 250 Fresh Pond Pkwy. Open from 6am to 8pm daily, dog owners have plenty of flexibility to plan a visit. For variety, the neighborhood offers more dog parks to explore: Larch Road Park (0.3 miles) and Alewife Brook Reservation (0.5 miles)."
  },
  {
    "name": "Dog Park",
    "street": "242 Third St",
    "city": "Boston",
    "state": "MA",
    "zip": "02141",
    "latitude": 42.3671497,
    "longitude": -71.0814558,
    "description": "Dog owners in Boston have made Dog Park at 242 Third St a go-to spot, rating it 5.0 stars across 10 reviews. For dog owners in the area, this park has become a trusted spot for time with their pups. For variety, the neighborhood offers more dog parks to explore: Timothy J. Toomey, Jr. Park (0.1 miles) and Charles Park (0.3 miles)."
  },
  {
    "name": "Boston Common",
    "street": "139 Tremont St",
    "city": "Boston",
    "state": "MA",
    "zip": "02111",
    "latitude": 42.3558198,
    "longitude": -71.0625808,
    "description": "Dog owners have made Boston Common at 139 Tremont St one of Boston's most popular destinations—4.7 stars from 35,870 visits. Open from 6am to 11:30pm daily, visits fit naturally into any dog owner's routine. The neighborhood offers dog owners more places to bring their pups: Dog Park (0.1 miles) and Bay Village Dog Park (0.5 miles)."
  },
  {
    "name": "Danehy Park",
    "street": "99 Sherman St",
    "city": "Boston",
    "state": "MA",
    "zip": "02138",
    "latitude": 42.38854,
    "longitude": -71.132661,
    "description": "1,170 dog owners have made Danehy Park (99 Sherman St) one of Boston's most trusted parks (4.7 stars). Open from 7am to 6pm daily, the park is convenient for before work, after work, or weekend adventures. Want to give your pup even more adventure? Danehy Dog Park is another beloved dog park just 0.3 miles away."
  },
  {
    "name": "Millennium Park",
    "street": "300 Gardner St",
    "city": "Boston",
    "state": "MA",
    "zip": "02132",
    "latitude": 42.2821793,
    "longitude": -71.1810244,
    "description": "With 4.7 stars from 933 reviews, Millennium Park at 300 Gardner St has become a favorite among Boston dog owners. Open from 6am to 11:30pm daily, the park offers flexibility for dog owners with varying routines. Nearby, Dedham Dog Park (1.8 miles) offers dog owners another great spot to explore with their pups."
  },
  {
    "name": "Bremen Street Community Park",
    "street": "344 Bremen St",
    "city": "Boston",
    "state": "MA",
    "zip": "02128",
    "latitude": 42.3775396,
    "longitude": -71.0291238,
    "description": "For dog owners in the Boston area, Bremen Street Community Park (344 Bremen St) offers a 4.7-star experience based on 757 reviews. Open from 6am to 8pm daily, dog owners can plan visits around work or their pup's energy level. For a change of scenery, Dog Park is another dog-friendly destination 0.8 miles from here."
  },
  {
    "name": "‍ North Point Park",
    "street": "6 Museum WayEa",
    "city": "Boston",
    "state": "MA",
    "zip": "02141",
    "latitude": 42.3688689,
    "longitude": -71.0721418,
    "description": "North Point Park at 6 Museum Way is well-regarded by Boston dog owners, holding 4.7 stars across 649 reviews. The park serves dog owners well, providing a destination the community values. For variety, the neighborhood offers more dog parks to explore: Cambridge Crossing (0.2 miles) and The Dog Run @ Child Street (0.2 miles)."
  },
  {
    "name": "Cold Spring Park",
    "street": "1094 Beacon St",
    "city": "Boston",
    "state": "MA",
    "zip": "02461",
    "latitude": 42.3304755,
    "longitude": -71.2073436,
    "description": "With 4.7 stars from 342 reviews, Cold Spring Park at 1094 Beacon St has become a favorite among Boston dog owners. Open from 6am to 8pm daily, dog owners have plenty of flexibility to plan a visit. For variety, the neighborhood offers more dog parks to explore: Claflin Playground (0.5 miles) and Newton Centre Playground (0.5 miles)."
  },
  {
    "name": "‍ Wrentham Dog Park",
    "street": "",
    "city": "Boston",
    "state": "MA",
    "zip": "",
    "latitude": 42.0667652,
    "longitude": -71.3281114,
    "description": "In Boston, Wrentham Dog Park has built a loyal following—4.7 stars from 308 dog owner reviews. Open from 5am to 9pm daily, the park offers flexibility for dog owners with varying routines. Nearby, North Attleboro Dog Park (4.4 miles) offers dog owners another great spot to explore with their pups."
  },
  {
    "name": "Filippello Dog Park",
    "street": "",
    "city": "Boston",
    "state": "MA",
    "zip": "",
    "latitude": 42.3652518,
    "longitude": -71.1843236,
    "description": "For dog owners in the Boston area, Filippello Dog Park offers a 4.7-star experience based on 86 reviews. Dog owners looking for a solid destination will find this park delivers. Dog owners can also take their pups to nearby Carleton Park (0.5 miles) or Boyd Park (0.6 miles)."
  },
  {
    "name": "Blackstone Square",
    "street": "1535 Washington St",
    "city": "Boston",
    "state": "MA",
    "zip": "02118",
    "latitude": 42.339931,
    "longitude": -71.0721857,
    "description": "With 4.6 stars from 31 reviews, Blackstone Square at 1535 Washington St has become a favorite among Boston dog owners. Open from 6am to 11:30pm daily, the park accommodates early risers and evening visitors alike. Other dog parks in the area include Peters Park (0.3 miles) and Peters Park (0.3 miles)—both great for exploring with your four-legged friend."
  },
  {
    "name": "Peters Park",
    "street": "1205 Washington St",
    "city": "Boston",
    "state": "MA",
    "zip": "02118",
    "latitude": 42.3429683,
    "longitude": -71.067028,
    "description": "Dog owners in Boston have made Peters Park at 1205 Washington St a go-to spot, rating it 4.6 stars across 77 reviews. Open from 6am to 11:30pm daily, there's room in the day for dog owners to bring their furry friends. More dog-friendly parks nearby include Peters Park (0.1 miles) and Blackstone Square (0.3 miles)—perfect for pups who love adventure."
  },
  {
    "name": "Little Fresh Pond Dog Beach",
    "street": "691 Huron Ave",
    "city": "Boston",
    "state": "MA",
    "zip": "02138",
    "latitude": 42.3877075,
    "longitude": -71.1546777,
    "description": "Boston dog owners rate Little Fresh Pond Dog Beach at 691 Huron Ave highly, with 4.6 stars from 95 visits. Open from 6am to 9pm daily, the park accommodates early risers and evening visitors alike. Dog owners exploring the neighborhood can also bring their furry friends to Grove Street Playground (0.5 miles)."
  },
  {
    "name": "JB's Indoor Dog Park",
    "street": "106 Longwater DrNorwell",
    "city": "Boston",
    "state": "MA",
    "zip": "02061",
    "latitude": 42.1574164,
    "longitude": -70.8803985,
    "description": "Located at 106 Longwater Dr in Boston, JB's Indoor Dog Park earns strong marks from local dog owners—4.6 stars from 96 reviews. The park serves dog owners well, providing a destination the community values. Looking for more places to take your pup? South Field Dog Park is another popular dog park just 3.2 miles away."
  },
  {
    "name": "Garvey Playground",
    "street": "340 Neponset Ave",
    "city": "Boston",
    "state": "MA",
    "zip": "02122",
    "latitude": 42.2883,
    "longitude": -71.0468839,
    "description": "Located at 340 Neponset Ave in Boston, Garvey Playground earns strong marks from local dog owners—4.6 stars from 129 reviews. Open from 6am to 11:30pm daily, the park accommodates early risers and evening visitors alike. Dog owners exploring the neighborhood can also bring their furry friends to Dorchester Shores Reservation (0.7 miles)."
  },
  {
    "name": "Kevin W. Fitzgerald Park",
    "street": "145-157 St Alphonsus St",
    "city": "Boston",
    "state": "MA",
    "zip": "02120",
    "latitude": 42.3358725,
    "longitude": -71.0993664,
    "description": "Located at 145-157 St Alphonsus St in Boston, Kevin W. Fitzgerald Park earns strong marks from local dog owners—4.6 stars from 150 reviews. Open from 6am to 9pm daily, dog owners can easily fit a visit into busy schedules. Looking for more places to take your pup? Brookline Avenue Playground is another popular dog park just 0.8 miles away."
  },
  {
    "name": "Ames Nowell State Park",
    "street": "Linwood StAbington",
    "city": "Brockton",
    "state": "MA",
    "zip": "02351",
    "latitude": 42.0988554,
    "longitude": -70.9708657,
    "description": "Ames Nowell State Park is well-regarded by Brockton dog owners, holding 4.6 stars across 629 reviews. Open from 6am to 7:30pm daily, the park offers flexibility for dog owners with varying routines. More dog-friendly parks nearby include Abington Dog Park (2.0 miles) and Wildlands Trust - Brockton (2.7 miles)—perfect for pups who love adventure."
  },
  {
    "name": "Forge Pond Park",
    "street": "245 King St",
    "city": "Brockton",
    "state": "MA",
    "zip": "02339",
    "latitude": 42.1025882,
    "longitude": -70.878457,
    "description": "Brockton dog owners rate Forge Pond Park at 245 King St highly, with 4.6 stars from 222 visits. Open from 7am to 8pm daily, dog owners can easily fit a visit into busy schedules. Dog owners exploring the neighborhood can also bring their furry friends to Abington Dog Park (2.8 miles)."
  },
  {
    "name": "‍ Frothingham Park",
    "street": "15 Park St",
    "city": "Brockton",
    "state": "MA",
    "zip": "02356",
    "latitude": 42.0619197,
    "longitude": -71.1039177,
    "description": "For dog owners in the Brockton area, Frothingham Park (15 Park St) offers a 4.6-star experience based on 207 reviews. Dog owners in the area consistently choose this park as a go-to destination for their pups. For variety, the neighborhood offers more dog parks to explore: James Edgar Playground (4.0 miles) and Wildlands Trust - Brockton (4.6 miles)."
  },
  {
    "name": "Abington Dog Park",
    "street": "441 Summer StAbington",
    "city": "Brockton",
    "state": "MA",
    "zip": "02351",
    "latitude": 42.1028724,
    "longitude": -70.9321822,
    "description": "Abington Dog Park (4.6 stars from 112 reviews) is a popular destination for Brockton dog owners, located at 441 Summer St. Open from 7am to 7pm daily, the park offers flexibility for dog owners with varying routines. Looking for more places to take your pup? Ames Nowell State Park is another popular dog park just 2.0 miles away."
  },
  {
    "name": "‍ Wildlands Trust - Brockton",
    "street": "",
    "city": "Brockton",
    "state": "MA",
    "zip": "",
    "latitude": 42.0834335,
    "longitude": -71.0183787,
    "description": "Wildlands Trust - Brockton (4.6 stars from 34 reviews) is a popular destination for Brockton dog owners. Open from 7am to 7pm daily, the park works well for dog owners with different schedules. For a change of scenery, James Edgar Playground is another dog-friendly destination 0.8 miles from here."
  },
  {
    "name": "Goldstein Open Space",
    "street": "201 West StRandolph",
    "city": "Brockton",
    "state": "MA",
    "zip": "02368",
    "latitude": 42.166319,
    "longitude": -71.055943,
    "description": "Goldstein Open Space (4.5 stars from 127 reviews) is a popular destination for Brockton dog owners, located at 201 West St. Open from 5am to 7pm daily, dog owners can easily fit a visit into busy schedules. For a change of scenery, Randolph Dog Park is another dog-friendly destination 0.8 miles from here."
  },
  {
    "name": "James Edgar Playground",
    "street": "177 Dover St",
    "city": "Brockton",
    "state": "MA",
    "zip": "02301",
    "latitude": 42.0740655,
    "longitude": -71.0276314,
    "description": "In Brockton, dog owners can find James Edgar Playground at 177 Dover St—a local park worth exploring with their furry companions. Open from 8am to 8pm daily, the park fits conveniently into different routines. For dog owners who like to explore, Wildlands Trust - Brockton (0.8 miles) and Ames Nowell State Park (3.4 miles) are both nearby parks to try with your dog."
  },
  {
    "name": "South Field Dog Park",
    "street": "25 Memorial Grove AveWeymouth",
    "city": "Brockton",
    "state": "MA",
    "zip": "02190",
    "latitude": 42.1605105,
    "longitude": -70.9422423,
    "description": "South Field Dog Park at 25 Memorial Grove Ave provides Brockton dog owners with a local spot to visit with their pups. Open from 6am to 8pm daily, dog owners have flexibility to plan a visit with their four-legged friends. For pups who want more adventure, Bradford Hawes Park is a nearby dog park worth visiting (2.5 miles)."
  },
  {
    "name": "Dedham Dog Park",
    "street": "269 Common StDedham",
    "city": "Brockton",
    "state": "MA",
    "zip": "02026",
    "latitude": 42.2577097,
    "longitude": -71.1933065,
    "description": "Dedham Dog Park at 269 Common St provides Brockton dog owners with a local spot to visit with their pups. Open from 7am to 7pm daily, the park fits conveniently into different routines. More dog parks in the area include Millennium Park (1.8 miles) and Cutler Park (2.9 miles)—great options for mixing up your pup's routine."
  },
  {
    "name": "Lincoln Park",
    "street": "290 Washington St",
    "city": "Cambridge",
    "state": "MA",
    "zip": "02143",
    "latitude": 42.3788778,
    "longitude": -71.0988533,
    "description": "Lincoln Park (4.8 stars from 580 reviews) is a popular destination for Cambridge dog owners, located at 290 Washington St. Open from 8am to 10pm daily, the park offers flexibility for dog owners with varying routines. Dog owners can also take their pups to nearby Lincoln Park (0.1 miles) or Perry Park (0.2 miles)."
  },
  {
    "name": "Corporal Burns Playground",
    "street": "Memorial Dr",
    "city": "Cambridge",
    "state": "MA",
    "zip": "02139",
    "latitude": 42.3560261,
    "longitude": -71.1138641,
    "description": "Cambridge dog owners rate Corporal Burns Playground highly, with 4.8 stars from 73 visits. The park has earned its reputation among dog owners in the neighborhood as a reliable choice. Nearby, Alberico Park (0.3 miles) offers dog owners another great spot to explore with their pups."
  },
  {
    "name": "‍ Timothy J. Toomey, Jr. Park",
    "street": "71 Rogers St",
    "city": "Cambridge",
    "state": "MA",
    "zip": "02142",
    "latitude": 42.3662836,
    "longitude": -71.0803892,
    "description": "Dog owners in Cambridge have made Timothy J. Toomey, Jr. Park at 71 Rogers St a go-to spot, rating it 4.8 stars across 56 reviews. The park has earned its reputation among dog owners in the neighborhood as a reliable choice. Other dog parks in the area include Dog Park (0.1 miles) and Charles Park (0.2 miles)—both great for exploring with your four-legged friend."
  },
  {
    "name": "Franklin Street Park",
    "street": "493 Franklin St",
    "city": "Cambridge",
    "state": "MA",
    "zip": "02139",
    "latitude": 42.3674908,
    "longitude": -71.1106335,
    "description": "With 4.9 stars from 17 reviews, Franklin Street Park at 493 Franklin St has become a favorite among Cambridge dog owners. The park serves dog owners well, providing a destination the community values. Looking for more places to take your pup? Dana Square Park is another popular dog park just 0.4 miles away."
  },
  {
    "name": "Larch Road Park",
    "street": "119 Larch Rd",
    "city": "Cambridge",
    "state": "MA",
    "zip": "02138",
    "latitude": 42.3790738,
    "longitude": -71.1429284,
    "description": "Cambridge dog owners rate Larch Road Park at 119 Larch Rd highly, with 4.8 stars from 29 visits. For dog owners in the area, this park has become a trusted spot for time with their pups. Other dog parks in the area include Fresh Pond Reservation (0.3 miles) and Pemberton Street Dog Run (0.6 miles)—both great for exploring with your four-legged friend."
  },
  {
    "name": "McElroy Park",
    "street": "",
    "city": "Cambridge",
    "state": "MA",
    "zip": "",
    "latitude": 42.3786343,
    "longitude": -71.131738,
    "description": "With 4.9 stars from 13 reviews, McElroy Park has become a favorite among Cambridge dog owners. Dog owners looking for a solid destination will find this park delivers. Nearby, Pemberton Street Dog Run (0.0 miles) offers dog owners another great spot to explore with their pups."
  },
  {
    "name": "Alewife Brook Reservation",
    "street": "Alewife Brook Pkwy",
    "city": "Cambridge",
    "state": "MA",
    "zip": "02140",
    "latitude": 42.3901041,
    "longitude": -71.1420392,
    "description": "Cambridge dog owners rate Alewife Brook Reservation highly, with 4.7 stars from 230 visits. Open from 6am to 8pm daily, the park accommodates early risers and evening visitors alike. For variety, the neighborhood offers more dog parks to explore: Danehy Dog Park (0.2 miles) and Fresh Pond Reservation (0.5 miles)."
  },
  {
    "name": "‍ Riverbend Park",
    "street": "1001 Memorial Dr",
    "city": "Cambridge",
    "state": "MA",
    "zip": "02138",
    "latitude": 42.374558,
    "longitude": -71.130805,
    "description": "Riverbend Park at 1001 Memorial Dr is well-regarded by Cambridge dog owners, holding 4.7 stars across 180 reviews. Open from 6am to 10pm daily, the park accommodates early risers and evening visitors alike. Nearby, Pemberton Street Dog Run (0.3 miles) offers dog owners another great spot to explore with their pups."
  },
  {
    "name": "Dana Square Park",
    "street": "70 Magazine St",
    "city": "Cambridge",
    "state": "MA",
    "zip": "02139",
    "latitude": 42.362031,
    "longitude": -71.107734,
    "description": "For dog owners in the Cambridge area, Dana Square Park (70 Magazine St) offers a 4.7-star experience based on 90 reviews. Local dog owners appreciate what this park offers their four-legged friends. Dog owners can also take their pups to nearby Tudor Dog Park (0.2 miles) or Alberico Park (0.2 miles)."
  },
  {
    "name": "Charles Park",
    "street": "57 Edwin H Land Blvd",
    "city": "Cambridge",
    "state": "MA",
    "zip": "02142",
    "latitude": 42.3656895,
    "longitude": -71.076415,
    "description": "Charles Park at 57 Edwin H Land Blvd is well-regarded by Cambridge dog owners, holding 4.7 stars across 69 reviews. Dog owners in the area consistently choose this park as a go-to destination for their pups. For a change of scenery, Timothy J. Toomey, Jr. Park is another dog-friendly destination 0.2 miles from here."
  },
  {
    "name": "‍ Sacramento Field",
    "street": "21 Sacramento St",
    "city": "Cambridge",
    "state": "MA",
    "zip": "02138",
    "latitude": 42.3826645,
    "longitude": -71.117387,
    "description": "With 4.6 stars from 26 reviews, Sacramento Field at 21 Sacramento St has become a favorite among Cambridge dog owners. Open from 4am to 8pm daily, there's plenty of opportunity for dog owners to find a time that works. For variety, the neighborhood offers more dog parks to explore: Cambridge Common (0.4 miles) and Raymond Park (0.5 miles)."
  },
  {
    "name": "Brookline Avenue Playground",
    "street": "575 Brookline Ave",
    "city": "Cambridge",
    "state": "MA",
    "zip": "02445",
    "latitude": 42.3318389,
    "longitude": -71.1148997,
    "description": "For dog owners in the Cambridge area, Brookline Avenue Playground (575 Brookline Ave) offers a 4.6-star experience based on 220 reviews. Open from 6am to 7pm daily, the park accommodates early risers and evening visitors alike. More dog-friendly parks nearby include Off leash dog playground (0.4 miles) and Griggs Park (0.8 miles)—perfect for pups who love adventure."
  },
  {
    "name": "Cambridge Common",
    "street": "Waterhouse St & Massachusetts Ave",
    "city": "Cambridge",
    "state": "MA",
    "zip": "02138",
    "latitude": 42.3777847,
    "longitude": -71.1205212,
    "description": "With 4.6 stars across 1,175 reviews, Cambridge Common has clearly won over Cambridge dog owners. The strong community of dog owners here reflects how much the park is valued. Want to give your pup even more adventure? Sacramento Field is another beloved dog park just 0.4 miles away."
  },
  {
    "name": "Cambridge Crossing",
    "street": "219 Jacobs St",
    "city": "Cambridge",
    "state": "MA",
    "zip": "02141",
    "latitude": 42.3719032,
    "longitude": -71.0734819,
    "description": "Located at 219 Jacobs St in Cambridge, Cambridge Crossing earns strong marks from local dog owners—4.5 stars from 20 reviews. Dog owners frequent this park for its consistent quality and welcoming atmosphere. Nearby, The Dog Run @ Child Street (0.1 miles) offers dog owners another great spot to explore with their pups."
  },
  {
    "name": "The Pup Park",
    "street": "73 Chelsea St",
    "city": "Cambridge",
    "state": "MA",
    "zip": "02149",
    "latitude": 42.4056518,
    "longitude": -71.0530421,
    "description": "Located at 73 Chelsea St, The Pup Park in Cambridge is rated 4.4 stars by 9 dog owners. Open from 5am to 8pm daily, dog owners have flexibility to plan a visit with their four-legged friends. Dog owners in the neighborhood can also take their furry friends to Dog Park, 0.2 miles away."
  },
  {
    "name": "Pemberton Street Dog Run",
    "street": "",
    "city": "Cambridge",
    "state": "MA",
    "zip": "",
    "latitude": 42.3786343,
    "longitude": -71.131738,
    "description": "For dog owners in the Cambridge area, Pemberton Street Dog Run offers a 4.5-star experience based on 26 reviews. Open from 6am to 9pm daily, dog owners can plan visits around work or their pup's energy level. More dog-friendly parks nearby include McElroy Park (0.0 miles) and Joan Lorentz Park (0.0 miles)—perfect for pups who love adventure."
  },
  {
    "name": "Chicopee Memorial State Park",
    "street": "567 Burnett Rd",
    "city": "Chicopee",
    "state": "MA",
    "zip": "01020",
    "latitude": 42.170857,
    "longitude": -72.5396282,
    "description": "At 567 Burnett Rd in Chicopee, Chicopee Memorial State Park has built a loyal following—4.4 stars from 604 dog owner reviews. Open from 9am to 7pm daily, dog owners can easily fit a visit into busy schedules. Looking for more places to take your pup? Ike Alpert Park is another popular dog park just 2.2 miles away."
  },
  {
    "name": "Glendale Park",
    "street": "50 Elm St",
    "city": "Everett",
    "state": "MA",
    "zip": "02149",
    "latitude": 42.4121602,
    "longitude": -71.0464388,
    "description": "Glendale Park (4.6 stars from 465 reviews) is a popular destination for Everett dog owners, located at 50 Elm St. The park has earned its reputation among dog owners in the neighborhood as a reliable choice. Dog owners exploring the neighborhood can also bring their furry friends to Hale Park (0.4 miles)."
  },
  {
    "name": "Park",
    "street": "Northern Strand Community Trl",
    "city": "Everett",
    "state": "MA",
    "zip": "02149",
    "latitude": 42.4024262,
    "longitude": -71.0634657,
    "description": "In Everett, Park earns strong marks from local dog owners—4.6 stars from 74 reviews. Open from 6am to 9:30pm daily, dog owners can plan visits around work or their pup's energy level. Nearby, Rivergreen Park (0.5 miles) offers dog owners another great spot to explore with their pups."
  },
  {
    "name": "Rivergreen Park",
    "street": "Rivergreen Dr",
    "city": "Everett",
    "state": "MA",
    "zip": "02149",
    "latitude": 42.4090716,
    "longitude": -71.0668321,
    "description": "Dog owners in Everett have made Rivergreen Park a go-to spot, rating it 4.6 stars across 43 reviews. Open from 6am to 9:30pm daily, the park works well for dog owners with different schedules. More dog-friendly parks nearby include Park (0.5 miles) and Dog Park (0.7 miles)—perfect for pups who love adventure."
  },
  {
    "name": "Hale Park",
    "street": "68 Glendale St",
    "city": "Everett",
    "state": "MA",
    "zip": "02149",
    "latitude": 42.4147418,
    "longitude": -71.0528851,
    "description": "At 68 Glendale St in Everett, Hale Park carries 4.4 stars from 40 dog owner reviews. Open from 6am to 8pm daily, dog owners have flexibility to plan a visit with their four-legged friends. Dog owners looking for variety can also visit Glendale Park (0.4 miles) or Dog Park (0.4 miles) with their four-legged friends."
  },
  {
    "name": "Kelly Park",
    "street": "33-99 Saucier St",
    "city": "Fall River",
    "state": "MA",
    "zip": "02724",
    "latitude": 41.6870622,
    "longitude": -71.169256,
    "description": "For dog owners in Fall River, Kelly Park at 33-99 Saucier St has a 4.1-star rating (117 reviews). Open from 6am to 9pm daily, dog owners in the area can work a visit into their day. Dog owners in the neighborhood can also take their furry friends to Raymond F Jones Memorial Dog, 4.4 miles away."
  },
  {
    "name": "Farm Pond Dog Park",
    "street": "110 Dudley Rd",
    "city": "Framingham",
    "state": "MA",
    "zip": "01702",
    "latitude": 42.2861722,
    "longitude": -71.4342698,
    "description": "For dog owners in Framingham, Farm Pond Dog Park at 110 Dudley Rd has a 4.4-star rating (27 reviews). Dog owners looking for a local destination will find this park accessible. Dog owners might also enjoy Eddie's Park, another dog park just 3.4 miles away."
  },
  {
    "name": "Weir Hill",
    "street": "",
    "city": "Lawrence",
    "state": "MA",
    "zip": "",
    "latitude": 42.7029687,
    "longitude": -71.1309117,
    "description": "Weir Hill (4.8 stars from 114 reviews) is a popular destination for Lawrence dog owners. The park has earned its reputation among dog owners in the neighborhood as a reliable choice. Dog owners exploring the neighborhood can also bring their furry friends to Riverwalk Lofts (1.0 miles)."
  },
  {
    "name": "Stevens-Coolidge House & Garde",
    "street": "153 Chickering RdNorth Andover",
    "city": "Lawrence",
    "state": "MA",
    "zip": "01845",
    "latitude": 42.6823945,
    "longitude": -71.1231248,
    "description": "Lawrence dog owners rate Stevens-Coolidge House & Garde at 153 Chickering Rd highly, with 4.7 stars from 311 visits. Open from 10am to 6pm, every day except Wednesday and Thursday, dog owners have plenty of flexibility to plan a visit. Dog owners can also take their pups to nearby TGM Andover Park (0.7 miles) or Stadium Plaza (1.2 miles)."
  },
  {
    "name": "‍ Campagnone Common",
    "street": "200 Common St",
    "city": "Lawrence",
    "state": "MA",
    "zip": "01840",
    "latitude": 42.708218,
    "longitude": -71.1599711,
    "description": "Located at 200 Common St in Lawrence, Campagnone Common earns strong marks from local dog owners—4.6 stars from 250 reviews. Open from 6am to 10pm daily, there's room in the day for dog owners to bring their furry friends. For a change of scenery, Washington Mill 240 is another dog-friendly destination 0.1 miles from here."
  },
  {
    "name": "Reservoir Park",
    "street": "349 Ames St",
    "city": "Lawrence",
    "state": "MA",
    "zip": "01841",
    "latitude": 42.7053902,
    "longitude": -71.183213,
    "description": "Located at 349 Ames St in Lawrence, Reservoir Park earns strong marks from local dog owners—4.6 stars from 182 reviews. Dog owners in the area consistently choose this park as a go-to destination for their pups. For a change of scenery, Oxford Street Park is another dog-friendly destination 0.5 miles from here."
  },
  {
    "name": "Greycourt State Park",
    "street": "37 Pleasant StMethuen",
    "city": "Lawrence",
    "state": "MA",
    "zip": "01844",
    "latitude": 42.7401683,
    "longitude": -71.1697139,
    "description": "For dog owners in the Lawrence area, Greycourt State Park (37 Pleasant St) offers a 4.6-star experience based on 94 reviews. Open from 5am to 5pm daily, the park works well for dog owners with different schedules. For variety, the neighborhood offers more dog parks to explore: Edward S. Alekel Veterans (0.8 miles) and Spicket Falls River Walk Park (1.2 miles)."
  },
  {
    "name": "Peabody Dog Park",
    "street": "34 Perkins StPeabody",
    "city": "Lawrence",
    "state": "MA",
    "zip": "01960",
    "latitude": 42.52562,
    "longitude": -70.936104,
    "description": "For dog owners in the Lawrence area, Peabody Dog Park (34 Perkins St) offers a 4.6-star experience based on 93 reviews. Open from 7am to 8pm daily, there's room in the day for dog owners to bring their furry friends. Dog owners exploring the neighborhood can also bring their furry friends to Barkland Avenue Dog Park (3.4 miles)."
  },
  {
    "name": "Pines Recreation Area",
    "street": "",
    "city": "Lawrence",
    "state": "MA",
    "zip": "",
    "latitude": 42.7598804,
    "longitude": -71.0318212,
    "description": "Pines Recreation Area is well-regarded by Lawrence dog owners, holding 4.6 stars across 88 reviews. Open from 8am to 7pm daily, dog owners can easily fit a visit into busy schedules. Dog owners exploring the neighborhood can also bring their furry friends to Riverside Dog Park (0.7 miles)."
  },
  {
    "name": "Riverside Dog Park",
    "street": "150 Riverside AveHaverhill",
    "city": "Lawrence",
    "state": "MA",
    "zip": "01830",
    "latitude": 42.7596664,
    "longitude": -71.0463803,
    "description": "Dog owners in Lawrence have made Riverside Dog Park at 150 Riverside Ave a go-to spot, rating it 4.6 stars across 85 reviews. The park serves dog owners well, providing a destination the community values. Other dog parks in the area include Pines Recreation Area (0.7 miles) and Riverside Park (2.0 miles)—both great for exploring with your four-legged friend."
  },
  {
    "name": "‍ Methuen Rail Trail Parking",
    "street": "63 Railroad StMethuen",
    "city": "Lawrence",
    "state": "MA",
    "zip": "01844",
    "latitude": 42.7225272,
    "longitude": -71.1873826,
    "description": "For dog owners in the Lawrence area, Methuen Rail Trail Parking (63 Railroad St) offers a 4.7-star experience based on 28 reviews. Dog owners in the area consistently choose this park as a go-to destination for their pups. Looking for more places to take your pup? Gill Ave Dog Park is another popular dog park just 0.2 miles away."
  },
  {
    "name": "Riverside Park",
    "street": "",
    "city": "Lawrence",
    "state": "MA",
    "zip": "",
    "latitude": 42.7777829,
    "longitude": -71.0767724,
    "description": "Lawrence dog owners rate Riverside Park highly, with 4.5 stars from 604 visits. Open from 6am to 8pm daily, the park accommodates early risers and evening visitors alike. For variety, the neighborhood offers more dog parks to explore: Riverside Dog Park (2.0 miles) and Pines Recreation Area (2.6 miles)."
  },
  {
    "name": "Danvers Dog Park",
    "street": "57 Forest StDanvers",
    "city": "Lawrence",
    "state": "MA",
    "zip": "01923",
    "latitude": 42.574187,
    "longitude": -70.9619196,
    "description": "Lawrence dog owners rate Danvers Dog Park at 57 Forest St highly, with 4.5 stars from 148 visits. Open from 7am to 8pm daily, there's plenty of opportunity for dog owners to find a time that works. Looking for more places to take your pup? Peabody Dog Park is another popular dog park just 3.6 miles away."
  },
  {
    "name": "O'Neill Park",
    "street": "65 Lawrence St",
    "city": "Lawrence",
    "state": "MA",
    "zip": "01841",
    "latitude": 42.7106844,
    "longitude": -71.162524,
    "description": "Located at 65 Lawrence St in Lawrence, O'Neill Park earns strong marks from local dog owners—4.5 stars from 127 reviews. Open from 7am to 10pm daily, dog owners can easily fit a visit into busy schedules. Dog owners exploring the neighborhood can also bring their furry friends to Campagnone Common (0.2 miles)."
  },
  {
    "name": "Raymond J. Martin Riverside",
    "street": "971 Riverside DrMethuen",
    "city": "Lawrence",
    "state": "MA",
    "zip": "01844",
    "latitude": 42.7009222,
    "longitude": -71.2007488,
    "description": "At 971 Riverside Dr, Raymond J. Martin Riverside has 4.4 stars based on 431 reviews from Lawrence dog owners. Open from 6am to 10pm daily, dog owners have a window to spend time with their pups. Nearby dog parks worth exploring with your pup include Reservoir Park (0.9 miles) and Lawrence Flea Market (1.4 miles)."
  },
  {
    "name": "Lawrence Flea Market",
    "street": "85 Manchester St",
    "city": "Lawrence",
    "state": "MA",
    "zip": "01841",
    "latitude": 42.7140935,
    "longitude": -71.1806583,
    "description": "Located at 85 Manchester St, Lawrence Flea Market in Lawrence is rated 4.4 stars by 298 dog owners. Open from 8am to 5pm weekends, the park gives dog owners in the neighborhood time to bring their pups. Dog owners might also enjoy Bourgoin Park, another dog park just 0.3 miles away."
  },
  {
    "name": "Edward S. Alekel Veterans",
    "street": "123 Milk StMethuen",
    "city": "Lawrence",
    "state": "MA",
    "zip": "01844",
    "latitude": 42.738325,
    "longitude": -71.154947,
    "description": "Located at 123 Milk St, Edward S. Alekel Veterans in Lawrence is rated 4.4 stars by 226 dog owners. The neighborhood benefits from having this park as an option for dog owners and their pups. Dog owners might also enjoy Greycourt State Park, another dog park just 0.8 miles away."
  },
  {
    "name": "Den Rock Park",
    "street": "Winthrop Ave",
    "city": "Lawrence",
    "state": "MA",
    "zip": "01840",
    "latitude": 42.693708,
    "longitude": -71.1553854,
    "description": "Dog owners in Lawrence have rated Den Rock Park 4.4 stars across 207 reviews. The neighborhood benefits from having this park as an option for dog owners and their pups. Nearby dog parks worth exploring with your pup include Stadium Plaza (0.6 miles) and Riverwalk Lofts (0.7 miles)."
  },
  {
    "name": "Billerica Dog Park",
    "street": "270 Treble Cove RdNorth Billerica",
    "city": "Lowell",
    "state": "MA",
    "zip": "01862",
    "latitude": 42.5641045,
    "longitude": -71.2972159,
    "description": "For dog owners in the Lowell area, Billerica Dog Park (270 Treble Cove Rd) offers a 4.6-star experience based on 98 reviews. Open from 6am to 8pm daily, dog owners can easily fit a visit into busy schedules. The reviews indicate this is a trusted destination for dog owners in the area."
  },
  {
    "name": "Centralville Dog Park",
    "street": "61 1st St",
    "city": "Lowell",
    "state": "MA",
    "zip": "01850",
    "latitude": 35.2630248,
    "longitude": -81.0968551,
    "description": "For dog owners near 61 1st St in Lowell, Centralville Dog Park provides a convenient spot to take their dogs. Open from 6am to 8:30pm daily, dog owners have a window to spend time with their pups. Looking to explore more? Town of Cramerton Goat Island is another dog-friendly park 2.3 miles from here."
  },
  {
    "name": "‍ Barkland Avenue Dog Park",
    "street": "Parkland Ave",
    "city": "Lynn",
    "state": "MA",
    "zip": "01904",
    "latitude": 42.4810206,
    "longitude": -70.965808,
    "description": "57 dog owners have reviewed Barkland Avenue Dog Park in Lynn, averaging 4.1 stars. The park serves as a gathering spot for dog owners and their four-legged friends in the area. For pups who want more adventure, Peabody Dog Park is a nearby dog park worth visiting (3.4 miles)."
  },
  {
    "name": "‍ Trafton Dog Park",
    "street": "",
    "city": "Malden",
    "state": "MA",
    "zip": "",
    "latitude": 42.4268484,
    "longitude": -71.0683741,
    "description": "Trafton Dog Park in Malden has 4.3 stars from 13 dog owner reviews. The park serves as a gathering spot for dog owners and their four-legged friends in the area. Nearby dog parks worth exploring with your pup include Hale Park (1.2 miles) and Rivergreen Park (1.2 miles)."
  },
  {
    "name": "‍ Pine Banks Dog Park",
    "street": "",
    "city": "Malden",
    "state": "MA",
    "zip": "",
    "latitude": 42.4564323,
    "longitude": -71.064182,
    "description": "Dog owners in Malden have rated Pine Banks Dog Park 4.2 stars across 76 reviews. Open from 5am to 8pm daily, dog owners can stop by when it fits their schedule. Nearby dog parks worth exploring with your pup include Melrose Dog Park (0.6 miles) and Trafton Dog Park (2.1 miles)."
  },
  {
    "name": "Captain Jack Peterson Dog Park",
    "street": "111 Greenwood St",
    "city": "New Bedford",
    "state": "MA",
    "zip": "02740",
    "latitude": 41.6430706,
    "longitude": -70.9498325,
    "description": "For dog owners near 111 Greenwood St in New Bedford, Captain Jack Peterson Dog Park provides a convenient spot to take their dogs. Open from 7am to 8pm daily, the park fits conveniently into different routines. Reading what other dog owners have experienced here can help with planning a visit."
  },
  {
    "name": "The Cove",
    "street": "104 W Pine StAuburndale",
    "city": "Newton",
    "state": "MA",
    "zip": "02466",
    "latitude": 42.3532114,
    "longitude": -71.2514833,
    "description": "The Cove at 104 W Pine St is well-regarded by Newton dog owners, holding 4.7 stars across 251 reviews. Open from 7am to 8pm daily, the park offers flexibility for dog owners with varying routines. Nearby, Richard McGrath Park (1.0 miles) offers dog owners another great spot to explore with their pups."
  },
  {
    "name": "Eddie's Park",
    "street": "111 W Central StNatick",
    "city": "Newton",
    "state": "MA",
    "zip": "01760",
    "latitude": 42.283873,
    "longitude": -71.367509,
    "description": "With 4.7 stars from 82 reviews, Eddie's Park at 111 W Central St has become a favorite among Newton dog owners. The park serves dog owners well, providing a destination the community values. For a change of scenery, Farm Pond Dog Park is another dog-friendly destination 3.4 miles from here."
  },
  {
    "name": "Cutler Park",
    "street": "84 Kendrick StNeedham",
    "city": "Newton",
    "state": "MA",
    "zip": "02494",
    "latitude": 42.2948563,
    "longitude": -71.2186669,
    "description": "Cutler Park (4.6 stars from 820 reviews) is a popular destination for Newton dog owners, located at 84 Kendrick St. Open from 7am to 5pm daily, the park works well for dog owners with different schedules. More dog-friendly parks nearby include Bobby Braceland Playground (1.1 miles) and Cold Spring Dog Park (2.1 miles)—perfect for pups who love adventure."
  },
  {
    "name": "Beaver Brook Reservation",
    "street": "66 Mill StBelmont",
    "city": "Newton",
    "state": "MA",
    "zip": "02478",
    "latitude": 42.3926685,
    "longitude": -71.1965543,
    "description": "Dog owners in Newton have made Beaver Brook Reservation at 66 Mill St a go-to spot, rating it 4.6 stars across 665 reviews. Open from 6:30am to 6pm daily, there's room in the day for dog owners to bring their furry friends. Other dog parks in the area include Mackerel Hill (0.6 miles) and Waltham City Dog Ranch (1.2 miles)—both great for exploring with your four-legged friend."
  },
  {
    "name": "Newton Centre Playground",
    "street": "81 Tyler Terrace",
    "city": "Newton",
    "state": "MA",
    "zip": "02459",
    "latitude": 42.3321089,
    "longitude": -71.1976653,
    "description": "Newton Centre Playground (4.6 stars from 318 reviews) is a popular destination for Newton dog owners, located at 81 Tyler Terrace. Open from 6:30am to 8:30pm daily, the park offers flexibility for dog owners with varying routines. Dog owners can also take their pups to nearby Cold Spring Park (0.5 miles) or Claflin Playground (0.7 miles)."
  },
  {
    "name": "Edmands Park",
    "street": "Blake St",
    "city": "Newton",
    "state": "MA",
    "zip": "02460",
    "latitude": 42.3442513,
    "longitude": -71.1981039,
    "description": "Edmands Park (4.6 stars from 72 reviews) is a popular destination for Newton dog owners. Open from 7am to 8pm daily, there's plenty of opportunity for dog owners to find a time that works. Nearby, Cabot Park (0.5 miles) offers dog owners another great spot to explore with their pups."
  },
  {
    "name": "Carleton Park",
    "street": "55 Carleton St",
    "city": "Newton",
    "state": "MA",
    "zip": "02458",
    "latitude": 42.3587038,
    "longitude": -71.1877722,
    "description": "At 55 Carleton St, Carleton Park has 4.4 stars based on 8 reviews from Newton dog owners. Open from 8:30am to 5pm weekdays, dog owners in the area can work a visit into their day. For dog owners who like to explore, Boyd Park (0.3 miles) and Farlow Park (0.4 miles) are both nearby parks to try with your dog."
  },
  {
    "name": "Kennard Park",
    "street": "246 Dudley Rd",
    "city": "Newton",
    "state": "MA",
    "zip": "02459",
    "latitude": 42.3126207,
    "longitude": -71.179623,
    "description": "Located at 246 Dudley Rd in Newton, Kennard Park earns strong marks from local dog owners—4.5 stars from 50 reviews. Dog owners frequent this park for its consistent quality and welcoming atmosphere. Looking for more places to take your pup? Newton Centre Playground is another popular dog park just 1.6 miles away."
  },
  {
    "name": "Cold Spring Dog Park",
    "street": "156-182 Plymouth Rd",
    "city": "Newton",
    "state": "MA",
    "zip": "02461",
    "latitude": 42.3250235,
    "longitude": -71.2155773,
    "description": "Cold Spring Dog Park (4.5 stars from 51 reviews) is a popular destination for Newton dog owners, located at 156-182 Plymouth Rd. Open from 6am to 8pm daily, dog owners can plan visits around work or their pup's energy level. For a change of scenery, Cold Spring Park is another dog-friendly destination 0.6 miles from here."
  },
  {
    "name": "Stearns Park",
    "street": "54 Jasset St",
    "city": "Newton",
    "state": "MA",
    "zip": "02458",
    "latitude": 42.3631486,
    "longitude": -71.19794,
    "description": "Stearns Park at 54 Jasset St is well-regarded by Newton dog owners, holding 4.5 stars across 79 reviews. Open from 6am to 9pm daily, dog owners can plan visits around work or their pup's energy level. More dog-friendly parks nearby include Boyd Park (0.3 miles) and How Park (0.4 miles)—perfect for pups who love adventure."
  },
  {
    "name": "‍ Farlow Park",
    "street": "129 Church St",
    "city": "Newton",
    "state": "MA",
    "zip": "02458",
    "latitude": 42.353821,
    "longitude": -71.1854001,
    "description": "With 4.5 stars from 101 reviews, Farlow Park at 129 Church St has become a favorite among Newton dog owners. Open from 8am to 6pm daily, the park offers flexibility for dog owners with varying routines. More dog-friendly parks nearby include Carleton Park (0.4 miles) and Cabot Park (0.6 miles)—perfect for pups who love adventure."
  },
  {
    "name": "Cabot Park",
    "street": "101 East Side Pkwy",
    "city": "Newton",
    "state": "MA",
    "zip": "02458",
    "latitude": 42.3508042,
    "longitude": -71.1965258,
    "description": "Cabot Park (4.5 stars from 128 reviews) is a popular destination for Newton dog owners, located at 101 East Side Pkwy. Open from 7am to 9pm daily, the park offers flexibility for dog owners with varying routines. Nearby, Edmands Park (0.5 miles) offers dog owners another great spot to explore with their pups."
  },
  {
    "name": "Bell Watertown Public Dog Park",
    "street": "300 Woodview WayWatertown",
    "city": "Newton",
    "state": "MA",
    "zip": "02472",
    "latitude": 42.3698836,
    "longitude": -71.2103816,
    "description": "8 dog owners have reviewed Bell Watertown Public Dog Park at 300 Woodview Way in Newton, averaging 4.3 stars. The neighborhood benefits from having this park as an option for dog owners and their pups. For pups who want more adventure, Stearns Park is a nearby dog park worth visiting (0.8 miles)."
  },
  {
    "name": "Boyd Park",
    "street": "20 Jackson Rd",
    "city": "Newton",
    "state": "MA",
    "zip": "02458",
    "latitude": 42.3608094,
    "longitude": -71.1933353,
    "description": "Boyd Park at 20 Jackson Rd holds a 4.3-star rating from 26 Newton dog owner visits. Open from 8:30am to 5pm weekdays, dog owners have flexibility to plan a visit with their four-legged friends. Nearby dog parks worth exploring with your pup include Stearns Park (0.3 miles) and Carleton Park (0.3 miles)."
  },
  {
    "name": "Claflin Playground",
    "street": "",
    "city": "Newton",
    "state": "MA",
    "zip": "",
    "latitude": 42.3370414,
    "longitude": -71.2092214,
    "description": "Claflin Playground in Newton has 4.2 stars based on 19 reviews from dog owners. Open from 6am to 9pm daily, dog owners can stop by when it fits their schedule. Dog owners might also enjoy Cold Spring Park, another dog park just 0.5 miles away."
  },
  {
    "name": "Richard McGrath Park",
    "street": "1600 Washington St",
    "city": "Newton",
    "state": "MA",
    "zip": "02465",
    "latitude": 42.343082,
    "longitude": -71.236435,
    "description": "At 1600 Washington St in Newton, Richard McGrath Park carries 4.3 stars from 37 dog owner reviews. Open from 8:30am to 5pm weekdays, the park gives dog owners in the neighborhood time to bring their pups. Dog owners in the neighborhood can also take their furry friends to The Cove, 1.0 miles away."
  },
  {
    "name": "Bare Cove Park",
    "street": "Fort Hill StHingham",
    "city": "Quincy",
    "state": "MA",
    "zip": "02043",
    "latitude": 42.2339407,
    "longitude": -70.9048025,
    "description": "With 4.6 stars from 420 reviews, Bare Cove Park has become a favorite among Quincy dog owners. Open from 8am to 6pm daily, the park offers flexibility for dog owners with varying routines. For variety, the neighborhood offers more dog parks to explore: Stodder's Neck (1.4 miles) and Abigail Adams State Park (1.8 miles)."
  },
  {
    "name": "Fitzhenry Square",
    "street": "",
    "city": "Revere",
    "state": "MA",
    "zip": "",
    "latitude": 42.4084302,
    "longitude": -71.0119948,
    "description": "In Revere, Fitzhenry Square earns strong marks from local dog owners—5.0 stars from 7 reviews. Open from 5:30am to 11:30pm daily, dog owners can plan visits around work or their pup's energy level. Looking for more places to take your pup? Dog Park is another popular dog park just 1.1 miles away."
  },
  {
    "name": "Somerville Community Path",
    "street": "Somerville Community Path",
    "city": "Somerville",
    "state": "MA",
    "zip": "02144",
    "latitude": 42.3952713,
    "longitude": -71.1161026,
    "description": "In Somerville, Somerville Community Path has built a loyal following—4.7 stars from 42 dog owner reviews. Open from 6am to 9pm daily, there's room in the day for dog owners to bring their furry friends. More dog-friendly parks nearby include Lexington Park (0.2 miles) and Nathan Tufts Park (0.4 miles)—perfect for pups who love adventure."
  },
  {
    "name": "Sylvester Baxter Riverfront",
    "street": "Assembly Row & Great River Rd",
    "city": "Somerville",
    "state": "MA",
    "zip": "02145",
    "latitude": 42.3955558,
    "longitude": -71.0801882,
    "description": "Dog owners in Somerville have made Sylvester Baxter Riverfront a go-to spot, rating it 4.6 stars across 550 reviews. Open from 7am to 10pm daily, there's room in the day for dog owners to bring their furry friends. For variety, the neighborhood offers more dog parks to explore: Glen Park (1.0 miles) and Park (1.0 miles)."
  },
  {
    "name": "Nathan Tufts Park",
    "street": "850 Broadway",
    "city": "Somerville",
    "state": "MA",
    "zip": "02144",
    "latitude": 42.4009167,
    "longitude": -71.1156722,
    "description": "Dog owners in Somerville have made Nathan Tufts Park at 850 Broadway a go-to spot, rating it 4.6 stars across 238 reviews. Dog owners looking for a solid destination will find this park delivers. Dog owners exploring the neighborhood can also bring their furry friends to Somerville Community Path (0.4 miles)."
  },
  {
    "name": "Glen Park",
    "street": "150 Glen St",
    "city": "Somerville",
    "state": "MA",
    "zip": "02145",
    "latitude": 42.3825837,
    "longitude": -71.0869307,
    "description": "Glen Park at 150 Glen St is well-regarded by Somerville dog owners, holding 4.6 stars across 48 reviews. Open from 8am to 10pm daily, the park offers flexibility for dog owners with varying routines. Nearby, Zero New Washington Dog Park (0.3 miles) offers dog owners another great spot to explore with their pups."
  },
  {
    "name": "Osgood Park",
    "street": "1 Osgood St",
    "city": "Somerville",
    "state": "MA",
    "zip": "02143",
    "latitude": 42.383554,
    "longitude": -71.102275,
    "description": "For dog owners in the Somerville area, Osgood Park (1 Osgood St) offers a 4.5-star experience based on 23 reviews. Open from 7am to 10pm daily, the park offers flexibility for dog owners with varying routines. For a change of scenery, Nunziato Dog Park is another dog-friendly destination 0.2 miles from here."
  },
  {
    "name": "Edward L. Leathers Community",
    "street": "",
    "city": "Somerville",
    "state": "MA",
    "zip": "",
    "latitude": 42.3875968,
    "longitude": -71.0994968,
    "description": "In Somerville, Edward L. Leathers Community has built a loyal following—4.5 stars from 40 dog owner reviews. Open from 8am to 10pm daily, dog owners can easily fit a visit into busy schedules. Nearby, Nunziato Dog Park (0.3 miles) offers dog owners another great spot to explore with their pups."
  },
  {
    "name": "‍ Lexington Park",
    "street": "45 Lexington Ave",
    "city": "Somerville",
    "state": "MA",
    "zip": "02144",
    "latitude": 42.3942633,
    "longitude": -71.1133726,
    "description": "Somerville dog owners rate Lexington Park at 45 Lexington Ave highly, with 4.5 stars from 106 visits. Open from 8am to 10pm daily, there's room in the day for dog owners to bring their furry friends. For variety, the neighborhood offers more dog parks to explore: Somerville Community Path (0.2 miles) and W Dog Park (0.4 miles)."
  },
  {
    "name": "Melrose Dog Park",
    "street": "350 Lynn Fells PkwyMelrose",
    "city": "Somerville",
    "state": "MA",
    "zip": "02176",
    "latitude": 42.4643312,
    "longitude": -71.0666955,
    "description": "At 350 Lynn Fells Pkwy in Somerville, Melrose Dog Park carries 4.3 stars from 143 dog owner reviews. Open from 6am to 8pm daily, dog owners in the area can work a visit into their day. Nearby dog parks worth exploring with your pup include Pine Banks Dog Park (0.6 miles) and Trafton Dog Park (2.6 miles)."
  },
  {
    "name": "W Dog Park",
    "street": "1 Maxwells Green",
    "city": "Somerville",
    "state": "MA",
    "zip": "02145",
    "latitude": 42.392973,
    "longitude": -71.10623,
    "description": "Dog owners in the Somerville area will find W Dog Park at 1 Maxwells Green—a local option for spending time with their pups. Open from 8am to 8pm daily, dog owners in the area can work a visit into their day. Dog owners might also enjoy Lexington Park, another dog park just 0.4 miles away."
  },
  {
    "name": "Ashley Reservoir",
    "street": "",
    "city": "Springfield",
    "state": "MA",
    "zip": "",
    "latitude": 42.2071184,
    "longitude": -72.6075851,
    "description": "Dog owners in Springfield have made Ashley Reservoir a go-to spot, rating it 4.8 stars across 659 reviews. For dog owners in the area, this park has become a trusted spot for time with their pups. Dog owners exploring the neighborhood can also bring their furry friends to Community Field (1.6 miles)."
  },
  {
    "name": "Friends of South Hadley Dog",
    "street": "14 Mulligan DrSouth Hadley",
    "city": "Springfield",
    "state": "MA",
    "zip": "01075",
    "latitude": 42.2424288,
    "longitude": -72.6028213,
    "description": "With 4.8 stars from 72 reviews, Friends of South Hadley Dog at 14 Mulligan Dr has become a favorite among Springfield dog owners. Open from 7am to 9pm daily, the park works well for dog owners with different schedules. Nearby, Ashley Reservoir (2.5 miles) offers dog owners another great spot to explore with their pups."
  },
  {
    "name": "Dr. Seuss National Memorial",
    "street": "21 Edwards St",
    "city": "Springfield",
    "state": "MA",
    "zip": "01103",
    "latitude": 42.1043685,
    "longitude": -72.5863149,
    "description": "Local dog owners love Dr. Seuss National Memorial at 21 Edwards St in Springfield—4.7 stars from an impressive 2,003 reviews. Open from 9am to 8pm daily, dog owners can easily fit a visit into their day, whether morning or evening. Nearby, Cottage Hill Park (0.2 miles) is another dog park favorite where you can take your four-legged friend."
  },
  {
    "name": "Agawam Parks & Recreation Park",
    "street": "1000 Suffield StreetAgawam",
    "city": "Springfield",
    "state": "MA",
    "zip": "01001",
    "latitude": 42.0561403,
    "longitude": -72.6347,
    "description": "At 1000 Suffield Street in Springfield, Agawam Parks & Recreation Park has built a loyal following—4.7 stars from 494 dog owner reviews. Open from 8:30am to 7pm daily, there's room in the day for dog owners to bring their furry friends. Dog owners can also take their pups to nearby Agawam Dog Park (2.4 miles) or School Street Park (2.5 miles)."
  },
  {
    "name": "Bear Hole Reservoir Parking",
    "street": "325 Great Plains Rd",
    "city": "Springfield",
    "state": "MA",
    "zip": "01089",
    "latitude": 42.1295759,
    "longitude": -72.6759531,
    "description": "Springfield dog owners rate Bear Hole Reservoir Parking at 325 Great Plains Rd highly, with 4.7 stars from 107 visits. Open from 7am to 7pm daily, dog owners have plenty of flexibility to plan a visit. Other dog parks in the area include Morgan Road Pavilion (1.7 miles) and Cooks Park (1.8 miles)—both great for exploring with your four-legged friend."
  },
  {
    "name": "School Street Park",
    "street": "511 School StAgawam",
    "city": "Springfield",
    "state": "MA",
    "zip": "01001",
    "latitude": 42.0740883,
    "longitude": -72.5927897,
    "description": "School Street Park (4.7 stars from 89 reviews) is a popular destination for Springfield dog owners, located at 511 School St. The steady stream of dog owner visits speaks to the park's appeal. Looking for more places to take your pup? Emerson Wight park is another popular dog park just 1.6 miles away."
  },
  {
    "name": "Mittineague Park",
    "street": "",
    "city": "Springfield",
    "state": "MA",
    "zip": "",
    "latitude": 42.105237,
    "longitude": -72.6213712,
    "description": "For dog owners in the Springfield area, Mittineague Park offers a 4.7-star experience based on 69 reviews. Open from 7am to 8pm daily, the park offers flexibility for dog owners with varying routines. For a change of scenery, Alice Corson Playground is another dog-friendly destination 0.5 miles from here."
  },
  {
    "name": "Forest Park",
    "street": "200 Trafton Rd",
    "city": "Springfield",
    "state": "MA",
    "zip": "01108",
    "latitude": 42.0816478,
    "longitude": -72.5609166,
    "description": "With 4.6 stars across 2,952 reviews, Forest Park at 200 Trafton Rd has clearly won over Springfield dog owners. Open from 7:45am to 5:30pm daily, the park is convenient for before work, after work, or weekend adventures. Dog owners in the area also love bringing their pups to Emerson Wight park (1.3 miles) and Nathan Bill Playground (1.3 miles)."
  },
  {
    "name": "Community Field",
    "street": "Community Field RdHolyoke",
    "city": "Springfield",
    "state": "MA",
    "zip": "01040",
    "latitude": 42.2033698,
    "longitude": -72.6376543,
    "description": "In Springfield, Community Field has built a loyal following—4.6 stars from 418 dog owner reviews. Open from 8am to 6pm daily, dog owners can plan visits around work or their pup's energy level. More dog-friendly parks nearby include Ashley Reservoir (1.6 miles) and Sarah Jane Park (2.8 miles)—perfect for pups who love adventure."
  },
  {
    "name": "Dufresne Park",
    "street": "Taylor StGranby",
    "city": "Springfield",
    "state": "MA",
    "zip": "01033",
    "latitude": 42.223675,
    "longitude": -72.4972212,
    "description": "Springfield dog owners rate Dufresne Park highly, with 4.6 stars from 306 visits. Open from 7am to 7pm daily, the park works well for dog owners with different schedules. Dog owners exploring the neighborhood can also bring their furry friends to Chicopee Memorial State Park (4.2 miles)."
  },
  {
    "name": "Amherst Dog Park",
    "street": "Old Belchertown Rd #2Amher",
    "city": "Springfield",
    "state": "MA",
    "zip": "01002",
    "latitude": 42.354706,
    "longitude": -72.48011,
    "description": "In Springfield, Amherst Dog Park earns strong marks from local dog owners—4.7 stars from 22 reviews. Open from 6am to 8pm daily, dog owners can plan visits around work or their pup's energy level. The steady stream of positive reviews suggests dog owners consistently have good experiences here."
  },
  {
    "name": "‍ Fountain Park",
    "street": "883 Tinkham RdWilbraham",
    "city": "Springfield",
    "state": "MA",
    "zip": "01095",
    "latitude": 42.1028527,
    "longitude": -72.4550134,
    "description": "Located at 883 Tinkham Rd in Springfield, Fountain Park earns strong marks from local dog owners—4.6 stars from 138 reviews. Open from 8am to 8pm daily, dog owners can easily fit a visit into busy schedules. For variety, the neighborhood offers more dog parks to explore: Tamarack Bog (1.1 miles) and Beauregard & Schiavina Park (3.5 miles)."
  },
  {
    "name": "Paws Park",
    "street": "Petty Plain RdGreenfield",
    "city": "Springfield",
    "state": "MA",
    "zip": "01301",
    "latitude": 42.5784587,
    "longitude": -72.6049816,
    "description": "Springfield dog owners rate Paws Park highly, with 4.6 stars from 82 visits. Dog owners in the area consistently choose this park as a go-to destination for their pups. The reviews indicate this is a trusted destination for dog owners in the area."
  },
  {
    "name": "Ludlow Riverwalk",
    "street": "",
    "city": "Springfield",
    "state": "MA",
    "zip": "",
    "latitude": 42.1589979,
    "longitude": -72.4803259,
    "description": "In Springfield, Ludlow Riverwalk earns strong marks from local dog owners—4.7 stars from 15 reviews. The steady stream of dog owner visits speaks to the park's appeal. Looking for more places to take your pup? Memorial Park is another popular dog park just 0.2 miles away."
  },
  {
    "name": "Cottage Hill Park",
    "street": "",
    "city": "Springfield",
    "state": "MA",
    "zip": "",
    "latitude": 42.1018764,
    "longitude": -72.5886727,
    "description": "Cottage Hill Park is well-regarded by Springfield dog owners, holding 4.6 stars across 20 reviews. For dog owners in the area, this park has become a trusted spot for time with their pups. Looking for more places to take your pup? Sixteen Acres School Playgroun is another popular dog park just 0.0 miles away."
  },
  {
    "name": "Erwin S. Wilder Wildlife Manag",
    "street": "16 Toad Island RdNorton",
    "city": "Taunton",
    "state": "MA",
    "zip": "02766",
    "latitude": 41.972639,
    "longitude": -71.1223112,
    "description": "Taunton dog owners rate Erwin S. Wilder Wildlife Manag at 16 Toad Island Rd highly, with 4.7 stars from 39 visits. Dog owners in the area consistently choose this park as a go-to destination for their pups. For a change of scenery, Blueberry Knoll Wildlife Area is another dog-friendly destination 1.5 miles from here."
  },
  {
    "name": "Massasoit State Park",
    "street": "1361 Middleboro AveEa",
    "city": "Taunton",
    "state": "MA",
    "zip": "02718",
    "latitude": 41.8828566,
    "longitude": -71.0232934,
    "description": "Massasoit State Park at 1361 Middleboro Ave in Taunton is a community favorite, with 1,472 dog owners giving it 4.6 stars. Open from 7:30am to 6:30pm daily, the park accommodates a variety of dog owner schedules and routines. Looking to mix things up? Funcity Adventure Park is a nearby dog park 2.3 miles away that's worth exploring with your pup."
  },
  {
    "name": "Friends of Boyden Refuge",
    "street": "1298 Cohannet St",
    "city": "Taunton",
    "state": "MA",
    "zip": "02780",
    "latitude": 41.8826919,
    "longitude": -71.1282972,
    "description": "Friends of Boyden Refuge at 1298 Cohannet St is well-regarded by Taunton dog owners, holding 4.6 stars across 235 reviews. Open from 9am to 6pm daily, dog owners can plan visits around work or their pup's energy level. More dog-friendly parks nearby include Westville Conservation Area (0.5 miles) and Taunton Green (2.2 miles)—perfect for pups who love adventure."
  },
  {
    "name": "Sweets Knoll State Park",
    "street": "1387 Somerset AveDighton",
    "city": "Taunton",
    "state": "MA",
    "zip": "02715",
    "latitude": 41.8315262,
    "longitude": -71.1184714,
    "description": "Dog owners in Taunton have made Sweets Knoll State Park at 1387 Somerset Ave a go-to spot, rating it 4.6 stars across 93 reviews. Open from 6am to 6pm daily, there's plenty of opportunity for dog owners to find a time that works. Dog owners exploring the neighborhood can also bring their furry friends to Friends of Boyden Refuge (3.6 miles)."
  },
  {
    "name": "Wildlands Trust - Great River",
    "street": "1025 Auburn StBridgewater",
    "city": "Taunton",
    "state": "MA",
    "zip": "02324",
    "latitude": 41.9681281,
    "longitude": -70.9170921,
    "description": "Taunton dog owners rate Wildlands Trust - Great River at 1025 Auburn St highly, with 4.6 stars from 77 visits. Dog owners frequent this park for its consistent quality and welcoming atmosphere. Looking for more places to take your pup? Camp Titicut is another popular dog park just 4.8 miles away."
  },
  {
    "name": "North Attleboro Dog Park",
    "street": "Dog ParkPlain St",
    "city": "North Attleborough",
    "state": "MA",
    "zip": "02760",
    "latitude": 42.0079504,
    "longitude": -71.2942538,
    "description": "North Attleboro Dog Park (4.6 stars from 71 reviews) is a popular destination for Taunton dog owners. Open from 6am to 8pm daily, dog owners can plan visits around work or their pup's energy level. Looking for more places to take your pup? Wrentham Dog Park is another popular dog park just 4.4 miles away."
  },
  {
    "name": "Freetown-Fall River State",
    "street": "110 Slab Bridge RdAssonet",
    "city": "Taunton",
    "state": "MA",
    "zip": "02702",
    "latitude": 41.7728168,
    "longitude": -71.0296064,
    "description": "With 4.5 stars across 1,316 reviews, Freetown-Fall River State at 110 Slab Bridge Rd has clearly won over Taunton dog owners. Open from 6:30am to 8pm daily, dog owners can easily fit a visit into their day, whether morning or evening. Dog owners keep coming back—and the reviews show why this park has earned its reputation."
  },
  {
    "name": "Hopewell Park",
    "street": "52-98 Hamilton St",
    "city": "Taunton",
    "state": "MA",
    "zip": "02780",
    "latitude": 41.9108282,
    "longitude": -71.0943482,
    "description": "At 52-98 Hamilton St in Taunton, Hopewell Park has built a loyal following—4.5 stars from 181 dog owner reviews. Open from 9am to 10pm daily, dog owners have plenty of flexibility to plan a visit. Other dog parks in the area include Taunton Green (0.6 miles) and Hewitt's pond reserve (1.6 miles)—both great for exploring with your four-legged friend."
  },
  {
    "name": "Johnsons recreational park",
    "street": "92 N Main StRaynham",
    "city": "Taunton",
    "state": "MA",
    "zip": "02767",
    "latitude": 41.9252197,
    "longitude": -71.0538866,
    "description": "For dog owners in the Taunton area, Johnsons recreational park (92 N Main St) offers a 4.5-star experience based on 69 reviews. The steady stream of dog owner visits speaks to the park's appeal. Looking for more places to take your pup? Hewitt's pond reserve is another popular dog park just 1.2 miles away."
  },
  {
    "name": "Camp Titicut",
    "street": "190 Beech StBridgewater",
    "city": "Taunton",
    "state": "MA",
    "zip": "02324",
    "latitude": 41.9358803,
    "longitude": -71.0004566,
    "description": "At 190 Beech St in Taunton, Camp Titicut has built a loyal following—4.5 stars from 52 dog owner reviews. Open from 7am to 8pm daily, dog owners can easily fit a visit into busy schedules. For variety, the neighborhood offers more dog parks to explore: Johnsons recreational park (2.8 miles) and Hewitt's pond reserve (3.7 miles)."
  },
  {
    "name": "First Street Park",
    "street": "61 1st St",
    "city": "Taunton",
    "state": "MA",
    "zip": "02780",
    "latitude": 44.5899281,
    "longitude": -96.0582169,
    "description": "First Street Park (4.5 stars from 50 reviews) is a popular destination for Taunton dog owners, located at 61 1st St. Open from 6:30am to 9pm daily, the park offers flexibility for dog owners with varying routines. The positive feedback from local dog owners speaks to the park's consistent quality."
  },
  {
    "name": "Boneyard Dog Park",
    "street": "",
    "city": "Taunton",
    "state": "MA",
    "zip": "",
    "latitude": 41.9945473,
    "longitude": -70.7244822,
    "description": "In Taunton, Boneyard Dog Park carries 4.4 stars from 135 dog owner reviews. Local dog owners use this park as a spot to spend time with their furry companions. Dog owners can find more details about this park in the reviews from other visitors."
  },
  {
    "name": "‍ Blueberry Knoll Wildlife Area",
    "street": "Stanley RdNorton",
    "city": "Taunton",
    "state": "MA",
    "zip": "02766",
    "latitude": 41.9664399,
    "longitude": -71.1505771,
    "description": "Blueberry Knoll Wildlife Area in Taunton has 4.3 stars from 45 dog owner reviews. For dog owners in the neighborhood, this park offers a place to take their pups. For pups who want more adventure, Erwin S. Wilder Wildlife Manag is a nearby dog park worth visiting (1.5 miles)."
  },
  {
    "name": "Funcity Adventure Park",
    "street": "82 Taunton Depot Dr",
    "city": "Taunton",
    "state": "MA",
    "zip": "02780",
    "latitude": 41.8783088,
    "longitude": -71.0667454,
    "description": "Funcity Adventure Park at 82 Taunton Depot Dr in Taunton has 4.3 stars from 267 dog owner reviews. This park provides dog owners in the community with a place to visit with their dogs. For pups who want more adventure, Taunton Parks & Recreation is a nearby dog park worth visiting (1.7 miles)."
  },
  {
    "name": "Taunton Green",
    "street": "",
    "city": "Taunton",
    "state": "MA",
    "zip": "",
    "latitude": 41.9019257,
    "longitude": -71.0931485,
    "description": "Taunton Green in Taunton has 4.3 stars based on 430 reviews from dog owners. Dog owners in the area appreciate having a local spot to bring their pups. Dog owners looking for variety can also visit Hopewell Park (0.6 miles) or Taunton Parks & Recreation (1.5 miles) with their four-legged friends."
  },
  {
    "name": "Taunton Parks & Recreation",
    "street": "170 Harris St",
    "city": "Taunton",
    "state": "MA",
    "zip": "02780",
    "latitude": 41.9027392,
    "longitude": -71.0636774,
    "description": "For dog owners near 170 Harris St in Taunton, Taunton Parks & Recreation provides a convenient spot to take their dogs. The park serves as a gathering spot for dog owners and their four-legged friends in the area. Dog owners might also enjoy Hewitt's pond reserve, another dog park just 0.5 miles away."
  },
  {
    "name": "Prospect Hill Park",
    "street": "314 Totten Pond Rd",
    "city": "Waltham",
    "state": "MA",
    "zip": "02451",
    "latitude": 42.3903649,
    "longitude": -71.2536961,
    "description": "Located at 314 Totten Pond Rd in Waltham, Prospect Hill Park earns strong marks from local dog owners—4.7 stars from 543 reviews. Open from 10am to 7pm, Monday through Saturday, dog owners can easily fit a visit into busy schedules. Dog owners can also take their pups to nearby Storer Conservation (1.1 miles) or Nipper Maher Park (1.3 miles)."
  },
  {
    "name": "Shady's Pond Conservation Area",
    "street": "",
    "city": "Waltham",
    "state": "MA",
    "zip": "",
    "latitude": 42.3756401,
    "longitude": -71.2358004,
    "description": "Shady's Pond Conservation Area is well-regarded by Waltham dog owners, holding 4.7 stars across 47 reviews. Dog owners in the area consistently choose this park as a go-to destination for their pups. More dog-friendly parks nearby include Landry Park (0.2 miles) and McKenna Playground (0.2 miles)—perfect for pups who love adventure."
  },
  {
    "name": "Mackerel Hill",
    "street": "349-363 Trapelo Rd",
    "city": "Waltham",
    "state": "MA",
    "zip": "02452",
    "latitude": 42.3958727,
    "longitude": -71.2078236,
    "description": "Dog owners in Waltham have made Mackerel Hill at 349-363 Trapelo Rd a go-to spot, rating it 4.7 stars across 28 reviews. Open from 6am to 9pm daily, dog owners can plan visits around work or their pup's energy level. For variety, the neighborhood offers more dog parks to explore: Beaver Brook Reservation (0.6 miles) and Waltham City Dog Ranch (0.7 miles)."
  },
  {
    "name": "Landry Park",
    "street": "Landry Way",
    "city": "Waltham",
    "state": "MA",
    "zip": "02453",
    "latitude": 42.3731439,
    "longitude": -71.2356286,
    "description": "With 4.7 stars from 18 reviews, Landry Park has become a favorite among Waltham dog owners. Open from 6am to 11:30pm daily, the park accommodates early risers and evening visitors alike. Dog owners can also take their pups to nearby McKenna Playground (0.1 miles) or Shady's Pond Conservation Area (0.2 miles)."
  },
  {
    "name": "Storer Conservation",
    "street": "100 Robert Treat Paine Dr",
    "city": "Waltham",
    "state": "MA",
    "zip": "02452",
    "latitude": 42.3879255,
    "longitude": -71.231453,
    "description": "Dog owners in Waltham have made Storer Conservation at 100 Robert Treat Paine Dr a go-to spot, rating it 4.6 stars across 118 reviews. Open from 6am to 8pm daily, the park works well for dog owners with different schedules. Other dog parks in the area include Shady's Pond Conservation Area (0.9 miles) and McKenna Playground (1.0 miles)—both great for exploring with your four-legged friend."
  },
  {
    "name": "Nipper Maher Park",
    "street": "65 Dartmouth St",
    "city": "Waltham",
    "state": "MA",
    "zip": "02453",
    "latitude": 42.3711225,
    "longitude": -71.251068,
    "description": "Located at 65 Dartmouth St, Nipper Maher Park in Waltham is rated 4.4 stars by 180 dog owners. Open from 7:30am to 6:30pm daily, dog owners can stop by when it fits their schedule. Looking to explore more? Landry Park is another dog-friendly park 0.8 miles from here."
  },
  {
    "name": "McKenna Playground",
    "street": "136 Elm St",
    "city": "Waltham",
    "state": "MA",
    "zip": "02453",
    "latitude": 42.3734244,
    "longitude": -71.2329749,
    "description": "40 dog owners have reviewed McKenna Playground at 136 Elm St in Waltham, averaging 4.1 stars. Open from 7am to 9pm daily, local dog owners have time to explore with their furry companions. Nearby dog parks worth exploring with your pup include Landry Park (0.1 miles) and Shady's Pond Conservation Area (0.2 miles)."
  },
  {
    "name": "King Oak Hill Park",
    "street": "0 Emery LnWeymouth",
    "city": "Weymouth Town",
    "state": "MA",
    "zip": "02189",
    "latitude": 42.2254825,
    "longitude": -70.9378194,
    "description": "King Oak Hill Park at 0 Emery Ln is well-regarded by Weymouth Town dog owners, holding 4.7 stars across 81 reviews. Open from 7am to 6pm daily, dog owners can plan visits around work or their pup's energy level. For variety, the neighborhood offers more dog parks to explore: Webb Park (1.3 miles) and Abigail Adams State Park (1.4 miles)."
  },
  {
    "name": "‍ Abigail Adams State Park",
    "street": "770 Bridge StWeymouth",
    "city": "Weymouth Town",
    "state": "MA",
    "zip": "02188",
    "latitude": 42.2456769,
    "longitude": -70.9357466,
    "description": "Dog owners in Weymouth Town have made Abigail Adams State Park at 770 Bridge St a go-to spot, rating it 4.5 stars across 187 reviews. Open from 6am to 7pm daily, dog owners have plenty of flexibility to plan a visit. Nearby, Stodder's Neck (0.6 miles) offers dog owners another great spot to explore with their pups."
  },
  {
    "name": "Kings Cove Park",
    "street": "82-90 Bridge StWeymouth",
    "city": "Weymouth Town",
    "state": "MA",
    "zip": "02191",
    "latitude": 42.243644,
    "longitude": -70.9636654,
    "description": "Kings Cove Park (4.5 stars from 18 reviews) is a popular destination for Weymouth Town dog owners, located at 82-90 Bridge St. Dog owners frequent this park for its consistent quality and welcoming atmosphere. Dog owners can also take their pups to nearby Abigail Adams State Park (1.4 miles) or Webb Park (1.5 miles)."
  },
  {
    "name": "Bradford Hawes Park",
    "street": "167 Lakehurst AveWeymouth",
    "city": "Weymouth Town",
    "state": "MA",
    "zip": "02189",
    "latitude": 42.1958444,
    "longitude": -70.9331407,
    "description": "At 167 Lakehurst Ave in Weymouth Town, Bradford Hawes Park carries 4.4 stars from 107 dog owner reviews. Open from 8am to 7:30pm daily, local dog owners have time to explore with their furry companions. Looking to explore more? King Oak Hill Park is another dog-friendly park 2.1 miles from here."
  },
  {
    "name": "Webb Park",
    "street": "58 Summit StWeymouth",
    "city": "Weymouth Town",
    "state": "MA",
    "zip": "02188",
    "latitude": 42.2218251,
    "longitude": -70.9623007,
    "description": "For dog owners in Weymouth Town, Webb Park at 58 Summit St has a 4.3-star rating (43 reviews). Open from 7am to 5pm daily, dog owners have flexibility to plan a visit with their four-legged friends. Dog owners might also enjoy King Oak Hill Park, another dog park just 1.3 miles away."
  },
  {
    "name": "Boynton Park",
    "street": "50 Boynton PkwyPaxton",
    "city": "‍ Worcester",
    "state": "MA",
    "zip": "01612",
    "latitude": 42.2864229,
    "longitude": -71.8790666,
    "description": "Dog owners in Worcester have made Boynton Park at 50 Boynton Pkwy a go-to spot, rating it 4.5 stars across 166 reviews. Open from 5am to 10pm daily, there's plenty of opportunity for dog owners to find a time that works. Nearby, Beaver Brook Park (3.3 miles) offers dog owners another great spot to explore with their pups."
  },
  {
    "name": "Beaver Brook Park",
    "street": "300 Chandler St",
    "city": "‍ Worcester",
    "state": "MA",
    "zip": "01602",
    "latitude": 42.2621389,
    "longitude": -71.8242806,
    "description": "Dog owners in Worcester have rated Beaver Brook Park (300 Chandler St) 4.4 stars across 304 reviews. Open from 6am to 10pm daily, local dog owners have time to explore with their furry companions. Dog owners in the neighborhood can also take their furry friends to Vernon Hill Dog Park, 1.8 miles away."
  },
  {
    "name": "Butler Farm Dog Park",
    "street": "44 Singletary RdMillbury",
    "city": "‍ Worcester",
    "state": "MA",
    "zip": "01527",
    "latitude": 42.1635682,
    "longitude": -71.7884982,
    "description": "Located at 44 Singletary Rd, Butler Farm Dog Park in Worcester is rated 4.4 stars by 96 dog owners. The park serves as a gathering spot for dog owners and their four-legged friends in the area. Dog owners in the neighborhood can also take their furry friends to Town of Auburn Dog Park, 3.2 miles away."
  },
  {
    "name": "Town of Auburn Dog Park",
    "street": "",
    "city": "‍ Worcester",
    "state": "MA",
    "zip": "",
    "latitude": 42.1945465,
    "longitude": -71.8358095,
    "description": "Dog owners in Worcester have rated Town of Auburn Dog Park 4.3 stars across 24 reviews. Local dog owners use this park as a spot to spend time with their furry companions. Looking to explore more? Butler Farm Dog Park is another dog-friendly park 3.2 miles from here."
  },
  {
    "name": "Burncoat Park",
    "street": "70 North Pkwy",
    "city": "‍ Worcester",
    "state": "MA",
    "zip": "01605",
    "latitude": 42.2954774,
    "longitude": -71.786281,
    "description": "At 70 North Pkwy in Worcester, Burncoat Park carries 4.3 stars from 75 dog owner reviews. Open from 5am to 10pm daily, the park fits conveniently into different routines. Dog owners looking for variety can also visit Beaver Brook Park (3.0 miles) or Vernon Hill Dog Park (3.1 miles) with their four-legged friends."
  },
  {
    "name": "Vernon Hill Dog Park",
    "street": "144 Providence St",
    "city": "‍ Worcester",
    "state": "MA",
    "zip": "01610",
    "latitude": 42.251281,
    "longitude": -71.7927052,
    "description": "At 144 Providence St, Vernon Hill Dog Park has 4.2 stars based on 209 reviews from Worcester dog owners. Open from 7am to 7pm daily, local dog owners have time to explore with their furry companions. Dog owners in the neighborhood can also take their furry friends to Beaver Brook Park, 1.8 miles away."
  },
  {
    "name": "Downtown Dog Park",
    "street": "38 Green St",
    "city": "‍ Worcester",
    "state": "MA",
    "zip": "01604",
    "latitude": 42.1308437,
    "longitude": -71.5249063,
    "description": "Dog owners in the Worcester area will find Downtown Dog Park at 38 Green St—a local option for spending time with their pups. Open from 6am to 8pm daily, dog owners in the area can work a visit into their day. Reviews from other dog owners provide perspective on what to expect at this park."
  }
]