[
  {
    "name": "Mill Pond Park",
    "street": "565 W Bennett StSaline",
    "city": "Ann Arbor",
    "state": "MI",
    "zip": "48176",
    "latitude": 42.1710508,
    "longitude": -83.7923069,
    "description": "Mill Pond Park at 565 W Bennett St is well-regarded by Ann Arbor dog owners, holding 4.6 stars across 429 reviews. Open from 6am to 11pm daily, dog owners can plan visits around work or their pup's energy level. A solid track record makes this a reliable choice for dog owners."
  },
  {
    "name": "Swift Run Dog Park",
    "street": "4000 Platt Rd",
    "city": "Ann Arbor",
    "state": "MI",
    "zip": "48108",
    "latitude": 42.230224,
    "longitude": -83.699842,
    "description": "With 4.5 stars from 652 reviews, Swift Run Dog Park at 4000 Platt Rd has become a favorite among Ann Arbor dog owners. Open from 6am to 10pm daily, there's plenty of opportunity for dog owners to find a time that works. For a change of scenery, Broadway Park is another dog-friendly destination 4.5 miles from here."
  },
  {
    "name": "Broadway Park",
    "street": "800 Broadway St",
    "city": "Ann Arbor",
    "state": "MI",
    "zip": "48104",
    "latitude": 42.287641,
    "longitude": -83.742075,
    "description": "For dog owners in Ann Arbor, Broadway Park at 800 Broadway St has a 4.4-star rating (94 reviews). Open from 6am to 10pm daily, the park is accessible for dog owners in the area. Looking to explore more? Swift Run Dog Park is another dog-friendly park 4.5 miles from here."
  },
  {
    "name": "Riverside Park",
    "street": "Golden Ave",
    "city": "Battle Creek",
    "state": "MI",
    "zip": "49015",
    "latitude": 42.2937913,
    "longitude": -85.183815,
    "description": "In Battle Creek, Riverside Park earns strong marks from local dog owners—4.5 stars from 229 reviews. Open from 6am to 10pm daily, the park offers flexibility for dog owners with varying routines. For a change of scenery, Home Run Dog Park is another dog-friendly destination 3.4 miles from here."
  },
  {
    "name": "Ford Field Park",
    "street": "22051 Cherry Hill St",
    "city": "Dearborn Heights",
    "state": "MI",
    "zip": "48124",
    "latitude": 42.3123121,
    "longitude": -83.2481108,
    "description": "Ford Field Park at 22051 Cherry Hill St is a favorite among Dearborn Heights dog owners, earning 4.6 stars from 1,685 reviews. Open from 8am to 10pm daily, the park accommodates a variety of dog owner schedules and routines. Nearby, Cherry Hill Park (0.5 miles) is another dog park favorite where you can take your four-legged friend."
  },
  {
    "name": "Central Park",
    "street": "1800 Kinloch St",
    "city": "Dearborn Heights",
    "state": "MI",
    "zip": "48127",
    "latitude": 42.323752,
    "longitude": -83.296649,
    "description": "Dog owners in Dearborn Heights have made Central Park at 1800 Kinloch St a go-to spot, rating it 4.6 stars across 114 reviews. For dog owners in the area, this park has become a trusted spot for time with their pups. Other dog parks in the area include Levagood Park (1.1 miles) and Warrendale Recreation Area (1.5 miles)—both great for exploring with your four-legged friend."
  },
  {
    "name": "Cherry Hill Park",
    "street": "22725 Cherry Hill St",
    "city": "Dearborn Heights",
    "state": "MI",
    "zip": "48124",
    "latitude": 42.3109599,
    "longitude": -83.2569742,
    "description": "Cherry Hill Park (4.6 stars from 56 reviews) is a popular destination for Dearborn Heights dog owners, located at 22725 Cherry Hill St. Open from 6am to 10pm daily, dog owners can easily fit a visit into busy schedules. Dog owners can also take their pups to nearby Ford Field Park (0.5 miles) or Levagood Park (1.1 miles)."
  },
  {
    "name": "Garden City Parks Park",
    "street": "150 Pavillion RdGarden City",
    "city": "Dearborn Heights",
    "state": "MI",
    "zip": "48135",
    "latitude": 42.3126937,
    "longitude": -83.3471379,
    "description": "1,731 dog owners have made Garden City Parks Park (150 Pavillion Rd) one of Dearborn Heights's most trusted parks (4.5 stars). Open from 8am to 10pm daily, there's always time for dog owners to bring their pup for some quality time. For more dog park adventures, explore Rotary Park (0.8 miles) or Wayne County Dog Park (2.2 miles) with your furry companion."
  },
  {
    "name": "Hines Park",
    "street": "7651 N Merriman Rd",
    "city": "Dearborn Heights",
    "state": "MI",
    "zip": "48185",
    "latitude": 42.3445233,
    "longitude": -83.3502744,
    "description": "For dog owners in the Dearborn Heights area, Hines Park (7651 N Merriman Rd) offers a 4.5-star experience based on 839 reviews. The park has earned its reputation among dog owners in the neighborhood as a reliable choice. For a change of scenery, Old Hines Park is another dog-friendly destination 0.1 miles from here."
  },
  {
    "name": "Rotary Park",
    "street": "32465 Marquette StGarden City",
    "city": "Dearborn Heights",
    "state": "MI",
    "zip": "48135",
    "latitude": 42.3179102,
    "longitude": -83.3605973,
    "description": "Dearborn Heights dog owners rate Rotary Park at 32465 Marquette St highly, with 4.5 stars from 162 visits. Open from 6am to 10pm daily, there's plenty of opportunity for dog owners to find a time that works. More dog-friendly parks nearby include Garden City Parks Park (0.8 miles) and Wayne County Dog Park (1.8 miles)—perfect for pups who love adventure."
  },
  {
    "name": "Oxford Park",
    "street": "Oxford Park",
    "city": "Dearborn Heights",
    "state": "MI",
    "zip": "48124",
    "latitude": 42.2931538,
    "longitude": -83.2843227,
    "description": "Dearborn Heights dog owners rate Oxford Park highly, with 4.5 stars from 88 visits. Open from 8am to 10pm daily, the park accommodates early risers and evening visitors alike. More dog-friendly parks nearby include Crowley Park (0.6 miles) and Levagood Park (1.7 miles)—perfect for pups who love adventure."
  },
  {
    "name": "Warrendale Recreation Area",
    "street": "",
    "city": "Dearborn Heights",
    "state": "MI",
    "zip": "",
    "latitude": 42.3369816,
    "longitude": -83.2732627,
    "description": "In Dearborn Heights, Warrendale Recreation Area has built a loyal following—4.5 stars from 21 dog owner reviews. Open from 7am to 10pm daily, dog owners can plan visits around work or their pup's energy level. Other dog parks in the area include Parr Park (0.7 miles) and Parkland Park (1.0 miles)—both great for exploring with your four-legged friend."
  },
  {
    "name": "Whitmore-Bolles Park",
    "street": "21854 Notre Dame St",
    "city": "Dearborn Heights",
    "state": "MI",
    "zip": "48124",
    "latitude": 42.2877212,
    "longitude": -83.2498117,
    "description": "55 dog owners have reviewed Whitmore-Bolles Park at 21854 Notre Dame St in Dearborn Heights, averaging 4.4 stars. Open from 9am to 8pm daily, the park fits conveniently into different routines. Nearby dog parks worth exploring with your pup include Schemansky Park (0.5 miles) and Swapka Park (1.1 miles)."
  },
  {
    "name": "John F Kennedy Park",
    "street": "",
    "city": "Dearborn Heights",
    "state": "MI",
    "zip": "",
    "latitude": 42.2595071,
    "longitude": -83.2107671,
    "description": "John F Kennedy Park in Dearborn Heights has 4.4 stars based on 61 reviews from dog owners. Local dog owners use this park as a spot to spend time with their furry companions. For pups who want more adventure, Cunningham Park is a nearby dog park worth visiting (0.3 miles)."
  },
  {
    "name": "Avondale Park",
    "street": "",
    "city": "Dearborn Heights",
    "state": "MI",
    "zip": "",
    "latitude": 42.2814269,
    "longitude": -83.3863215,
    "description": "Avondale Park in Dearborn Heights is rated 4.4 stars by 70 dog owners. The park gives neighborhood dog owners a destination for outings with their four-legged friends. Dog owners looking for variety can also visit Westland Rotary Canine Corral (2.6 miles) or Rotary Park (2.8 miles) with their four-legged friends."
  },
  {
    "name": "Dearborn Parks & Recreation",
    "street": "15801 Michigan Ave",
    "city": "Dearborn Heights",
    "state": "MI",
    "zip": "48126",
    "latitude": 42.3158057,
    "longitude": -83.1982906,
    "description": "At 15801 Michigan Ave, Dearborn Parks & Recreation has 4.4 stars based on 198 reviews from Dearborn Heights dog owners. This park provides dog owners in the community with a place to visit with their dogs. Dog owners might also enjoy Dearborn Dog Park, another dog park just 0.3 miles away."
  },
  {
    "name": "Parr Park",
    "street": "24140 Edward N Hines Dr",
    "city": "Dearborn Heights",
    "state": "MI",
    "zip": "48127",
    "latitude": 42.3468009,
    "longitude": -83.2748142,
    "description": "Dog owners in Dearborn Heights have rated Parr Park (24140 Edward N Hines Dr) 4.4 stars across 202 reviews. Open from 7am to 9pm daily, dog owners have a window to spend time with their pups. Looking to explore more? Warrendale Recreation Area is another dog-friendly park 0.7 miles from here."
  },
  {
    "name": "Schemansky Park",
    "street": "21660 Outer Dr W",
    "city": "Dearborn Heights",
    "state": "MI",
    "zip": "48124",
    "latitude": 42.2876915,
    "longitude": -83.2390711,
    "description": "232 dog owners have reviewed Schemansky Park at 21660 Outer Dr W in Dearborn Heights, averaging 4.4 stars. Open from 6am to 10pm daily, the park fits conveniently into different routines. Nearby dog parks worth exploring with your pup include Whitmore-Bolles Park (0.5 miles) and Swapka Park (1.3 miles)."
  },
  {
    "name": "Levagood Park",
    "street": "801 N Denwood St",
    "city": "Dearborn Heights",
    "state": "MI",
    "zip": "48128",
    "latitude": 42.317307,
    "longitude": -83.276981,
    "description": "For dog owners in the Dearborn Heights area, Levagood Park (801 N Denwood St) offers a 4.4-star experience based on 691 reviews. Open from 8am to 10pm daily, there's plenty of opportunity for dog owners to find a time that works. For a change of scenery, Central Park is another dog-friendly destination 1.1 miles from here."
  },
  {
    "name": "Crowley Park",
    "street": "2600 Westwood St",
    "city": "Dearborn Heights",
    "state": "MI",
    "zip": "48124",
    "latitude": 42.2851448,
    "longitude": -83.2805067,
    "description": "Crowley Park (4.4 stars from 745 reviews) is a popular destination for Dearborn Heights dog owners, located at 2600 Westwood St. Open from 8am to 10pm daily, the park works well for dog owners with different schedules. Nearby, Oxford Park (0.6 miles) offers dog owners another great spot to explore with their pups."
  },
  {
    "name": "Barkside Detroit",
    "street": "7960 Kercheval Ave",
    "city": "Detroit",
    "state": "MI",
    "zip": "48214",
    "latitude": 42.3580986,
    "longitude": -83.0004149,
    "description": "Barkside Detroit at 7960 Kercheval Ave is well-regarded by Detroit dog owners, holding 4.9 stars across 255 reviews. The steady stream of dog owner visits speaks to the park's appeal. For variety, the neighborhood offers more dog parks to explore: Gabriel Richard Park (0.8 miles) and Belle Isle Park (1.4 miles)."
  },
  {
    "name": "Detroit Riverwalk",
    "street": "1340 Atwater St",
    "city": "Detroit",
    "state": "MI",
    "zip": "48207",
    "latitude": 42.3312247,
    "longitude": -83.0325478,
    "description": "With 5,331 reviews and a 4.8-star rating, Detroit Riverwalk (1340 Atwater St) has become a landmark for Detroit dog owners. Open from 6am to 10pm daily, dog owners have maximum flexibility to plan their visit. Dog owners in the area also frequent William G. Milliken State Park (0.3 miles)—another top dog park worth visiting with your pup."
  },
  {
    "name": "Dequindre Cut",
    "street": "Dequindre Cut Greenway",
    "city": "Detroit",
    "state": "MI",
    "zip": "48207",
    "latitude": 42.3483987,
    "longitude": -83.0366795,
    "description": "For Detroit dog owners, Dequindre Cut has become a reliable favorite—4.8 stars from 1,281 reviews. Open from 6am to 10pm daily, it's easy for dog owners to stop by whenever works best. Nearby, Lafayette Central Park (0.8 miles) is another dog park favorite where you can take your four-legged friend."
  },
  {
    "name": "‍ Orion Oaks Dog Park",
    "street": "2301 Joslyn RdOrion Twp",
    "city": "Detroit",
    "state": "MI",
    "zip": "48360",
    "latitude": 42.7461843,
    "longitude": -83.2819646,
    "description": "With 4.8 stars across 1,044 reviews, Orion Oaks Dog Park at 2301 Joslyn Rd has clearly won over Detroit dog owners. Open from 8am to 8pm daily, dog owners can plan visits around their pup's favorite times to be active. Keep the adventure going at other nearby dog parks like Orion Oaks County Park (2.4 miles) or Orion Oaks Park (2.7 miles)."
  },
  {
    "name": "Dodge Park",
    "street": "40620 Utica Rd",
    "city": "Detroit",
    "state": "MI",
    "zip": "48313",
    "latitude": 42.592386,
    "longitude": -83.0124006,
    "description": "Dog owners in Detroit have embraced Dodge Park (40620 Utica Rd) as a top destination—4.7 stars from 3,859 visits. Open from 7am to 10pm daily, the park is convenient for before work, after work, or weekend adventures. Keep the adventure going at other nearby dog parks like Parks & Recreation Sterling (0.2 miles) or Clinton River Park (0.8 miles)."
  },
  {
    "name": "Beacon Park",
    "street": "1901 Grand River Ave",
    "city": "Detroit",
    "state": "MI",
    "zip": "48226",
    "latitude": 42.3347032,
    "longitude": -83.0545609,
    "description": "Beacon Park at 1901 Grand River Ave is a favorite among Detroit dog owners, earning 4.7 stars from 2,413 reviews. Open from 6am to 10pm daily, the park is convenient for before work, after work, or weekend adventures. Nearby, Grand Circus Park (0.3 miles) is another dog park favorite where you can take your four-legged friend."
  },
  {
    "name": "William G. Milliken State Park",
    "street": "1900 Atwater St",
    "city": "Detroit",
    "state": "MI",
    "zip": "48207",
    "latitude": 42.333171,
    "longitude": -83.026419,
    "description": "William G. Milliken State Park at 1900 Atwater St is a favorite among Detroit dog owners, earning 4.7 stars from 2,138 reviews. Open from 8am to 4pm weekdays, there's always time for dog owners to bring their pup for some quality time. Dog owners in the area also love bringing their pups to Robert C. Valade Park (0.1 miles) and Detroit Riverwalk (0.3 miles)."
  },
  {
    "name": "Robert C. Valade Park",
    "street": "2670 Atwater St",
    "city": "Detroit",
    "state": "MI",
    "zip": "48207",
    "latitude": 42.3338706,
    "longitude": -83.0244255,
    "description": "Local dog owners love Robert C. Valade Park at 2670 Atwater St in Detroit—4.7 stars from an impressive 1,113 reviews. Dog owners appreciate the reliable experience this park provides for their four-legged companions. For more dog park adventures, explore William G. Milliken State Park (0.1 miles) or Detroit Riverwalk (0.5 miles) with your furry companion."
  },
  {
    "name": "Gabriel Richard Park",
    "street": "7130 E Jefferson Ave",
    "city": "Detroit",
    "state": "MI",
    "zip": "48207",
    "latitude": 42.347052,
    "longitude": -83.0025463,
    "description": "At 7130 E Jefferson Ave in Detroit, Gabriel Richard Park has built a loyal following—4.7 stars from 978 dog owner reviews. Open from 6am to 10pm daily, the park accommodates early risers and evening visitors alike. Dog owners exploring the neighborhood can also bring their furry friends to Belle Isle Park (0.7 miles)."
  },
  {
    "name": "Capitol Park",
    "street": "",
    "city": "Detroit",
    "state": "MI",
    "zip": "",
    "latitude": 42.3315509,
    "longitude": -83.0466403,
    "description": "Dog owners in Detroit have made Capitol Park a go-to spot, rating it 4.7 stars across 60 reviews. Open from 6am to 10pm daily, the park accommodates early risers and evening visitors alike. More dog-friendly parks nearby include Midtown Dog Park (0.0 miles) and Rosemont Acacia Park (0.0 miles)—perfect for pups who love adventure."
  },
  {
    "name": "Blue Heron Lagoon Trail",
    "street": "198 Lakeside Dr",
    "city": "Detroit",
    "state": "MI",
    "zip": "48207",
    "latitude": 42.3496855,
    "longitude": -82.9692433,
    "description": "Dog owners in Detroit have made Blue Heron Lagoon Trail at 198 Lakeside Dr a go-to spot, rating it 4.7 stars across 37 reviews. Open from 5am to 10pm daily, dog owners can easily fit a visit into busy schedules. Dog owners exploring the neighborhood can also bring their furry friends to Barkside Detroit (1.7 miles)."
  },
  {
    "name": "Riverside Dog Park",
    "street": "3565 W Jefferson Ave",
    "city": "Detroit",
    "state": "MI",
    "zip": "48216",
    "latitude": 42.3138968,
    "longitude": -83.0808089,
    "description": "Located at 3565 W Jefferson Ave in Detroit, Riverside Dog Park earns strong marks from local dog owners—4.6 stars from 12 reviews. Open from 6am to 10pm daily, the park accommodates early risers and evening visitors alike. Other dog parks in the area include Riverside Park (0.2 miles) and Roosevelt Park (1.0 miles)—both great for exploring with your four-legged friend."
  },
  {
    "name": "Rose Dog Park",
    "street": "3701 Trumbull",
    "city": "Detroit",
    "state": "MI",
    "zip": "48208",
    "latitude": 42.342738,
    "longitude": -83.07352,
    "description": "Located at 3701 Trumbull in Detroit, Rose Dog Park earns strong marks from local dog owners—4.6 stars from 39 reviews. Open from 6am to 10pm daily, the park accommodates early risers and evening visitors alike. Other dog parks in the area include Detroit Dog Park (0.9 miles) and Roosevelt Park (1.0 miles)—both great for exploring with your four-legged friend."
  },
  {
    "name": "Pallister Park",
    "street": "616 Pallister",
    "city": "Detroit",
    "state": "MI",
    "zip": "48202",
    "latitude": 42.3717819,
    "longitude": -83.0794182,
    "description": "Dog owners in Detroit have made Pallister Park at 616 Pallister a go-to spot, rating it 4.6 stars across 96 reviews. Open from 6am to 10pm daily, dog owners can easily fit a visit into busy schedules. Other dog parks in the area include Voigt Park (0.9 miles) and Rose Dog Park (2.0 miles)—both great for exploring with your four-legged friend."
  },
  {
    "name": "Matthew C. Patterson Park",
    "street": "16006 Essex DrGrosse Pointe Park",
    "city": "Detroit",
    "state": "MI",
    "zip": "48230",
    "latitude": 42.3755087,
    "longitude": -82.9234242,
    "description": "At 16006 Essex Dr in Detroit, Matthew C. Patterson Park has built a loyal following—4.6 stars from 290 dog owner reviews. Open from 7am to 9pm daily, there's room in the day for dog owners to bring their furry friends. Other dog parks in the area include Balduck Park (2.7 miles) and Blue Heron Lagoon Trail (2.9 miles)—both great for exploring with your four-legged friend."
  },
  {
    "name": "Midtown Dog Park",
    "street": "",
    "city": "Detroit",
    "state": "MI",
    "zip": "",
    "latitude": 42.3315509,
    "longitude": -83.0466403,
    "description": "Midtown Dog Park (4.6 stars from 298 reviews) is a popular destination for Detroit dog owners. Open from 7am to 8:30pm daily, dog owners have plenty of flexibility to plan a visit. Dog owners exploring the neighborhood can also bring their furry friends to Capitol Park (0.0 miles)."
  },
  {
    "name": "‍ For-Mar Nature Preserve &",
    "street": "2142 N Genesee RdBurton",
    "city": "Flint",
    "state": "MI",
    "zip": "48509",
    "latitude": 43.0364673,
    "longitude": -83.6154466,
    "description": "At 2142 N Genesee Rd in Flint, For-Mar Nature Preserve & stands out with 4.8 stars from 2,129 happy dog owners. Open from 9am to 5pm daily, dog owners have plenty of flexibility to visit when it suits their schedule. Nearby, Kelly Lake Park (1.8 miles) is another dog park favorite where you can take your four-legged friend."
  },
  {
    "name": "Flushing County Park",
    "street": "4417 N McKinley RdFlushing",
    "city": "Flint",
    "state": "MI",
    "zip": "48433",
    "latitude": 43.0488804,
    "longitude": -83.8524347,
    "description": "Flushing County Park at 4417 N McKinley Rd is well-regarded by Flint dog owners, holding 4.8 stars across 821 reviews. Open from 8am to 7pm daily, the park accommodates early risers and evening visitors alike. Local dog owners have clearly found this to be a worthwhile destination."
  },
  {
    "name": "The Mounds ORV Park",
    "street": "6145 E Mt Morris RdMt Morris",
    "city": "Flint",
    "state": "MI",
    "zip": "48458",
    "latitude": 43.1193168,
    "longitude": -83.6939042,
    "description": "Dog owners in Flint have made The Mounds ORV Park at 6145 E Mt Morris Rd a go-to spot, rating it 4.7 stars across 586 reviews. Open from 8am to 8pm daily, the park accommodates early risers and evening visitors alike. Looking for more places to take your pup? Bluebell Beach is another popular dog park just 2.6 miles away."
  },
  {
    "name": "Rust Park",
    "street": "470 Rust Park DrGrand Blanc",
    "city": "Flint",
    "state": "MI",
    "zip": "48439",
    "latitude": 42.9355169,
    "longitude": -83.6311874,
    "description": "Rust Park at 470 Rust Park Dr is well-regarded by Flint dog owners, holding 4.7 stars across 440 reviews. Open from 8am to 10pm daily, the park accommodates early risers and evening visitors alike. Nearby, Physicians Park (0.6 miles) offers dog owners another great spot to explore with their pups."
  },
  {
    "name": "US 23 Drive In Theatre",
    "street": "5200 Fenton Rd",
    "city": "Flint",
    "state": "MI",
    "zip": "48507",
    "latitude": 42.9535565,
    "longitude": -83.69455,
    "description": "US 23 Drive In Theatre at 5200 Fenton Rd in Flint is a community favorite, with 1,736 dog owners giving it 4.6 stars. Open daily, it's easy for dog owners to stop by whenever works best. Want to give your pup even more adventure? Broome Park is another beloved dog park just 2.0 miles away."
  },
  {
    "name": "Stepping Stone Falls",
    "street": "5161 Branch Rd",
    "city": "Flint",
    "state": "MI",
    "zip": "48506",
    "latitude": 43.062194,
    "longitude": -83.6509335,
    "description": "Local dog owners love Stepping Stone Falls at 5161 Branch Rd in Flint—4.6 stars from an impressive 1,349 reviews. Dog owners in the area know they can count on this park for quality time with their pups. Dog owners in the area also love bringing their pups to Whaley Park (1.2 miles) and Bluebell Beach (2.2 miles)."
  },
  {
    "name": "Creasey Bicentennial Park",
    "street": "1505 E. Grand Blanc Rd.Grand Blanc",
    "city": "Flint",
    "state": "MI",
    "zip": "48439",
    "latitude": 42.9220583,
    "longitude": -83.6376987,
    "description": "Dog owners in Flint have embraced Creasey Bicentennial Park (1505 E. Grand Blanc Rd.) as a top destination—4.6 stars from 1,013 visits. Open from 8am to 8pm, every day except Friday, the park accommodates a variety of dog owner schedules and routines. Want to give your pup even more adventure? Physicians Park is another beloved dog park just 0.4 miles away."
  },
  {
    "name": "Elms Park",
    "street": "4157 Elms RdSwartz Creek",
    "city": "Flint",
    "state": "MI",
    "zip": "48473",
    "latitude": 42.9671674,
    "longitude": -83.8112501,
    "description": "For dog owners in the Flint area, Elms Park (4157 Elms Rd) offers a 4.6-star experience based on 963 reviews. Open from 8am to 8pm daily, the park offers flexibility for dog owners with varying routines. More dog-friendly parks nearby include Swartz Creek Dog Park (1.2 miles) and Flint Township Trail (3.0 miles)—perfect for pups who love adventure."
  },
  {
    "name": "Physicians Park",
    "street": "218 Reid RdGrand Blanc",
    "city": "Flint",
    "state": "MI",
    "zip": "48439",
    "latitude": 42.9275913,
    "longitude": -83.6332998,
    "description": "At 218 Reid Rd in Flint, Physicians Park has built a loyal following—4.6 stars from 392 dog owner reviews. Open from 8am to 9pm daily, dog owners can plan visits around work or their pup's energy level. Dog owners can also take their pups to nearby Creasey Bicentennial Park (0.4 miles) or Rust Park (0.6 miles)."
  },
  {
    "name": "Flint Township Trail",
    "street": "",
    "city": "Flint",
    "state": "MI",
    "zip": "",
    "latitude": 43.0019877,
    "longitude": -83.7749155,
    "description": "In Flint, Flint Township Trail earns strong marks from local dog owners—4.8 stars from 9 reviews. Dog owners frequent this park for its consistent quality and welcoming atmosphere. More dog-friendly parks nearby include Sarginson Park (2.6 miles) and Mott Park (2.7 miles)—perfect for pups who love adventure."
  },
  {
    "name": "Genesee Valley Trail",
    "street": "Genesee Valley Trl",
    "city": "Flint",
    "state": "MI",
    "zip": "48503",
    "latitude": 43.0164492,
    "longitude": -83.6960599,
    "description": "For dog owners in the Flint area, Genesee Valley Trail offers a 4.5-star experience based on 18 reviews. Open from 6am to 10pm daily, there's room in the day for dog owners to bring their furry friends. Other dog parks in the area include Riverbank Park (0.2 miles) and Dort Park (0.3 miles)—both great for exploring with your four-legged friend."
  },
  {
    "name": "Willson Park",
    "street": "300 E Kearsley St",
    "city": "Flint",
    "state": "MI",
    "zip": "48502",
    "latitude": 43.0175309,
    "longitude": -83.6896897,
    "description": "With 4.5 stars from 30 reviews, Willson Park at 300 E Kearsley St has become a favorite among Flint dog owners. The park has earned its reputation among dog owners in the neighborhood as a reliable choice. For a change of scenery, Dort Park is another dog-friendly destination 0.1 miles from here."
  },
  {
    "name": "Sitdowners Memorial Park",
    "street": "1901 Executive Plaza Dr",
    "city": "Flint",
    "state": "MI",
    "zip": "48507",
    "latitude": 42.989504,
    "longitude": -83.711451,
    "description": "Sitdowners Memorial Park (4.5 stars from 48 reviews) is a popular destination for Flint dog owners, located at 1901 Executive Plaza Dr. Dog owners frequent this park for its consistent quality and welcoming atmosphere. Nearby, Broome Park (0.7 miles) offers dog owners another great spot to explore with their pups."
  },
  {
    "name": "‍ Dort Park",
    "street": "",
    "city": "Flint",
    "state": "MI",
    "zip": "",
    "latitude": 43.0161693,
    "longitude": -83.6900211,
    "description": "For dog owners in Flint, Dort Park has a 4.4-star rating (22 reviews). Open from 6:30am to 10pm daily, the park fits conveniently into different routines. Dog owners in the neighborhood can also take their furry friends to Rollingwood Park, 0.0 miles away."
  },
  {
    "name": "‍ Mott Park",
    "street": "2701 Nolen Dr",
    "city": "Flint",
    "state": "MI",
    "zip": "48504",
    "latitude": 43.0156361,
    "longitude": -83.7241183,
    "description": "Located at 2701 Nolen Dr, Mott Park in Flint is rated 4.4 stars by 45 dog owners. Open from 8am to 8pm daily, the park fits conveniently into different routines. Dog owners in the neighborhood can also take their furry friends to Mott Park, 0.0 miles away."
  },
  {
    "name": "Grand Ravines North County",
    "street": "9920 42nd AveGeorgetown Twp",
    "city": "Grand Rapids",
    "state": "MI",
    "zip": "49428",
    "latitude": 42.9491257,
    "longitude": -85.8886623,
    "description": "Grand Ravines North County (4.9 stars from 401 reviews) is a popular destination for Grand Rapids dog owners, located at 9920 42nd Ave. Open from 7am to 10pm daily, there's plenty of opportunity for dog owners to find a time that works. Based on the reviews, dog owners can expect a reliable spot for spending time with their pup."
  },
  {
    "name": "Blandford Nature Center",
    "street": "1715 Hillburn Ave NW",
    "city": "Grand Rapids",
    "state": "MI",
    "zip": "49504",
    "latitude": 42.9924624,
    "longitude": -85.7386452,
    "description": "Dog owners in Grand Rapids have embraced Blandford Nature Center (1715 Hillburn Ave NW) as a top destination—4.8 stars from 1,044 visits. Open from 9am to 5pm, Monday through Saturday, the park accommodates a variety of dog owner schedules and routines. Want to give your pup even more adventure? Covell Dog Park is another beloved dog park just 1.7 miles away."
  },
  {
    "name": "‍ Millennium Park",
    "street": "1415 Maynard Ave SWWalker",
    "city": "Grand Rapids",
    "state": "MI",
    "zip": "49534",
    "latitude": 42.9401854,
    "longitude": -85.7443825,
    "description": "For Grand Rapids dog owners, Millennium Park at 1415 Maynard Ave SW has become a reliable favorite—4.7 stars from 3,924 reviews. The community of dog owners here is welcoming and the atmosphere consistently positive. Keep the adventure going at other nearby dog parks like Lamar Park (1.5 miles) or Johnson Park (2.1 miles)."
  },
  {
    "name": "Provin Trails",
    "street": "2900 4 Mile Rd NE",
    "city": "Grand Rapids",
    "state": "MI",
    "zip": "49525",
    "latitude": 43.0287395,
    "longitude": -85.6423834,
    "description": "Provin Trails at 2900 4 Mile Rd NE is well-regarded by Grand Rapids dog owners, holding 4.7 stars across 791 reviews. Open from 7am to 8pm daily, the park offers flexibility for dog owners with varying routines. For variety, the neighborhood offers more dog parks to explore: The Pack Indoor Dog Park (1.3 miles) and Riverside Park (1.5 miles)."
  },
  {
    "name": "Caledonia Community Green Dog",
    "street": "9335 Cherry Valley Ave SECaledonia",
    "city": "Grand Rapids",
    "state": "MI",
    "zip": "49316",
    "latitude": 42.7962492,
    "longitude": -85.5070799,
    "description": "Located at 9335 Cherry Valley Ave SE in Grand Rapids, Caledonia Community Green Dog earns strong marks from local dog owners—4.7 stars from 36 reviews. The park serves dog owners well, providing a destination the community values. Nearby, Creekside Park (3.4 miles) offers dog owners another great spot to explore with their pups."
  },
  {
    "name": "Midtown Green",
    "street": "747 Fountain St NE",
    "city": "Grand Rapids",
    "state": "MI",
    "zip": "49503",
    "latitude": 42.9651885,
    "longitude": -85.6512552,
    "description": "At 747 Fountain St NE in Grand Rapids, Midtown Green has built a loyal following—4.7 stars from 15 dog owner reviews. The steady stream of dog owner visits speaks to the park's appeal. For a change of scenery, Hillcrest Dog Park is another dog-friendly destination 0.6 miles from here."
  },
  {
    "name": "The Pack Indoor Dog Park",
    "street": "5205 W River Dr NEComstock Park",
    "city": "Grand Rapids",
    "state": "MI",
    "zip": "49321",
    "latitude": 43.0300026,
    "longitude": -85.6689875,
    "description": "With 4.6 stars from 273 reviews, The Pack Indoor Dog Park at 5205 W River Dr NE has become a favorite among Grand Rapids dog owners. Local dog owners appreciate what this park offers their four-legged friends. Dog owners can also take their pups to nearby Riverside Park (1.1 miles) or Provin Trails (1.3 miles)."
  },
  {
    "name": "Whistlestop Park",
    "street": "2120 76th St SWByron Center",
    "city": "Grand Rapids",
    "state": "MI",
    "zip": "49315",
    "latitude": 42.8241264,
    "longitude": -85.7160916,
    "description": "Dog owners in Grand Rapids have made Whistlestop Park at 2120 76th St SW a go-to spot, rating it 4.6 stars across 295 reviews. Local dog owners appreciate what this park offers their four-legged friends. Dog owners can also take their pups to nearby Palmer Park (3.3 miles) or Ferrand Park (3.8 miles)."
  },
  {
    "name": "Johnson Park",
    "street": "2600 Wilson Ave SWWalker",
    "city": "Grand Rapids",
    "state": "MI",
    "zip": "49534",
    "latitude": 42.918518,
    "longitude": -85.7722107,
    "description": "Grand Rapids dog owners rate Johnson Park at 2600 Wilson Ave SW highly, with 4.6 stars from 814 visits. Open from 7am to 9pm daily, dog owners can easily fit a visit into busy schedules. Nearby, Millennium Park (2.1 miles) offers dog owners another great spot to explore with their pups."
  },
  {
    "name": "Lexington Park",
    "street": "48 Gold Ave NW",
    "city": "Grand Rapids",
    "state": "MI",
    "zip": "49504",
    "latitude": 42.9639003,
    "longitude": -85.6849143,
    "description": "Located at 48 Gold Ave NW, Lexington Park in Grand Rapids is rated 4.3 stars by 6 dog owners. Open from 8am to 9pm daily, the park fits conveniently into different routines. For pups who want more adventure, Coit Park is a nearby dog park worth visiting (1.3 miles)."
  },
  {
    "name": "‍ Eastern Park",
    "street": "758 Eastern Ave NE",
    "city": "Grand Rapids",
    "state": "MI",
    "zip": "49503",
    "latitude": 42.976995,
    "longitude": -85.649496,
    "description": "At 758 Eastern Ave NE, Eastern Park has 4.4 stars based on 21 reviews from Grand Rapids dog owners. Open from 6:30am to 9pm daily, local dog owners have time to explore with their furry companions. Dog owners in the neighborhood can also take their furry friends to Highland Park, 0.4 miles away."
  },
  {
    "name": "Stoney Lakeside Park",
    "street": "1200 Bowes Rd",
    "city": "Grand Rapids",
    "state": "MI",
    "zip": "49331",
    "latitude": 42.929112,
    "longitude": -85.357493,
    "description": "Stoney Lakeside Park at 1200 Bowes Rd is well-regarded by Grand Rapids dog owners, holding 4.5 stars across 94 reviews. Open from 7am to 9pm daily, the park accommodates early risers and evening visitors alike. Based on the reviews, dog owners can expect a reliable spot for spending time with their pup."
  },
  {
    "name": "‍ Rockford Dog Park",
    "street": "",
    "city": "Grand Rapids",
    "state": "MI",
    "zip": "",
    "latitude": 43.119721,
    "longitude": -85.559604,
    "description": "In Grand Rapids, Rockford Dog Park has built a loyal following—4.5 stars from 293 dog owner reviews. Open from 6:30am to 7pm daily, there's room in the day for dog owners to bring their furry friends. A solid track record makes this a reliable choice for dog owners."
  },
  {
    "name": "Hillcrest Dog Park",
    "street": "250 Fuller Ave NE",
    "city": "Grand Rapids",
    "state": "MI",
    "zip": "49503",
    "latitude": 42.9672923,
    "longitude": -85.6395916,
    "description": "With 4.5 stars from 578 reviews, Hillcrest Dog Park at 250 Fuller Ave NE has become a favorite among Grand Rapids dog owners. Open from 8am to 10pm daily, the park works well for dog owners with different schedules. For variety, the neighborhood offers more dog parks to explore: Midtown Green (0.6 miles) and Eastern Park (0.8 miles)."
  },
  {
    "name": "Alexander Park",
    "street": "610 Alexander St SE",
    "city": "Grand Rapids",
    "state": "MI",
    "zip": "49507",
    "latitude": 42.9445316,
    "longitude": -85.6537328,
    "description": "Dog owners in Grand Rapids have rated Alexander Park (610 Alexander St SE) 4.1 stars across 11 reviews. Open from 6am to 10pm daily, the park fits conveniently into different routines. For dog owners who like to explore, Pleasant Park (0.5 miles) and Joe Taylor Park (0.7 miles) are both nearby parks to try with your dog."
  },
  {
    "name": "‍ The Thirsty Hound",
    "street": "1030 S 8th St",
    "city": "Kalamazoo",
    "state": "MI",
    "zip": "49009",
    "latitude": 42.2795431,
    "longitude": -85.6873743,
    "description": "Kalamazoo dog owners rate The Thirsty Hound at 1030 S 8th St highly, with 4.9 stars from 46 visits. Open every day except Monday and Sunday, the park accommodates early risers and evening visitors alike. More dog-friendly parks nearby include Meadow Run Dog Park (0.1 miles) and Flesher Field (1.7 miles)—perfect for pups who love adventure."
  },
  {
    "name": "Kleinstuck Preserve",
    "street": "1700 Chevy Chase Blvd",
    "city": "Kalamazoo",
    "state": "MI",
    "zip": "49008",
    "latitude": 42.2645321,
    "longitude": -85.6128645,
    "description": "Dog owners in Kalamazoo have made Kleinstuck Preserve at 1700 Chevy Chase Blvd a go-to spot, rating it 4.8 stars across 98 reviews. For dog owners in the area, this park has become a trusted spot for time with their pups. Looking for more places to take your pup? Glen Park is another popular dog park just 0.7 miles away."
  },
  {
    "name": "Lincoln Dog Park",
    "street": "9651 Portage RdPortage",
    "city": "Kalamazoo",
    "state": "MI",
    "zip": "49002",
    "latitude": 42.1765938,
    "longitude": -85.5672916,
    "description": "Kalamazoo dog owners rate Lincoln Dog Park at 9651 Portage Rd highly, with 4.9 stars from 35 visits. Open from 9am to 8pm daily, there's plenty of opportunity for dog owners to find a time that works. Dog owners exploring the neighborhood can also bring their furry friends to South Westnedge Dog Park (1.3 miles)."
  },
  {
    "name": "Asylum Lake Preserve",
    "street": "3836 S Drake Rd",
    "city": "Kalamazoo",
    "state": "MI",
    "zip": "49008",
    "latitude": 42.2641562,
    "longitude": -85.6484394,
    "description": "Dog owners in Kalamazoo have made Asylum Lake Preserve at 3836 S Drake Rd a go-to spot, rating it 4.7 stars across 966 reviews. Open from 7am to 8pm daily, the park works well for dog owners with different schedules. Looking for more places to take your pup? Glen Park is another popular dog park just 1.2 miles away."
  },
  {
    "name": "‍ Kleinstuck Preserve/Nature",
    "street": "2100 Stearns Ave",
    "city": "Kalamazoo",
    "state": "MI",
    "zip": "49008",
    "latitude": 42.2707629,
    "longitude": -85.5995396,
    "description": "With 4.7 stars from 150 reviews, Kleinstuck Preserve/Nature at 2100 Stearns Ave has become a favorite among Kalamazoo dog owners. Open from 8am to 7pm daily, dog owners can plan visits around work or their pup's energy level. Dog owners exploring the neighborhood can also bring their furry friends to Kleinstuck Preserve (0.8 miles)."
  },
  {
    "name": "South Westnedge Dog Park",
    "street": "9010 S Westnedge AvePortage",
    "city": "Kalamazoo",
    "state": "MI",
    "zip": "49024",
    "latitude": 42.1842676,
    "longitude": -85.5894281,
    "description": "At 9010 S Westnedge Ave in Kalamazoo, South Westnedge Dog Park has built a loyal following—4.7 stars from 127 dog owner reviews. Open from 7am to 10pm daily, the park offers flexibility for dog owners with varying routines. Nearby, South Westnedge Park (0.0 miles) offers dog owners another great spot to explore with their pups."
  },
  {
    "name": "Home Run Dog Park",
    "street": "800 E Roosevelt AveBattle Creek",
    "city": "Kalamazoo",
    "state": "MI",
    "zip": "49017",
    "latitude": 42.3381425,
    "longitude": -85.1534896,
    "description": "For dog owners in the Kalamazoo area, Home Run Dog Park (800 E Roosevelt Ave) offers a 4.7-star experience based on 104 reviews. The park has earned its reputation among dog owners in the neighborhood as a reliable choice. Nearby, Riverside Park (3.4 miles) offers dog owners another great spot to explore with their pups."
  },
  {
    "name": "Al Sabo Land Preserve",
    "street": "6310 Texas Dr",
    "city": "Kalamazoo",
    "state": "MI",
    "zip": "49009",
    "latitude": 42.2109096,
    "longitude": -85.6747903,
    "description": "At 6310 Texas Dr in Kalamazoo, Al Sabo Land Preserve has built a loyal following—4.6 stars from 799 dog owner reviews. Open from 7:30am to 8pm daily, the park works well for dog owners with different schedules. More dog-friendly parks nearby include Texas Drive Park (0.4 miles) and 6th Street Park (1.9 miles)—perfect for pups who love adventure."
  },
  {
    "name": "Flesher Field",
    "street": "3664 S 9th St",
    "city": "Kalamazoo",
    "state": "MI",
    "zip": "49009",
    "latitude": 42.2559036,
    "longitude": -85.6776754,
    "description": "For dog owners in the Kalamazoo area, Flesher Field (3664 S 9th St) offers a 4.6-star experience based on 614 reviews. Open from 7am to 9pm daily, dog owners have plenty of flexibility to plan a visit. For variety, the neighborhood offers more dog parks to explore: Asylum Lake Preserve (1.6 miles) and The Thirsty Hound (1.7 miles)."
  },
  {
    "name": "River Oaks County Park",
    "street": "9202 E Michigan AveGalesburg",
    "city": "Kalamazoo",
    "state": "MI",
    "zip": "49053",
    "latitude": 42.2889683,
    "longitude": -85.4101108,
    "description": "Kalamazoo dog owners rate River Oaks County Park at 9202 E Michigan Ave highly, with 4.6 stars from 553 visits. Open from 7am to 5:30pm daily, dog owners can easily fit a visit into busy schedules. The reviews indicate this is a trusted destination for dog owners in the area."
  },
  {
    "name": "Texas Drive Park",
    "street": "6603 Texas Dr",
    "city": "Kalamazoo",
    "state": "MI",
    "zip": "49009",
    "latitude": 42.2069931,
    "longitude": -85.67976,
    "description": "Located at 6603 Texas Dr in Kalamazoo, Texas Drive Park earns strong marks from local dog owners—4.6 stars from 249 reviews. Open from 6am to 9pm daily, dog owners can plan visits around work or their pup's energy level. Looking for more places to take your pup? Al Sabo Land Preserve is another popular dog park just 0.4 miles away."
  },
  {
    "name": "South Westnedge Park",
    "street": "9010 S Westnedge AvePortage",
    "city": "Kalamazoo",
    "state": "MI",
    "zip": "49002",
    "latitude": 42.1842676,
    "longitude": -85.5894281,
    "description": "Located at 9010 S Westnedge Ave in Kalamazoo, South Westnedge Park earns strong marks from local dog owners—4.6 stars from 143 reviews. Open from 7am to 10pm daily, dog owners have plenty of flexibility to plan a visit. More dog-friendly parks nearby include South Westnedge Dog Park (0.0 miles) and Lincoln Dog Park (1.3 miles)—perfect for pups who love adventure."
  },
  {
    "name": "6th Street Park",
    "street": "6321 S 6th St",
    "city": "Kalamazoo",
    "state": "MI",
    "zip": "49009",
    "latitude": 42.2268231,
    "longitude": -85.7060476,
    "description": "Kalamazoo dog owners rate 6th Street Park at 6321 S 6th St highly, with 4.5 stars from 24 visits. Open from 6am to 10pm daily, dog owners can plan visits around work or their pup's energy level. For variety, the neighborhood offers more dog parks to explore: Texas Drive Park (1.9 miles) and Al Sabo Land Preserve (1.9 miles)."
  },
  {
    "name": "Bark Park",
    "street": "6604 Lovers LnPortage",
    "city": "Kalamazoo",
    "state": "MI",
    "zip": "49002",
    "latitude": 42.2212633,
    "longitude": -85.5747989,
    "description": "Kalamazoo dog owners rate Bark Park at 6604 Lovers Ln highly, with 4.5 stars from 68 visits. Local dog owners appreciate what this park offers their four-legged friends. More dog-friendly parks nearby include Milham Park (1.7 miles) and Blanche Hull Park (1.9 miles)—perfect for pups who love adventure."
  },
  {
    "name": "Frays Park",
    "street": "1006 Piccadilly Rd",
    "city": "Kalamazoo",
    "state": "MI",
    "zip": "49006",
    "latitude": 42.3010756,
    "longitude": -85.6439358,
    "description": "Kalamazoo dog owners rate Frays Park at 1006 Piccadilly Rd highly, with 4.5 stars from 191 visits. Open from 7am to 9pm daily, there's room in the day for dog owners to bring their furry friends. Dog owners exploring the neighborhood can also bring their furry friends to Asylum Lake Preserve (2.6 miles)."
  },
  {
    "name": "Bow in the Clouds Preserve",
    "street": "3401 Nazareth Rd",
    "city": "Kalamazoo",
    "state": "MI",
    "zip": "49048",
    "latitude": 42.3240124,
    "longitude": -85.5362257,
    "description": "Dog owners in Kalamazoo have made Bow in the Clouds Preserve at 3401 Nazareth Rd a go-to spot, rating it 4.5 stars across 356 reviews. Open from 7:30am to 5:30pm daily, there's room in the day for dog owners to bring their furry friends. Dog owners exploring the neighborhood can also bring their furry friends to Spring Valley Park (1.2 miles)."
  },
  {
    "name": "‍ Prairie Wolf Park",
    "street": "8555 Kalamazoo Ave SECaledonia",
    "city": "Kentwood",
    "state": "MI",
    "zip": "49316",
    "latitude": 42.8107115,
    "longitude": -85.6262985,
    "description": "Prairie Wolf Park (4.7 stars from 293 reviews) is a popular destination for Kentwood dog owners, located at 8555 Kalamazoo Ave SE. Open from 7am to 10pm daily, the park offers flexibility for dog owners with varying routines. Dog owners exploring the neighborhood can also bring their furry friends to Jaycee Park (3.5 miles)."
  },
  {
    "name": "‍ Paul Henry Trail Wing Ave",
    "street": "",
    "city": "Kentwood",
    "state": "MI",
    "zip": "",
    "latitude": 42.8694731,
    "longitude": -85.6447492,
    "description": "Dog owners in Kentwood have made Paul Henry Trail Wing Ave a go-to spot, rating it 4.7 stars across 53 reviews. For dog owners in the area, this park has become a trusted spot for time with their pups. Looking for more places to take your pup? Summerwood Park is another popular dog park just 0.6 miles away."
  },
  {
    "name": "Pleasant Park",
    "street": "630 Madison Ave SE",
    "city": "Kentwood",
    "state": "MI",
    "zip": "49503",
    "latitude": 42.9506116,
    "longitude": -85.6589702,
    "description": "Located at 630 Madison Ave SE in Kentwood, Pleasant Park earns strong marks from local dog owners—4.7 stars from 44 reviews. The steady stream of dog owner visits speaks to the park's appeal. Other dog parks in the area include Alexander Park (0.5 miles) and Joe Taylor Park (0.8 miles)—both great for exploring with your four-legged friend."
  },
  {
    "name": "Pinewood Park",
    "street": "1999 Wolfboro Dr SE",
    "city": "Kentwood",
    "state": "MI",
    "zip": "49508",
    "latitude": 42.8652611,
    "longitude": -85.6114549,
    "description": "At 1999 Wolfboro Dr SE in Kentwood, Pinewood Park has built a loyal following—4.6 stars from 673 dog owner reviews. Open from 7am to 10pm daily, there's room in the day for dog owners to bring their furry friends. Dog owners can also take their pups to nearby Stauffer Station Park (0.4 miles) or Rondo Street Station Park (0.8 miles)."
  },
  {
    "name": "Ken-O-Sha Park",
    "street": "1353 Van Auken St SE",
    "city": "Kentwood",
    "state": "MI",
    "zip": "49508",
    "latitude": 42.903142,
    "longitude": -85.631972,
    "description": "Ken-O-Sha Park at 1353 Van Auken St SE is well-regarded by Kentwood dog owners, holding 4.6 stars across 491 reviews. Dog owners in the area consistently choose this park as a go-to destination for their pups. Dog owners can also take their pups to nearby MacKay-Jaycees Park (1.0 miles) or Summerwood Park (1.8 miles)."
  },
  {
    "name": "Creekside Park",
    "street": "1035 68th St SECaledonia",
    "city": "Kentwood",
    "state": "MI",
    "zip": "49316",
    "latitude": 42.8400111,
    "longitude": -85.4773064,
    "description": "Creekside Park at 1035 68th St SE is well-regarded by Kentwood dog owners, holding 4.6 stars across 430 reviews. Open from 8am to 9pm daily, there's room in the day for dog owners to bring their furry friends. For a change of scenery, Caledonia Community Green Dog is another dog-friendly destination 3.4 miles from here."
  },
  {
    "name": "East Paris Nature Park",
    "street": "5995 E Paris Ave SE",
    "city": "Kentwood",
    "state": "MI",
    "zip": "49512",
    "latitude": 42.8547356,
    "longitude": -85.5656675,
    "description": "Kentwood dog owners rate East Paris Nature Park at 5995 E Paris Ave SE highly, with 4.6 stars from 220 visits. Open from 7am to 10pm daily, there's plenty of opportunity for dog owners to find a time that works. For variety, the neighborhood offers more dog parks to explore: Paris Park (1.0 miles) and Stauffer Station Park (2.3 miles)."
  },
  {
    "name": "Stanaback Park",
    "street": "3717 Whitebud Road",
    "city": "Kentwood",
    "state": "MI",
    "zip": "49512",
    "latitude": 42.8937624,
    "longitude": -85.5985441,
    "description": "At 3717 Whitebud Road in Kentwood, Stanaback Park has built a loyal following—4.6 stars from 170 dog owner reviews. Open from 7am to 10pm daily, there's room in the day for dog owners to bring their furry friends. More dog-friendly parks nearby include Covenant Park (0.9 miles) and Old Farm Park (1.3 miles)—perfect for pups who love adventure."
  },
  {
    "name": "Waterfront / Gilmore Park",
    "street": "2205 Reeds Lake Blvd SEEa",
    "city": "Kentwood",
    "state": "MI",
    "zip": "49506",
    "latitude": 42.9556023,
    "longitude": -85.6128168,
    "description": "With 4.6 stars from 66 reviews, Waterfront / Gilmore Park at 2205 Reeds Lake Blvd SE has become a favorite among Kentwood dog owners. Open from 7am to 10pm daily, the park accommodates early risers and evening visitors alike. For a change of scenery, Sigsbee Park is another dog-friendly destination 1.2 miles from here."
  },
  {
    "name": "Burton Woods",
    "street": "2259 Everest Ave SE",
    "city": "Kentwood",
    "state": "MI",
    "zip": "49507",
    "latitude": 42.9217367,
    "longitude": -85.6625742,
    "description": "Dog owners in Kentwood have made Burton Woods at 2259 Everest Ave SE a go-to spot, rating it 4.7 stars across 18 reviews. Open from 6:30am to 9pm daily, there's room in the day for dog owners to bring their furry friends. Dog owners can also take their pups to nearby Grand Village (0.2 miles) or MacKay-Jaycees Park (1.6 miles)."
  },
  {
    "name": "Old Farm Park",
    "street": "2350 Embro Dr SE",
    "city": "Kentwood",
    "state": "MI",
    "zip": "49508",
    "latitude": 42.876208,
    "longitude": -85.6101644,
    "description": "At 2350 Embro Dr SE in Kentwood, Old Farm Park has built a loyal following—4.5 stars from 356 dog owner reviews. Open from 7am to 10pm daily, the park works well for dog owners with different schedules. Dog owners can also take their pups to nearby Rondo Street Station Park (0.4 miles) or Stauffer Station Park (0.5 miles)."
  },
  {
    "name": "Paris Park",
    "street": "3213 60th St SE",
    "city": "Kentwood",
    "state": "MI",
    "zip": "49512",
    "latitude": 42.8544839,
    "longitude": -85.5847345,
    "description": "Dog owners in Kentwood have made Paris Park at 3213 60th St SE a go-to spot, rating it 4.5 stars across 117 reviews. Open from 7am to 10pm daily, the park accommodates early risers and evening visitors alike. Looking for more places to take your pup? East Paris Nature Park is another popular dog park just 1.0 miles away."
  },
  {
    "name": "Stauffer Station Park",
    "street": "2360 52nd St SE",
    "city": "Kentwood",
    "state": "MI",
    "zip": "49508",
    "latitude": 42.8692496,
    "longitude": -85.6070374,
    "description": "At 2360 52nd St SE in Kentwood, Stauffer Station Park has built a loyal following—4.5 stars from 67 dog owner reviews. Open from 7am to 10pm daily, there's plenty of opportunity for dog owners to find a time that works. Looking for more places to take your pup? Pinewood Park is another popular dog park just 0.4 miles away."
  },
  {
    "name": "‍ Jaycee Park",
    "street": "1088 Gentian Dr SE",
    "city": "Kentwood",
    "state": "MI",
    "zip": "49508",
    "latitude": 42.8613634,
    "longitude": -85.6350841,
    "description": "407 dog owners have reviewed Jaycee Park at 1088 Gentian Dr SE in Kentwood, averaging 4.4 stars. Open from 7am to 10pm daily, the park is accessible for dog owners in the area. For dog owners who like to explore, Paul Henry Trail Wing Ave (0.7 miles) and Pinewood Park (1.2 miles) are both nearby parks to try with your dog."
  },
  {
    "name": "MacKay-Jaycees Park",
    "street": "2531 Kalamazoo Ave SE",
    "city": "Kentwood",
    "state": "MI",
    "zip": "49507",
    "latitude": 42.9182822,
    "longitude": -85.632102,
    "description": "Located at 2531 Kalamazoo Ave SE, MacKay-Jaycees Park in Kentwood is rated 4.4 stars by 484 dog owners. Open from 7am to 7pm daily, the park is accessible for dog owners in the area. More dog parks in the area include Ken-O-Sha Park (1.0 miles) and Cambridge Park (1.3 miles)—great options for mixing up your pup's routine."
  },
  {
    "name": "Rondo Street Station Park",
    "street": "1950 Gerda St SE",
    "city": "Kentwood",
    "state": "MI",
    "zip": "49508",
    "latitude": 42.8753116,
    "longitude": -85.617199,
    "description": "12 dog owners have reviewed Rondo Street Station Park at 1950 Gerda St SE in Kentwood, averaging 4.2 stars. Open from 7am to 10pm daily, the park gives dog owners in the neighborhood time to bring their pups. Dog owners looking for variety can also visit Old Farm Park (0.4 miles) or Stauffer Station Park (0.7 miles) with their four-legged friends."
  },
  {
    "name": "Hawk Island Park",
    "street": "1601 E Cavanaugh Rd",
    "city": "Lansing",
    "state": "MI",
    "zip": "48910",
    "latitude": 42.690208,
    "longitude": -84.529604,
    "description": "Local dog owners love Hawk Island Park at 1601 E Cavanaugh Rd in Lansing—4.6 stars from an impressive 2,753 reviews. Open from 8am to 8pm daily, the park accommodates a variety of dog owner schedules and routines. Keep the adventure going at other nearby dog parks like Soldan Dog Park (0.8 miles) or Scott Woods Park (1.4 miles)."
  },
  {
    "name": "Scott Woods Park",
    "street": "2605 Clifton Ave",
    "city": "Lansing",
    "state": "MI",
    "zip": "48910",
    "latitude": 42.7105248,
    "longitude": -84.532886,
    "description": "Scott Woods Park (4.6 stars from 299 reviews) is a popular destination for Lansing dog owners, located at 2605 Clifton Ave. Open from 8am to 8pm daily, the park accommodates early risers and evening visitors alike. For variety, the neighborhood offers more dog parks to explore: Hawk Island Park (1.4 miles) and Soldan Dog Park (1.5 miles)."
  },
  {
    "name": "‍ Soldan Dog Park",
    "street": "E Cavanaugh Rd",
    "city": "Lansing",
    "state": "MI",
    "zip": "48910",
    "latitude": 42.69016,
    "longitude": -84.5454608,
    "description": "Soldan Dog Park holds a 4.4-star rating from 131 Lansing dog owner visits. Open from 8am to 9:30pm daily, dog owners in the area can work a visit into their day. Looking to explore more? Hawk Island Park is another dog-friendly park 0.8 miles from here."
  },
  {
    "name": "Meridian Township Private",
    "street": "1990 Central Park DrOkemos",
    "city": "Lansing",
    "state": "MI",
    "zip": "48864",
    "latitude": 42.7276858,
    "longitude": -84.4225014,
    "description": "Meridian Township Private at 1990 Central Park Dr provides Lansing dog owners with a local spot to visit with their pups. Dog owners looking for a local destination will find this park accessible. For dog owners considering a visit, the reviews offer firsthand accounts from other visitors."
  },
  {
    "name": "‍ Hannah's Bark Park",
    "street": "1458 N Harris StMt Pleasant",
    "city": "Mount Pleasant",
    "state": "MI",
    "zip": "48858",
    "latitude": 43.6102649,
    "longitude": -84.7878048,
    "description": "Hannah's Bark Park at 1458 N Harris St in Mount Pleasant has 4.1 stars from 202 dog owner reviews. Open from 8am to 10pm daily, dog owners have a window to spend time with their pups. For dog owners considering a visit, the reviews offer firsthand accounts from other visitors."
  },
  {
    "name": "Ruff & Tumble Dog Park",
    "street": "950 Bond St",
    "city": "Niles",
    "state": "MI",
    "zip": "49120",
    "latitude": 41.8230051,
    "longitude": -86.2551228,
    "description": "With 4.8 stars from 48 reviews, Ruff & Tumble Dog Park at 950 Bond St has become a favorite among Niles dog owners. Dog owners in the area consistently choose this park as a go-to destination for their pups. Local dog owners have clearly found this to be a worthwhile destination."
  },
  {
    "name": "‍ Novi Tree Farm",
    "street": "601 S Lake DrNovi",
    "city": "‍ Novi",
    "state": "MI",
    "zip": "48377",
    "latitude": 42.5130639,
    "longitude": -83.4825585,
    "description": "Novi Tree Farm (4.8 stars from 95 reviews) is a popular destination for Novi dog owners, located at 601 S Lake Dr. Open from 7am to 8pm daily, the park works well for dog owners with different schedules. Nearby, Lakeshore Park (0.0 miles) offers dog owners another great spot to explore with their pups."
  },
  {
    "name": "Gunnar Mettala Park",
    "street": "645 MettalaWixom",
    "city": "‍ Novi",
    "state": "MI",
    "zip": "48393",
    "latitude": 42.5310381,
    "longitude": -83.522189,
    "description": "Gunnar Mettala Park (4.9 stars from 18 reviews) is a popular destination for Novi dog owners, located at 645 Mettala. The park has earned its reputation among dog owners in the neighborhood as a reliable choice. For a change of scenery, Lyon Oaks Dog Park is another dog-friendly destination 0.8 miles from here."
  },
  {
    "name": "Island Lake Recreation Area",
    "street": "6301 Kensington Rd",
    "city": "‍ Novi",
    "state": "MI",
    "zip": "48116",
    "latitude": 42.5339846,
    "longitude": -83.6917389,
    "description": "3,699 dog owners have made Island Lake Recreation Area (6301 Kensington Rd) one of Novi's most trusted parks (4.7 stars). Open from 6am to 10pm daily, the park accommodates a variety of dog owner schedules and routines. The community of dog owners has clearly embraced this as a trusted spot."
  },
  {
    "name": "‍ Heritage Park",
    "street": "24915 Farmington RdFarmington Hills",
    "city": "‍ Novi",
    "state": "MI",
    "zip": "48336",
    "latitude": 42.4774593,
    "longitude": -83.3772318,
    "description": "Dog owners in Novi have embraced Heritage Park (24915 Farmington Rd) as a top destination—4.7 stars from 2,359 visits. Open from 8am to 9pm daily, the park accommodates a variety of dog owner schedules and routines. Looking to mix things up? Rolling Oaks Commons is a nearby dog park 0.5 miles away that's worth exploring with your pup."
  },
  {
    "name": "Kellogg Park",
    "street": "W Ann Arbor Trail",
    "city": "‍ Novi",
    "state": "MI",
    "zip": "48170",
    "latitude": 42.3711553,
    "longitude": -83.4778898,
    "description": "In Novi, Kellogg Park stands out with 4.7 stars from 1,344 happy dog owners. Dog owners have embraced this park as a top choice for spending time with their pups. For variety, many dog owners also bring their furry friends to Fairground Park (0.5 miles)—another great dog park in the area."
  },
  {
    "name": "Pavilion Shore Park",
    "street": "43390 W 13 Mile RdNovi",
    "city": "‍ Novi",
    "state": "MI",
    "zip": "48377",
    "latitude": 42.510062,
    "longitude": -83.4763099,
    "description": "Local dog owners love Pavilion Shore Park at 43390 W 13 Mile Rd in Novi—4.7 stars from an impressive 1,153 reviews. Open from 9am to 9pm daily, dog owners have plenty of flexibility to visit when it suits their schedule. Nearby, Scenic Overlook #2 (0.0 miles) is another dog park favorite where you can take your four-legged friend."
  },
  {
    "name": "Lakeshore Park",
    "street": "601 S Lake DrNovi",
    "city": "‍ Novi",
    "state": "MI",
    "zip": "48375",
    "latitude": 42.5130639,
    "longitude": -83.4825585,
    "description": "Lakeshore Park at 601 S Lake Dr in Novi is a community favorite, with 1,033 dog owners giving it 4.7 stars. Open from 8am to 9pm daily, there's always time for dog owners to bring their pup for some quality time. Want to give your pup even more adventure? Novi Tree Farm is another beloved dog park just 0.0 miles away."
  },
  {
    "name": "Scenic Overlook #2",
    "street": "1920 Old Novi RdNovi",
    "city": "‍ Novi",
    "state": "MI",
    "zip": "48377",
    "latitude": 42.5098027,
    "longitude": -83.4768004,
    "description": "With 4.7 stars from 209 reviews, Scenic Overlook #2 at 1920 Old Novi Rd has become a favorite among Novi dog owners. Local dog owners appreciate what this park offers their four-legged friends. Other dog parks in the area include Pavilion Shore Park (0.0 miles) and Lakeshore Park (0.4 miles)—both great for exploring with your four-legged friend."
  },
  {
    "name": "Gilbert Willis Park",
    "street": "2911 Chickasaw StWixom",
    "city": "‍ Novi",
    "state": "MI",
    "zip": "48393",
    "latitude": 42.5525204,
    "longitude": -83.5245851,
    "description": "For dog owners in the Novi area, Gilbert Willis Park (2911 Chickasaw St) offers a 4.7-star experience based on 179 reviews. Open from 7am to 10pm daily, the park works well for dog owners with different schedules. For a change of scenery, Proud Lake Recreation Area is another dog-friendly destination 0.4 miles from here."
  },
  {
    "name": "Robert H. Long Nature Park",
    "street": "40900 W 14 Mile RdCommerce Township",
    "city": "‍ Novi",
    "state": "MI",
    "zip": "48390",
    "latitude": 42.5267541,
    "longitude": -83.4554075,
    "description": "Dog owners in Novi have made Robert H. Long Nature Park at 40900 W 14 Mile Rd a go-to spot, rating it 4.7 stars across 92 reviews. The park has earned its reputation among dog owners in the neighborhood as a reliable choice. Other dog parks in the area include Pavilion Shore Park (1.6 miles) and Riley Park (1.6 miles)—both great for exploring with your four-legged friend."
  },
  {
    "name": "Ben Celani Recreation Area",
    "street": "19044 Vanderhaven Ln",
    "city": "‍ Novi",
    "state": "MI",
    "zip": "48152",
    "latitude": 42.4252436,
    "longitude": -83.390938,
    "description": "At 19044 Vanderhaven Ln in Novi, Ben Celani Recreation Area has built a loyal following—4.8 stars from 15 dog owner reviews. The steady stream of dog owner visits speaks to the park's appeal. Looking for more places to take your pup? Drake Park is another popular dog park just 2.7 miles away."
  },
  {
    "name": "Milford Dog Park",
    "street": "",
    "city": "‍ Novi",
    "state": "MI",
    "zip": "",
    "latitude": 42.5917805,
    "longitude": -83.6000696,
    "description": "Dog owners in Novi have made Milford Dog Park a go-to spot, rating it 4.7 stars across 50 reviews. The steady stream of dog owner visits speaks to the park's appeal. Other dog parks in the area include Proud Lake Recreation Area (4.6 miles) and Gilbert Willis Park (4.7 miles)—both great for exploring with your four-legged friend."
  },
  {
    "name": "Fairground Park",
    "street": "",
    "city": "‍ Novi",
    "state": "MI",
    "zip": "",
    "latitude": 42.3712,
    "longitude": -83.4675021,
    "description": "In Novi, Fairground Park earns strong marks from local dog owners—4.7 stars from 40 reviews. Open from 6am to 10pm daily, there's room in the day for dog owners to bring their furry friends. Dog owners exploring the neighborhood can also bring their furry friends to Kellogg Park (0.5 miles)."
  },
  {
    "name": "Rolling Oaks Commons",
    "street": "",
    "city": "‍ Novi",
    "state": "MI",
    "zip": "",
    "latitude": 42.4853125,
    "longitude": -83.3771553,
    "description": "Rolling Oaks Commons (4.8 stars from 10 reviews) is a popular destination for Novi dog owners. Local dog owners appreciate what this park offers their four-legged friends. Dog owners can also take their pups to nearby Heritage Park (0.5 miles) or Drake Park (1.7 miles)."
  },
  {
    "name": "Lyon Oaks County Park",
    "street": "52221 Pontiac TrailWixom",
    "city": "‍ Novi",
    "state": "MI",
    "zip": "48393",
    "latitude": 42.5188907,
    "longitude": -83.5584772,
    "description": "Lyon Oaks County Park (4.7 stars from 32 reviews) is a popular destination for Novi dog owners, located at 52221 Pontiac Trail. Dog owners in the area consistently choose this park as a go-to destination for their pups. For a change of scenery, Lyon Oaks Dog Park is another dog-friendly destination 1.2 miles from here."
  },
  {
    "name": "Marshbank Park",
    "street": "2805 Hiller RdWest Bloomfield Township",
    "city": "Pontiac",
    "state": "MI",
    "zip": "48324",
    "latitude": 42.5944693,
    "longitude": -83.3975184,
    "description": "With 4.7 stars from 779 reviews, Marshbank Park at 2805 Hiller Rd has become a favorite among Pontiac dog owners. Open from 8am to 9pm daily, dog owners can easily fit a visit into busy schedules. For a change of scenery, Orchard Lake Nature Sanctuary is another dog-friendly destination 1.6 miles from here."
  },
  {
    "name": "Clinton River Trail",
    "street": "Clinton River TrailAuburn Hills",
    "city": "Pontiac",
    "state": "MI",
    "zip": "48326",
    "latitude": 42.6278226,
    "longitude": -83.2438334,
    "description": "For dog owners in the Pontiac area, Clinton River Trail offers a 4.7-star experience based on 108 reviews. Dog owners in the area consistently choose this park as a go-to destination for their pups. Nearby, River Woods Park (1.5 miles) offers dog owners another great spot to explore with their pups."
  },
  {
    "name": "Orion Oaks Park",
    "street": "2635 S Baldwin RdOrion Twp",
    "city": "Pontiac",
    "state": "MI",
    "zip": "48360",
    "latitude": 42.7120959,
    "longitude": -83.3071591,
    "description": "Orion Oaks Park (4.8 stars from 21 reviews) is a popular destination for Pontiac dog owners, located at 2635 S Baldwin Rd. Dog owners frequent this park for its consistent quality and welcoming atmosphere. Dog owners exploring the neighborhood can also bring their furry friends to Orion Oaks Dog Park (2.7 miles)."
  },
  {
    "name": "Willow Beach Public Park",
    "street": "2098 Willow Beach StKeego Harbor",
    "city": "Pontiac",
    "state": "MI",
    "zip": "48320",
    "latitude": 42.6078916,
    "longitude": -83.3480588,
    "description": "Pontiac dog owners rate Willow Beach Public Park at 2098 Willow Beach St highly, with 4.8 stars from 20 visits. Open from 7am to 9pm daily, dog owners can plan visits around work or their pup's energy level. For variety, the neighborhood offers more dog parks to explore: Sylvan Manor Park (0.6 miles) and Dodge #4 State Park (1.2 miles)."
  },
  {
    "name": "‍ River Woods Park",
    "street": "300 River Woods DriveAuburn Hills",
    "city": "Pontiac",
    "state": "MI",
    "zip": "48326",
    "latitude": 42.639489,
    "longitude": -83.219795,
    "description": "Located at 300 River Woods Drive in Pontiac, River Woods Park earns strong marks from local dog owners—4.6 stars from 470 reviews. Open from 8am to 8pm daily, dog owners can easily fit a visit into busy schedules. Dog owners can also take their pups to nearby Riverside Park (0.4 miles) or Clinton River Trail (1.5 miles)."
  },
  {
    "name": "‍ Orchard Lake Nature Sanctuary",
    "street": "4700 Pontiac TrailWest Bloomfield Township",
    "city": "Pontiac",
    "state": "MI",
    "zip": "48324",
    "latitude": 42.5756412,
    "longitude": -83.3795689,
    "description": "With 4.6 stars from 212 reviews, Orchard Lake Nature Sanctuary at 4700 Pontiac Trail has become a favorite among Pontiac dog owners. Open from 8am to 6pm daily, the park offers flexibility for dog owners with varying routines. Other dog parks in the area include Marshbank Park (1.6 miles) and Willow Beach Public Park (2.7 miles)—both great for exploring with your four-legged friend."
  },
  {
    "name": "East Shelter",
    "street": "",
    "city": "Pontiac",
    "state": "MI",
    "zip": "",
    "latitude": 42.6706391,
    "longitude": -83.3896241,
    "description": "East Shelter (4.6 stars from 137 reviews) is a popular destination for Pontiac dog owners. Dog owners in the area consistently choose this park as a go-to destination for their pups. Dog owners can also take their pups to nearby Rotary Park (0.4 miles) or Drayton Plains Nature Center (0.8 miles)."
  },
  {
    "name": "Pontiac Lake Recreation Area",
    "street": "2401 N Williams Lake RdWaterford Twp",
    "city": "Pontiac",
    "state": "MI",
    "zip": "48327",
    "latitude": 42.6597129,
    "longitude": -83.441901,
    "description": "Pontiac Lake Recreation Area at 2401 N Williams Lake Rd is a favorite among Pontiac dog owners, earning 4.5 stars from 2,284 reviews. Open from 8am to 10pm daily, dog owners have room to work around busy schedules. Dog owners in the area also love bringing their pups to Rotary Park (2.4 miles) and East Shelter (2.8 miles)."
  },
  {
    "name": "Waterford Oaks County Park",
    "street": "1702 Scott Lake RdWaterford Twp",
    "city": "Pontiac",
    "state": "MI",
    "zip": "48328",
    "latitude": 42.6639093,
    "longitude": -83.3468038,
    "description": "Located at 1702 Scott Lake Rd in Pontiac, Waterford Oaks County Park earns strong marks from local dog owners—4.5 stars from 129 reviews. Open from 8am to 6:30pm daily, there's room in the day for dog owners to bring their furry friends. Nearby, Drayton Plains Nature Center (1.5 miles) offers dog owners another great spot to explore with their pups."
  },
  {
    "name": "Sylvan Manor Park",
    "street": "2290-2292 Woodrow Wilson BlvdWest Bloomfield Township",
    "city": "Pontiac",
    "state": "MI",
    "zip": "48324",
    "latitude": 42.6062553,
    "longitude": -83.3355276,
    "description": "At 2290-2292 Woodrow Wilson Blvd in Pontiac, Sylvan Manor Park has built a loyal following—4.5 stars from 107 dog owner reviews. Open from 8am to 8pm daily, there's plenty of opportunity for dog owners to find a time that works. For a change of scenery, Willow Beach Public Park is another dog-friendly destination 0.6 miles from here."
  },
  {
    "name": "Cherry Lawn Park",
    "street": "",
    "city": "Pontiac",
    "state": "MI",
    "zip": "",
    "latitude": 42.6389216,
    "longitude": -83.2910468,
    "description": "Cherry Lawn Park is well-regarded by Pontiac dog owners, holding 4.5 stars across 8 reviews. Open from 6am to 9pm daily, there's plenty of opportunity for dog owners to find a time that works. Dog owners can also take their pups to nearby Baldwin Park (0.5 miles) or Neighborhood Park (0.6 miles)."
  },
  {
    "name": "Clinton River Trail, Pontiac",
    "street": "1111 Bagley St",
    "city": "Pontiac",
    "state": "MI",
    "zip": "48341",
    "latitude": 42.6225578,
    "longitude": -83.2947491,
    "description": "For dog owners in Pontiac, Clinton River Trail, Pontiac at 1111 Bagley St has a 4.1-star rating (14 reviews). Dog owners looking for a local destination will find this park accessible. More dog parks in the area include Neighborhood Park (0.8 miles) and Beaudette Park (1.0 miles)—great options for mixing up your pup's routine."
  },
  {
    "name": "‍ Neighborhood Park",
    "street": "Perkins St",
    "city": "Pontiac",
    "state": "MI",
    "zip": "48342",
    "latitude": 42.6313521,
    "longitude": -83.2837889,
    "description": "Neighborhood Park in Pontiac welcomes dog owners from the surrounding neighborhood. For dog owners in the neighborhood, this park offers a place to take their pups. For pups who want more adventure, Shirley & Willard Park is a nearby dog park worth visiting (0.4 miles)."
  },
  {
    "name": "‍ Beaudette Park",
    "street": "786 Orchard Lake Rd",
    "city": "Pontiac",
    "state": "MI",
    "zip": "48341",
    "latitude": 42.6258087,
    "longitude": -83.3144339,
    "description": "328 dog owners have reviewed Beaudette Park at 786 Orchard Lake Rd in Pontiac, averaging 4.1 stars. Open from 7am to 9:30pm daily, the park fits conveniently into different routines. Nearby dog parks worth exploring with your pup include Pontiac Oaks (0.6 miles) and Clinton River Trail, Pontiac (1.0 miles)."
  },
  {
    "name": "Optimist Park",
    "street": "162 W Fairmount Ave",
    "city": "Pontiac",
    "state": "MI",
    "zip": "48340",
    "latitude": 42.6677058,
    "longitude": -83.3059537,
    "description": "Pontiac dog owners have access to Optimist Park at 162 W Fairmount Ave for outings with their four-legged friends. For dog owners in the neighborhood, this park offers a place to take their pups. Dog owners looking for variety can also visit Baldwin Park (1.6 miles) or Waterford Oaks County Park (2.1 miles) with their four-legged friends."
  },
  {
    "name": "Rochester Municipal Park",
    "street": "400 6th St",
    "city": "Rochester Hills",
    "state": "MI",
    "zip": "48307",
    "latitude": 42.6834062,
    "longitude": -83.1373898,
    "description": "Rochester Municipal Park at 400 6th St is a favorite among Rochester Hills dog owners, earning 4.8 stars from 2,871 reviews. Open from 8am to 9pm daily, dog owners can plan visits around their pup's favorite times to be active. Nearby, Rochester Creek (0.2 miles) is another dog park favorite where you can take your four-legged friend."
  },
  {
    "name": "Orion Oaks County Park",
    "street": "2301 Clarkston RdLake Orion",
    "city": "Rochester Hills",
    "state": "MI",
    "zip": "48360",
    "latitude": 42.7650786,
    "longitude": -83.3219599,
    "description": "Located at 2301 Clarkston Rd in Rochester Hills, Orion Oaks County Park earns strong marks from local dog owners—4.8 stars from 722 reviews. Open from 6am to 8pm daily, there's room in the day for dog owners to bring their furry friends. More dog-friendly parks nearby include Orion Oaks Dog Park (2.4 miles) and Orion Oaks Park (3.7 miles)—perfect for pups who love adventure."
  },
  {
    "name": "River Bends Barrier Free Playg",
    "street": "5700 22 Mile RdShelby Township",
    "city": "Rochester Hills",
    "state": "MI",
    "zip": "48317",
    "latitude": 42.6545304,
    "longitude": -83.054801,
    "description": "River Bends Barrier Free Playg at 5700 22 Mile Rd is well-regarded by Rochester Hills dog owners, holding 4.8 stars across 26 reviews. Open from 8am to 8pm daily, there's room in the day for dog owners to bring their furry friends. For a change of scenery, River Bends Park is another dog-friendly destination 0.0 miles from here."
  },
  {
    "name": "Bloomer Park",
    "street": "345 John R Rd",
    "city": "Rochester Hills",
    "state": "MI",
    "zip": "48307",
    "latitude": 42.6710223,
    "longitude": -83.1132685,
    "description": "With 4.7 stars across 1,367 reviews, Bloomer Park at 345 John R Rd has clearly won over Rochester Hills dog owners. Open from 8am to 6pm daily, there's always time for dog owners to bring their pup for some quality time. Keep the adventure going at other nearby dog parks like Thelma Spencer Park (0.0 miles) or Yates Park (1.0 miles)."
  },
  {
    "name": "‍ Rochester Creek",
    "street": "750 Wilcox St",
    "city": "Rochester Hills",
    "state": "MI",
    "zip": "48307",
    "latitude": 42.6851384,
    "longitude": -83.1404636,
    "description": "Rochester Creek at 750 Wilcox St is well-regarded by Rochester Hills dog owners, holding 5.0 stars across 7 reviews. Dog owners frequent this park for its consistent quality and welcoming atmosphere. Dog owners exploring the neighborhood can also bring their furry friends to Playground at Rochester Munici (0.1 miles)."
  },
  {
    "name": "Yates Park",
    "street": "1990 E Avon Rd",
    "city": "Rochester Hills",
    "state": "MI",
    "zip": "48307",
    "latitude": 42.6735066,
    "longitude": -83.0940266,
    "description": "At 1990 E Avon Rd in Rochester Hills, Yates Park has built a loyal following—4.7 stars from 681 dog owner reviews. Open from 8am to 8pm daily, dog owners can plan visits around work or their pup's energy level. Dog owners can also take their pups to nearby Bloomer Park (1.0 miles) or Thelma Spencer Park (1.0 miles)."
  },
  {
    "name": "Drayton Plains Nature Center",
    "street": "2125 Denby DrWaterford Twp",
    "city": "Rochester Hills",
    "state": "MI",
    "zip": "48329",
    "latitude": 42.672258,
    "longitude": -83.3748556,
    "description": "For dog owners in the Rochester Hills area, Drayton Plains Nature Center (2125 Denby Dr) offers a 4.7-star experience based on 388 reviews. The park has earned its reputation among dog owners in the neighborhood as a reliable choice. Looking for more places to take your pup? East Shelter is another popular dog park just 0.8 miles away."
  },
  {
    "name": "Paint Creek Trailways Commissi",
    "street": "4393 Collins Rd",
    "city": "Rochester Hills",
    "state": "MI",
    "zip": "48306",
    "latitude": 42.7352801,
    "longitude": -83.1636421,
    "description": "Rochester Hills dog owners rate Paint Creek Trailways Commissi at 4393 Collins Rd highly, with 4.8 stars from 10 visits. Dog owners in the area consistently choose this park as a go-to destination for their pups. For variety, the neighborhood offers more dog parks to explore: Playground at Rochester Munici (3.6 miles) and Rochester Creek (3.7 miles)."
  },
  {
    "name": "‍ Playground at Rochester Munici",
    "street": "400 Paint Creek Trail",
    "city": "Rochester Hills",
    "state": "MI",
    "zip": "48307",
    "latitude": 42.6867215,
    "longitude": -83.1396062,
    "description": "Playground at Rochester Munici (4.7 stars from 44 reviews) is a popular destination for Rochester Hills dog owners, located at 400 Paint Creek Trail. The park has earned its reputation among dog owners in the neighborhood as a reliable choice. Dog owners exploring the neighborhood can also bring their furry friends to Rochester Creek (0.1 miles)."
  },
  {
    "name": "Highlands Sensory Trailhead",
    "street": "1000 Rochester Hills Dr",
    "city": "Rochester Hills",
    "state": "MI",
    "zip": "48309",
    "latitude": 42.6633666,
    "longitude": -83.1582745,
    "description": "Highlands Sensory Trailhead (4.7 stars from 33 reviews) is a popular destination for Rochester Hills dog owners, located at 1000 Rochester Hills Dr. For dog owners in the area, this park has become a trusted spot for time with their pups. Looking for more places to take your pup? Avon Nature Area is another popular dog park just 0.3 miles away."
  },
  {
    "name": "Lake Norcentra Park",
    "street": "800 W Avon Rd",
    "city": "Rochester Hills",
    "state": "MI",
    "zip": "48307",
    "latitude": 42.668708,
    "longitude": -83.1435409,
    "description": "Lake Norcentra Park (4.6 stars from 75 reviews) is a popular destination for Rochester Hills dog owners, located at 800 W Avon Rd. Open from 6am to 11pm daily, dog owners can plan visits around work or their pup's energy level. For variety, the neighborhood offers more dog parks to explore: Avon Nature Area (0.6 miles) and Clinton River Trail (0.8 miles)."
  },
  {
    "name": "Leader Dogs For The Blind",
    "street": "2735 S Rochester Rd",
    "city": "Rochester Hills",
    "state": "MI",
    "zip": "48307",
    "latitude": 42.6421946,
    "longitude": -83.1319169,
    "description": "Located at 2735 S Rochester Rd in Rochester Hills, Leader Dogs For The Blind earns strong marks from local dog owners—4.5 stars from 6 reviews. The steady stream of dog owner visits speaks to the park's appeal. For a change of scenery, Borden Park is another dog-friendly destination 1.3 miles from here."
  },
  {
    "name": "‍ Rotary Gateway Park",
    "street": "500 Olde Towne Rd",
    "city": "Rochester Hills",
    "state": "MI",
    "zip": "48307",
    "latitude": 42.6837228,
    "longitude": -83.1302152,
    "description": "Rochester Hills dog owners rate Rotary Gateway Park at 500 Olde Towne Rd highly, with 4.6 stars from 181 visits. For dog owners in the area, this park has become a trusted spot for time with their pups. Other dog parks in the area include Rochester Municipal Park (0.4 miles) and Playground at Rochester Munici (0.5 miles)—both great for exploring with your four-legged friend."
  },
  {
    "name": "Hawk Woods Park",
    "street": "3799 Bald Mountain RdAuburn Hills",
    "city": "Rochester Hills",
    "state": "MI",
    "zip": "48326",
    "latitude": 42.703042,
    "longitude": -83.2322693,
    "description": "Located at 3799 Bald Mountain Rd in Rochester Hills, Hawk Woods Park earns strong marks from local dog owners—4.6 stars from 327 reviews. Open from 8am to 7pm daily, the park accommodates early risers and evening visitors alike. Other dog parks in the area include The Village Of Rochester Hills (2.3 miles) and Orion Oaks Park (3.9 miles)—both great for exploring with your four-legged friend."
  },
  {
    "name": "Normandy Oaks Park",
    "street": "4234 Delemere Blvd",
    "city": "‍ Royal Oak",
    "state": "MI",
    "zip": "48073",
    "latitude": 42.5262369,
    "longitude": -83.1765723,
    "description": "Normandy Oaks Park (4.7 stars from 220 reviews) is a popular destination for Royal Oak dog owners, located at 4234 Delemere Blvd. Open from 9am to 9pm daily, dog owners have plenty of flexibility to plan a visit. Dog owners exploring the neighborhood can also bring their furry friends to Cummingston Park (0.8 miles)."
  },
  {
    "name": "Royal Oak Arboretum",
    "street": "920 W Windemere Ave",
    "city": "‍ Royal Oak",
    "state": "MI",
    "zip": "48073",
    "latitude": 42.5196208,
    "longitude": -83.1555888,
    "description": "With 4.7 stars from 36 reviews, Royal Oak Arboretum at 920 W Windemere Ave has become a favorite among Royal Oak dog owners. Open from 6am to 11pm daily, the park offers flexibility for dog owners with varying routines. Other dog parks in the area include Starr Jaycee Park (0.2 miles) and Marais Park (0.5 miles)—both great for exploring with your four-legged friend."
  },
  {
    "name": "Starr Jaycee Park",
    "street": "1321 W 13 Mile Rd",
    "city": "‍ Royal Oak",
    "state": "MI",
    "zip": "48073",
    "latitude": 42.518517,
    "longitude": -83.1588396,
    "description": "Royal Oak dog owners rate Starr Jaycee Park at 1321 W 13 Mile Rd highly, with 4.6 stars from 893 visits. Open from 6am to 9pm daily, the park works well for dog owners with different schedules. For a change of scenery, Royal Oak Arboretum is another dog-friendly destination 0.2 miles from here."
  },
  {
    "name": "Centennial Commons",
    "street": "221 E 3rd St",
    "city": "‍ Royal Oak",
    "state": "MI",
    "zip": "48067",
    "latitude": 42.4882297,
    "longitude": -83.1426969,
    "description": "Dog owners in Royal Oak have made Centennial Commons at 221 E 3rd St a go-to spot, rating it 4.6 stars across 27 reviews. The park has earned its reputation among dog owners in the neighborhood as a reliable choice. Other dog parks in the area include Mark Twain Dog Park (0.1 miles) and Hudson Park (0.5 miles)—both great for exploring with your four-legged friend."
  },
  {
    "name": "Huntington Woods Park",
    "street": "25681 Dundee Rd",
    "city": "‍ Royal Oak",
    "state": "MI",
    "zip": "48067",
    "latitude": 42.4796168,
    "longitude": -83.1526303,
    "description": "Huntington Woods Park (4.5 stars from 12 reviews) is a popular destination for Royal Oak dog owners, located at 25681 Dundee Rd. The park serves dog owners well, providing a destination the community values. Looking for more places to take your pup? Reynolds Park is another popular dog park just 0.7 miles away."
  },
  {
    "name": "‍ VFW Park",
    "street": "Lincoln & Campbell",
    "city": "‍ Royal Oak",
    "state": "MI",
    "zip": "48067",
    "latitude": 42.4831799,
    "longitude": -83.1239841,
    "description": "VFW Park (4.5 stars from 170 reviews) is a popular destination for Royal Oak dog owners. Open from 6am to 11pm daily, there's room in the day for dog owners to bring their furry friends. For a change of scenery, Hudson Park is another dog-friendly destination 0.7 miles from here."
  },
  {
    "name": "Marais Park",
    "street": "1002 W Webster Rd",
    "city": "‍ Royal Oak",
    "state": "MI",
    "zip": "48073",
    "latitude": 42.5121551,
    "longitude": -83.1557628,
    "description": "At 1002 W Webster Rd in Royal Oak, Marais Park carries 4.3 stars from 17 dog owner reviews. Open from 7am to 10pm daily, dog owners have a window to spend time with their pups. More dog parks in the area include Starr Jaycee Park (0.5 miles) and Royal Oak Arboretum (0.5 miles)—great options for mixing up your pup's routine."
  },
  {
    "name": "Red Run Park",
    "street": "707 Girard Ave",
    "city": "‍ Royal Oak",
    "state": "MI",
    "zip": "48067",
    "latitude": 42.513845,
    "longitude": -83.1361871,
    "description": "167 dog owners have reviewed Red Run Park at 707 Girard Ave in Royal Oak, averaging 4.3 stars. Open from 6am to 10pm daily, the park is accessible for dog owners in the area. Dog owners in the neighborhood can also take their furry friends to Exchange Park, 0.7 miles away."
  },
  {
    "name": "‍ Exchange Park",
    "street": "Montrose Ave",
    "city": "‍ Royal Oak",
    "state": "MI",
    "zip": "48073",
    "latitude": 42.5239141,
    "longitude": -83.1320907,
    "description": "Exchange Park in Royal Oak has 4.2 stars from 121 dog owner reviews. Open from 6am to 9pm daily, the park is accessible for dog owners in the area. Dog owners in the neighborhood can also take their furry friends to Red Run Park, 0.7 miles away."
  },
  {
    "name": "Hudson Park",
    "street": "617 E Hudson Ave",
    "city": "‍ Royal Oak",
    "state": "MI",
    "zip": "48067",
    "latitude": 42.4816845,
    "longitude": -83.1377523,
    "description": "Hudson Park (617 E Hudson Ave) serves dog owners in the Royal Oak neighborhood looking for a place to visit with their pups. Open from 6am to 11pm daily, the park fits conveniently into different routines. Nearby dog parks worth exploring with your pup include Centennial Commons (0.5 miles) and Mark Twain Dog Park (0.6 miles)."
  },
  {
    "name": "Carpenter Lake Nature Preserve",
    "street": "27225 W 10 Mile Rd",
    "city": "Southfield",
    "state": "MI",
    "zip": "48033",
    "latitude": 42.4710254,
    "longitude": -83.3160973,
    "description": "With 4.7 stars from 994 reviews, Carpenter Lake Nature Preserve at 27225 W 10 Mile Rd has become a favorite among Southfield dog owners. Open from 8am to 8pm daily, the park accommodates early risers and evening visitors alike. Other dog parks in the area include Beech Woods Park (1.5 miles) and The Burgh Historical Park (1.9 miles)—both great for exploring with your four-legged friend."
  },
  {
    "name": "Beverly Hills Village Park",
    "street": "18801 Beverly RdBeverly Hills",
    "city": "Southfield",
    "state": "MI",
    "zip": "48025",
    "latitude": 42.5241909,
    "longitude": -83.2339891,
    "description": "Located at 18801 Beverly Rd in Southfield, Beverly Hills Village Park earns strong marks from local dog owners—4.7 stars from 613 reviews. Open from 8am to 10pm daily, the park accommodates early risers and evening visitors alike. More dog-friendly parks nearby include Douglas Evans Nature Preserve (0.5 miles) and Howarth Park (1.6 miles)—perfect for pups who love adventure."
  },
  {
    "name": "The Burgh Historical Park",
    "street": "23960 Civic Center Dr",
    "city": "Southfield",
    "state": "MI",
    "zip": "48033",
    "latitude": 42.4791521,
    "longitude": -83.2808949,
    "description": "With 4.7 stars from 82 reviews, The Burgh Historical Park at 23960 Civic Center Dr has become a favorite among Southfield dog owners. The park has earned its reputation among dog owners in the neighborhood as a reliable choice. For variety, the neighborhood offers more dog parks to explore: Carpenter Lake Nature Preserve (1.9 miles) and Beech Woods Park (2.0 miles)."
  },
  {
    "name": "Crestview Park",
    "street": "",
    "city": "Southfield",
    "state": "MI",
    "zip": "",
    "latitude": 42.5467012,
    "longitude": -83.2113192,
    "description": "Dog owners in Southfield have made Crestview Park a go-to spot, rating it 4.9 stars across 8 reviews. The steady stream of dog owner visits speaks to the park's appeal. Dog owners exploring the neighborhood can also bring their furry friends to Howarth Park (0.9 miles)."
  },
  {
    "name": "‍ Reynolds Park",
    "street": "",
    "city": "Southfield",
    "state": "MI",
    "zip": "",
    "latitude": 42.4805913,
    "longitude": -83.1668713,
    "description": "Reynolds Park is well-regarded by Southfield dog owners, holding 4.7 stars across 19 reviews. Open from 6am to 10pm daily, there's plenty of opportunity for dog owners to find a time that works. Dog owners can also take their pups to nearby Huntington Woods Park (0.7 miles) or Meininger Park (1.1 miles)."
  },
  {
    "name": "Douglas Evans Nature Preserve",
    "street": "31845 Evergreen RdBeverly Hills",
    "city": "Southfield",
    "state": "MI",
    "zip": "48025",
    "latitude": 42.5234588,
    "longitude": -83.2444148,
    "description": "Douglas Evans Nature Preserve at 31845 Evergreen Rd is well-regarded by Southfield dog owners, holding 4.6 stars across 183 reviews. Open from 8am to 10pm daily, the park offers flexibility for dog owners with varying routines. Dog owners can also take their pups to nearby Beverly Hills Village Park (0.5 miles) or Howarth Park (2.1 miles)."
  },
  {
    "name": "Goldengate park",
    "street": "18890 Rainbow DrLathrup Village",
    "city": "Southfield",
    "state": "MI",
    "zip": "48076",
    "latitude": 42.4861609,
    "longitude": -83.2291613,
    "description": "Southfield dog owners rate Goldengate park at 18890 Rainbow Dr highly, with 4.6 stars from 42 visits. Open from 7am to 10pm daily, dog owners can plan visits around work or their pup's energy level. Dog owners can also take their pups to nearby Lathrup Village Dog Park (0.5 miles) or Children's Garden (0.5 miles)."
  },
  {
    "name": "Children's Garden",
    "street": "27400 Southfield RdLathrup Village",
    "city": "Southfield",
    "state": "MI",
    "zip": "48076",
    "latitude": 42.4914739,
    "longitude": -83.2213847,
    "description": "Southfield dog owners rate Children's Garden at 27400 Southfield Rd highly, with 4.5 stars from 33 visits. Local dog owners appreciate what this park offers their four-legged friends. Dog owners exploring the neighborhood can also bring their furry friends to Lathrup Village Dog Park (0.0 miles)."
  },
  {
    "name": "Meininger Park",
    "street": "600 Maxwell Ave",
    "city": "Southfield",
    "state": "MI",
    "zip": "48067",
    "latitude": 42.493622,
    "longitude": -83.153857,
    "description": "At 600 Maxwell Ave in Southfield, Meininger Park has built a loyal following—4.5 stars from 170 dog owner reviews. Open from 6am to 9pm daily, there's plenty of opportunity for dog owners to find a time that works. Looking for more places to take your pup? Mark Twain Dog Park is another popular dog park just 0.5 miles away."
  },
  {
    "name": "Beech Woods Park",
    "street": "22200 Beech Rd",
    "city": "Southfield",
    "state": "MI",
    "zip": "48033",
    "latitude": 42.4533631,
    "longitude": -83.2978378,
    "description": "With 4.5 stars from 387 reviews, Beech Woods Park at 22200 Beech Rd has become a favorite among Southfield dog owners. Open from 8am to 8pm daily, the park works well for dog owners with different schedules. For variety, the neighborhood offers more dog parks to explore: Carpenter Lake Nature Preserve (1.5 miles) and The Burgh Historical Park (2.0 miles)."
  },
  {
    "name": "Catalpa Oaks County Park",
    "street": "27705 Greenfield Rd",
    "city": "Southfield",
    "state": "MI",
    "zip": "48076",
    "latitude": 42.4939283,
    "longitude": -83.2027795,
    "description": "Catalpa Oaks County Park (4.5 stars from 570 reviews) is a popular destination for Southfield dog owners, located at 27705 Greenfield Rd. Open from 8am to 6:30pm daily, there's room in the day for dog owners to bring their furry friends. For variety, the neighborhood offers more dog parks to explore: Lathrup Village Dog Park (1.0 miles) and Children's Garden (1.0 miles)."
  },
  {
    "name": "David H Shepherd Park",
    "street": "24198 Church StOak Park",
    "city": "Southfield",
    "state": "MI",
    "zip": "48237",
    "latitude": 42.469094,
    "longitude": -83.192069,
    "description": "David H Shepherd Park at 24198 Church St is well-regarded by Southfield dog owners, holding 4.5 stars across 938 reviews. Open from 9am to 10pm daily, dog owners can easily fit a visit into busy schedules. Other dog parks in the area include Freeway Park (0.7 miles) and Oak Park (1.3 miles)—both great for exploring with your four-legged friend."
  },
  {
    "name": "Freeway Park",
    "street": "I-696",
    "city": "Southfield",
    "state": "MI",
    "zip": "48075",
    "latitude": 42.4769349,
    "longitude": -83.2019225,
    "description": "Dog owners in Southfield have rated Freeway Park 4.2 stars across 17 reviews. Open from 6am to 10pm daily, dog owners in the area can work a visit into their day. Dog owners in the neighborhood can also take their furry friends to David H Shepherd Park, 0.7 miles away."
  },
  {
    "name": "Civic Center Park",
    "street": "26000 Evergreen Rd",
    "city": "Southfield",
    "state": "MI",
    "zip": "48076",
    "latitude": 42.4809195,
    "longitude": -83.2372739,
    "description": "Civic Center Park at 26000 Evergreen Rd holds a 4.4-star rating from 188 Southfield dog owner visits. Open from 7am to 10pm daily, local dog owners have time to explore with their furry companions. For dog owners who like to explore, Goldengate park (0.5 miles) and Lincoln Woods Nature Preserve (0.9 miles) are both nearby parks to try with your dog."
  },
  {
    "name": "‍ Lincoln Woods Nature Preserve",
    "street": "",
    "city": "Southfield",
    "state": "MI",
    "zip": "",
    "latitude": 42.4733689,
    "longitude": -83.2218731,
    "description": "In Southfield, Lincoln Woods Nature Preserve carries 4.3 stars from 34 dog owner reviews. Local dog owners use this park as a spot to spend time with their furry companions. Dog owners looking for variety can also visit Civic Center Park (0.9 miles) or Goldengate park (1.0 miles) with their four-legged friends."
  },
  {
    "name": "James T Hope Playfield Park",
    "street": "16220 Lahser Rd",
    "city": "Southfield",
    "state": "MI",
    "zip": "48219",
    "latitude": 42.4086004,
    "longitude": -83.2572827,
    "description": "James T Hope Playfield Park at 16220 Lahser Rd in Southfield has 4.3 stars from 44 dog owner reviews. The park serves as a gathering spot for dog owners and their four-legged friends in the area. Looking to explore more? Stoepel Park is another dog-friendly park 1.4 miles from here."
  },
  {
    "name": "‍ Palmer Park",
    "street": "200 N Riverside AveSt Clair",
    "city": "St. Clair Shores",
    "state": "MI",
    "zip": "48079",
    "latitude": 42.8328421,
    "longitude": -82.4833162,
    "description": "For dog owners in the St. Clair Shores area, Palmer Park (200 N Riverside Ave) offers a 4.8-star experience based on 823 reviews. Dog owners looking for a solid destination will find this park delivers. Nearby, Greig Park (1.1 miles) offers dog owners another great spot to explore with their pups."
  },
  {
    "name": "Greig Park",
    "street": "795 N Carney DrSt Clair",
    "city": "St. Clair Shores",
    "state": "MI",
    "zip": "48079",
    "latitude": 42.828431,
    "longitude": -82.5044574,
    "description": "St. Clair Shores dog owners rate Greig Park at 795 N Carney Dr highly, with 4.8 stars from 388 visits. Open from 7am to 8:30pm daily, dog owners have plenty of flexibility to plan a visit. Dog owners can also take their pups to nearby Palmer Park (1.1 miles) or East China Dog Park (4.5 miles)."
  },
  {
    "name": "Blossom Heath Park",
    "street": "24800 Jefferson AveSt Clair Shores",
    "city": "St. Clair Shores",
    "state": "MI",
    "zip": "48080",
    "latitude": 42.475062,
    "longitude": -82.889199,
    "description": "Blossom Heath Park at 24800 Jefferson Ave is well-regarded by St. Clair Shores dog owners, holding 4.7 stars across 529 reviews. The park serves dog owners well, providing a destination the community values. Dog owners can also take their pups to nearby Baffin Brewing Company (0.2 miles) or Brunch With Me (0.4 miles)."
  },
  {
    "name": "Baffin Brewing Company",
    "street": "25113 Jefferson AveSt Clair Shores",
    "city": "St. Clair Shores",
    "state": "MI",
    "zip": "48081",
    "latitude": 42.4776967,
    "longitude": -82.8894125,
    "description": "Dog owners in St. Clair Shores have made Baffin Brewing Company at 25113 Jefferson Ave a go-to spot, rating it 4.7 stars across 433 reviews. Dog owners in the area consistently choose this park as a go-to destination for their pups. For variety, the neighborhood offers more dog parks to explore: Blossom Heath Park (0.2 miles) and Brunch With Me (0.3 miles)."
  },
  {
    "name": "Camp Bow Wow",
    "street": "23720 Greater Mack AveSt Clair Shores",
    "city": "St. Clair Shores",
    "state": "MI",
    "zip": "48080",
    "latitude": 42.4677423,
    "longitude": -82.8970165,
    "description": "With 4.7 stars from 122 reviews, Camp Bow Wow at 23720 Greater Mack Ave has become a favorite among St. Clair Shores dog owners. Open from 7am to 7pm daily, the park offers flexibility for dog owners with varying routines. Looking for more places to take your pup? Kaufman Park is another popular dog park just 0.6 miles away."
  },
  {
    "name": "Lake Saint Clair Metropark",
    "street": "31300 Metro PkwyHarrison Twp",
    "city": "St. Clair Shores",
    "state": "MI",
    "zip": "48045",
    "latitude": 42.5730815,
    "longitude": -82.796305,
    "description": "Lake Saint Clair Metropark at 31300 Metro Pkwy is one of the most beloved dog parks in St. Clair Shores—4.6 stars from an incredible 7,288 reviews. Open from 8am to 8pm daily, the park accommodates everything from early morning walks to evening adventures. Dog owners exploring the area should also bring their pups to Clinton River Spillway (1.7 miles) and Shadyside Park (4.3 miles)."
  },
  {
    "name": "Veterans Memorial Park",
    "street": "32400 Jefferson AveSt Clair Shores",
    "city": "St. Clair Shores",
    "state": "MI",
    "zip": "48082",
    "latitude": 42.527157,
    "longitude": -82.873838,
    "description": "With 4.6 stars across 1,371 reviews, Veterans Memorial Park at 32400 Jefferson Ave has clearly won over St. Clair Shores dog owners. Open from 8:30am to 9pm daily, dog owners can plan visits around their pup's favorite times to be active. Other popular dog parks nearby include Kyte Monroe Park (0.9 miles) and Beaches Pet Resort & Training (1.7 miles)—both favorites among local pup parents."
  },
  {
    "name": "Fort Fraser",
    "street": "17075 Anita AveFraser",
    "city": "St. Clair Shores",
    "state": "MI",
    "zip": "48026",
    "latitude": 42.5366657,
    "longitude": -82.9452164,
    "description": "At 17075 Anita Ave in St. Clair Shores, Fort Fraser has built a loyal following—4.6 stars from 653 dog owner reviews. Open from 8am to 9pm daily, dog owners have plenty of flexibility to plan a visit. Dog owners can also take their pups to nearby Somerset Park (0.3 miles) or Dooley Park (1.0 miles)."
  },
  {
    "name": "Beaches Pet Resort & Training",
    "street": "29335 Harper AveSt Clair Shores",
    "city": "St. Clair Shores",
    "state": "MI",
    "zip": "48081",
    "latitude": 42.5096695,
    "longitude": -82.8984467,
    "description": "With 4.6 stars from 258 reviews, Beaches Pet Resort & Training at 29335 Harper Ave has become a favorite among St. Clair Shores dog owners. For dog owners in the area, this park has become a trusted spot for time with their pups. For a change of scenery, Gaffke Park is another dog-friendly destination 0.9 miles from here."
  },
  {
    "name": "‍ Algonac Dog Park",
    "street": "1793-1799 Michigan StAlgonac",
    "city": "St. Clair Shores",
    "state": "MI",
    "zip": "48001",
    "latitude": 42.6260877,
    "longitude": -82.5262427,
    "description": "Algonac Dog Park at 1793-1799 Michigan St is well-regarded by St. Clair Shores dog owners, holding 4.6 stars across 114 reviews. Dog owners frequent this park for its consistent quality and welcoming atmosphere. Based on the reviews, dog owners can expect a reliable spot for spending time with their pup."
  },
  {
    "name": "Kaufman Park",
    "street": "23499 Elaine StSt Clair Shores",
    "city": "St. Clair Shores",
    "state": "MI",
    "zip": "48080",
    "latitude": 42.469083,
    "longitude": -82.908196,
    "description": "With 4.6 stars from 36 reviews, Kaufman Park at 23499 Elaine St has become a favorite among St. Clair Shores dog owners. For dog owners in the area, this park has become a trusted spot for time with their pups. Dog owners exploring the neighborhood can also bring their furry friends to Camp Bow Wow (0.6 miles)."
  },
  {
    "name": "Somerset Park",
    "street": "",
    "city": "St. Clair Shores",
    "state": "MI",
    "zip": "",
    "latitude": 42.539202,
    "longitude": -82.9493652,
    "description": "Dog owners in St. Clair Shores have made Somerset Park a go-to spot, rating it 4.6 stars across 30 reviews. The park has earned its reputation among dog owners in the neighborhood as a reliable choice. More dog-friendly parks nearby include Fort Fraser (0.3 miles) and Dooley Park (1.1 miles)—perfect for pups who love adventure."
  },
  {
    "name": "East China Dog Park",
    "street": "5111 Recor RdEast China Twp",
    "city": "St. Clair Shores",
    "state": "MI",
    "zip": "48054",
    "latitude": 42.7639467,
    "longitude": -82.4991119,
    "description": "With 4.5 stars from 30 reviews, East China Dog Park at 5111 Recor Rd has become a favorite among St. Clair Shores dog owners. Dog owners in the area consistently choose this park as a go-to destination for their pups. Dog owners exploring the neighborhood can also bring their furry friends to Greig Park (4.5 miles)."
  },
  {
    "name": "Prince Drewry Park",
    "street": "21845 Quinn RdClinton Twp",
    "city": "St. Clair Shores",
    "state": "MI",
    "zip": "48035",
    "latitude": 42.5474176,
    "longitude": -82.8961532,
    "description": "Prince Drewry Park (4.5 stars from 47 reviews) is a popular destination for St. Clair Shores dog owners, located at 21845 Quinn Rd. Dog owners looking for a solid destination will find this park delivers. Looking for more places to take your pup? Normandy Park is another popular dog park just 0.7 miles away."
  },
  {
    "name": "Clinton River Spillway",
    "street": "",
    "city": "St. Clair Shores",
    "state": "MI",
    "zip": "",
    "latitude": 42.5886235,
    "longitude": -82.8217131,
    "description": "For dog owners in the St. Clair Shores area, Clinton River Spillway offers a 4.5-star experience based on 101 reviews. The steady stream of dog owner visits speaks to the park's appeal. Other dog parks in the area include Lake Saint Clair Metropark (1.7 miles) and Shadyside Park (3.0 miles)—both great for exploring with your four-legged friend."
  },
  {
    "name": "Ghesquiere Park",
    "street": "19955 Mack AveGrosse Pointe Woods",
    "city": "St. Clair Shores",
    "state": "MI",
    "zip": "48236",
    "latitude": 42.4317106,
    "longitude": -82.9085095,
    "description": "Dog owners in St. Clair Shores have made Ghesquiere Park at 19955 Mack Ave a go-to spot, rating it 4.5 stars across 113 reviews. Open from 8am to 9pm daily, dog owners can plan visits around work or their pup's energy level. Looking for more places to take your pup? Balduck Park is another popular dog park just 1.3 miles away."
  },
  {
    "name": "Sterling Heights Nature Center",
    "street": "42700 Utica Rd",
    "city": "Sterling Heights",
    "state": "MI",
    "zip": "48314",
    "latitude": 42.607416,
    "longitude": -83.027858,
    "description": "For dog owners in the Sterling Heights area, Sterling Heights Nature Center (42700 Utica Rd) offers a 4.8-star experience based on 94 reviews. Dog owners frequent this park for its consistent quality and welcoming atmosphere. Dog owners can also take their pups to nearby Clinton River Park (0.8 miles) or Clinton River Heritage Park (1.0 miles)."
  },
  {
    "name": "River Bends Park",
    "street": "5700 22 Mile RdShelby Township",
    "city": "Sterling Heights",
    "state": "MI",
    "zip": "48317",
    "latitude": 42.6545304,
    "longitude": -83.054801,
    "description": "Dog owners in Sterling Heights have embraced River Bends Park (5700 22 Mile Rd) as a top destination—4.7 stars from 2,160 visits. Open from 8am to 8pm daily, dog owners can easily fit a visit into their day, whether morning or evening. Keep the adventure going at other nearby dog parks like River Bends Barrier Free Playg (0.0 miles) or Holland Ponds (1.2 miles)."
  },
  {
    "name": "Clinton River Park",
    "street": "11566 Clinton River Rd",
    "city": "Sterling Heights",
    "state": "MI",
    "zip": "48313",
    "latitude": 42.6032566,
    "longitude": -83.0142084,
    "description": "Located at 11566 Clinton River Rd in Sterling Heights, Clinton River Park earns strong marks from local dog owners—4.7 stars from 864 reviews. Open from 7am to 10pm daily, dog owners have plenty of flexibility to plan a visit. More dog-friendly parks nearby include Sterling Heights Nature Center (0.8 miles) and Dodge Park (0.8 miles)—perfect for pups who love adventure."
  },
  {
    "name": "Red Oaks Nature Center",
    "street": "30300 Hales StMadison Heights",
    "city": "Sterling Heights",
    "state": "MI",
    "zip": "48071",
    "latitude": 42.516443,
    "longitude": -83.093574,
    "description": "Red Oaks Nature Center at 30300 Hales St is well-regarded by Sterling Heights dog owners, holding 4.7 stars across 828 reviews. The park serves dog owners well, providing a destination the community values. Looking for more places to take your pup? Red Oaks Dog Park is another popular dog park just 0.5 miles away."
  },
  {
    "name": "Parks & Recreation Sterling",
    "street": "40260 Utica Rd",
    "city": "Sterling Heights",
    "state": "MI",
    "zip": "48313",
    "latitude": 42.590691,
    "longitude": -83.0099882,
    "description": "Located at 40260 Utica Rd in Sterling Heights, Parks & Recreation Sterling earns strong marks from local dog owners—4.7 stars from 646 reviews. Local dog owners appreciate what this park offers their four-legged friends. Dog owners exploring the neighborhood can also bring their furry friends to Dodge Park (0.2 miles)."
  },
  {
    "name": "‍ Trailhead",
    "street": "39850 Edison St",
    "city": "Sterling Heights",
    "state": "MI",
    "zip": "48313",
    "latitude": 42.5879357,
    "longitude": -82.9957094,
    "description": "For dog owners in the Sterling Heights area, Trailhead (39850 Edison St) offers a 4.7-star experience based on 55 reviews. The steady stream of dog owner visits speaks to the park's appeal. Looking for more places to take your pup? Wanda Park is another popular dog park just 0.7 miles away."
  },
  {
    "name": "Avis Park",
    "street": "2617 Avis Dr",
    "city": "Sterling Heights",
    "state": "MI",
    "zip": "48310",
    "latitude": 42.5382569,
    "longitude": -83.0816962,
    "description": "Avis Park at 2617 Avis Dr is well-regarded by Sterling Heights dog owners, holding 4.8 stars across 9 reviews. Local dog owners appreciate what this park offers their four-legged friends. For a change of scenery, James C Nelson Park is another dog-friendly destination 1.0 miles from here."
  },
  {
    "name": "Ben Hadley Park",
    "street": "11000 Canal Rd",
    "city": "Sterling Heights",
    "state": "MI",
    "zip": "48314",
    "latitude": 42.6223958,
    "longitude": -83.0253758,
    "description": "At 11000 Canal Rd in Sterling Heights, Ben Hadley Park has built a loyal following—4.6 stars from 185 dog owner reviews. Open from 7am to 9pm daily, the park offers flexibility for dog owners with varying routines. For variety, the neighborhood offers more dog parks to explore: Clinton River Heritage Park (0.4 miles) and Grant Park (0.7 miles)."
  },
  {
    "name": "Washington Square Park",
    "street": "14645 Stadler Rd",
    "city": "Sterling Heights",
    "state": "MI",
    "zip": "48313",
    "latitude": 42.5897464,
    "longitude": -82.9783086,
    "description": "Located at 14645 Stadler Rd in Sterling Heights, Washington Square Park earns strong marks from local dog owners—4.6 stars from 87 reviews. Open from 7am to 9pm daily, dog owners have plenty of flexibility to plan a visit. For variety, the neighborhood offers more dog parks to explore: Wanda Park (0.3 miles) and Trailhead (0.9 miles)."
  },
  {
    "name": "College Park",
    "street": "14668 Rice Dr",
    "city": "Sterling Heights",
    "state": "MI",
    "zip": "48313",
    "latitude": 42.606201,
    "longitude": -82.9793909,
    "description": "College Park at 14668 Rice Dr is well-regarded by Sterling Heights dog owners, holding 4.6 stars across 73 reviews. Open from 6am to 9pm daily, there's room in the day for dog owners to bring their furry friends. Other dog parks in the area include Lakeside Island Park (0.8 miles) and Washington Square Park (1.1 miles)—both great for exploring with your four-legged friend."
  },
  {
    "name": "‍ Pitchford Park",
    "street": "49625 Romeo Plank RdMacomb",
    "city": "Sterling Heights",
    "state": "MI",
    "zip": "48044",
    "latitude": 42.6572132,
    "longitude": -82.9371226,
    "description": "Located at 49625 Romeo Plank Rd in Sterling Heights, Pitchford Park earns strong marks from local dog owners—4.6 stars from 29 reviews. Open from 7:30am to 9pm daily, there's room in the day for dog owners to bring their furry friends. More dog-friendly parks nearby include Lakeside Island Park (3.4 miles) and Behnke Memorial Dog Park (4.0 miles)—perfect for pups who love adventure."
  },
  {
    "name": "Mark Sawyers Family Park",
    "street": "14655 Carmel Dr",
    "city": "Sterling Heights",
    "state": "MI",
    "zip": "48312",
    "latitude": 42.558981,
    "longitude": -82.977007,
    "description": "Mark Sawyers Family Park (4.5 stars from 28 reviews) is a popular destination for Sterling Heights dog owners, located at 14655 Carmel Dr. Open from 7am to 9:30pm daily, the park accommodates early risers and evening visitors alike. For a change of scenery, Freedom Hill County Park is another dog-friendly destination 0.4 miles from here."
  },
  {
    "name": "Magnolia Park",
    "street": "",
    "city": "Sterling Heights",
    "state": "MI",
    "zip": "",
    "latitude": 42.5803122,
    "longitude": -83.0302033,
    "description": "Magnolia Park is well-regarded by Sterling Heights dog owners, holding 4.5 stars across 91 reviews. Dog owners frequent this park for its consistent quality and welcoming atmosphere. Looking for more places to take your pup? Baumgartner Park is another popular dog park just 0.0 miles away."
  },
  {
    "name": "‍ Joseph J. Delia Jr. Park",
    "street": "3001 18 Mile Rd",
    "city": "Sterling Heights",
    "state": "MI",
    "zip": "48314",
    "latitude": 42.5933783,
    "longitude": -83.0813556,
    "description": "Joseph J. Delia Jr. Park (4.5 stars from 118 reviews) is a popular destination for Sterling Heights dog owners, located at 3001 18 Mile Rd. Open from 7am to 10pm daily, the park accommodates early risers and evening visitors alike. Dog owners exploring the neighborhood can also bring their furry friends to Joseph Delia Park (0.7 miles)."
  },
  {
    "name": "‍ Whispering Woods Kiwanis Park",
    "street": "11000 21 Mile RdShelby Township",
    "city": "Sterling Heights",
    "state": "MI",
    "zip": "48317",
    "latitude": 42.640628,
    "longitude": -83.022908,
    "description": "At 11000 21 Mile Rd in Sterling Heights, Whispering Woods Kiwanis Park has built a loyal following—4.5 stars from 354 dog owner reviews. Open from 8am to 8pm daily, the park works well for dog owners with different schedules. For a change of scenery, Grant Park is another dog-friendly destination 0.7 miles from here."
  },
  {
    "name": "Grant Park",
    "street": "8243 Hahn St",
    "city": "Sterling Heights",
    "state": "MI",
    "zip": "48317",
    "latitude": 42.6314083,
    "longitude": -83.0305349,
    "description": "At 8243 Hahn St in Sterling Heights, Grant Park has built a loyal following—4.5 stars from 384 dog owner reviews. Open from 8am to 10pm daily, there's plenty of opportunity for dog owners to find a time that works. Nearby, Pioneer Dog Park (0.4 miles) offers dog owners another great spot to explore with their pups."
  },
  {
    "name": "Heritage Park",
    "street": "12111 Pardee RdTaylor",
    "city": "‍ Taylor",
    "state": "MI",
    "zip": "48180",
    "latitude": 42.2175745,
    "longitude": -83.2539992,
    "description": "With 4.7 stars across 4,189 reviews, Heritage Park at 12111 Pardee Rd has clearly won over Taylor dog owners. Open from 7am to 11pm daily, the park accommodates a variety of dog owner schedules and routines. For variety, many dog owners also bring their furry friends to Heritage Park (0.3 miles)—another great dog park in the area."
  },
  {
    "name": "Jaycee Bicentennial Community",
    "street": "Pinecrest StTaylor",
    "city": "‍ Taylor",
    "state": "MI",
    "zip": "48180",
    "latitude": 42.2593042,
    "longitude": -83.2384435,
    "description": "In Taylor, Jaycee Bicentennial Community has built a loyal following—4.5 stars from 116 dog owner reviews. Open from 7am to 10pm daily, the park works well for dog owners with different schedules. Looking for more places to take your pup? Swapka Park is another popular dog park just 1.2 miles away."
  },
  {
    "name": "Boardman Park",
    "street": "Haskell StTaylor",
    "city": "‍ Taylor",
    "state": "MI",
    "zip": "48180",
    "latitude": 42.2443488,
    "longitude": -83.2746352,
    "description": "Boardman Park in Taylor is rated 4.4 stars by 112 dog owners. Open from 9am to 5pm weekdays, dog owners have flexibility to plan a visit with their four-legged friends. Dog owners looking for variety can also visit Papp Park (0.4 miles) or Atlas Park (0.8 miles) with their four-legged friends."
  },
  {
    "name": "Oakbrook Dog Park",
    "street": "",
    "city": "‍ Taylor",
    "state": "MI",
    "zip": "",
    "latitude": 42.2222614,
    "longitude": -83.3965995,
    "description": "Oakbrook Dog Park in Taylor is rated 4.2 stars by 133 dog owners. Open from 6:30am to 10pm daily, dog owners in the area can work a visit into their day. Dog owners in the neighborhood can also take their furry friends to Avondale Park, 4.1 miles away."
  },
  {
    "name": "Atlas Park",
    "street": "24504 Ecorse RdTaylor",
    "city": "‍ Taylor",
    "state": "MI",
    "zip": "48180",
    "latitude": 42.2554074,
    "longitude": -83.2749493,
    "description": "Atlas Park at 24504 Ecorse Rd in Taylor has 4.1 stars from 78 dog owner reviews. Local dog owners use this park as a spot to spend time with their furry companions. Dog owners looking for variety can also visit Boardman Park (0.8 miles) or Papp Park (1.1 miles) with their four-legged friends."
  },
  {
    "name": "Papp Park",
    "street": "9350 Westlake StTaylor",
    "city": "‍ Taylor",
    "state": "MI",
    "zip": "48180",
    "latitude": 42.2393258,
    "longitude": -83.2793563,
    "description": "Papp Park at 9350 Westlake St holds a 4.2-star rating from 300 Taylor dog owner visits. Open from 8am to 11pm daily, the park gives dog owners in the neighborhood time to bring their pups. Nearby dog parks worth exploring with your pup include Boardman Park (0.4 miles) and Atlas Park (1.1 miles)."
  },
  {
    "name": "Brownstown Dog Park",
    "street": "23700 Lillian StBrownstown Township",
    "city": "‍ Taylor",
    "state": "MI",
    "zip": "48183",
    "latitude": 42.1492044,
    "longitude": -83.2632746,
    "description": "Brownstown Dog Park (23700 Lillian St) serves dog owners in the Taylor neighborhood looking for a place to visit with their pups. The park gives neighborhood dog owners a destination for outings with their four-legged friends. Looking to explore more? WOOFhaven Dog Park is another dog-friendly park 1.2 miles from here."
  },
  {
    "name": "Innovation Hills",
    "street": "2800 W Hamlin RdRochester Hills",
    "city": "Troy",
    "state": "MI",
    "zip": "48309",
    "latitude": 42.6498394,
    "longitude": -83.1850184,
    "description": "1,518 dog owners have made Innovation Hills (2800 W Hamlin Rd) one of Troy's most trusted parks (4.8 stars). Open from 8am to 7pm daily, the park is convenient for before work, after work, or weekend adventures. Keep the adventure going at other nearby dog parks like Avondale Park (1.4 miles) or Highlands Sensory Trailhead (1.6 miles)."
  },
  {
    "name": "Oak Park",
    "street": "21950 Scotia RdOak Park",
    "city": "Troy",
    "state": "MI",
    "zip": "48237",
    "latitude": 42.4570828,
    "longitude": -83.1718833,
    "description": "Dog owners in Troy have made Oak Park at 21950 Scotia Rd a go-to spot, rating it 4.6 stars across 7 reviews. Open from 7am to 9pm daily, dog owners can plan visits around work or their pup's energy level. More dog-friendly parks nearby include David H Shepherd Park (1.3 miles) and Reynolds Park (1.6 miles)—perfect for pups who love adventure."
  },
  {
    "name": "Troy Trails",
    "street": "",
    "city": "Troy",
    "state": "MI",
    "zip": "",
    "latitude": 42.6055893,
    "longitude": -83.1499304,
    "description": "In Troy, Troy Trails has built a loyal following—4.6 stars from 30 dog owner reviews. Dog owners looking for a solid destination will find this park delivers. Nearby, Firefighters Park (1.5 miles) offers dog owners another great spot to explore with their pups."
  },
  {
    "name": "Howarth Park",
    "street": "1600 Cummings Ave",
    "city": "Troy",
    "state": "MI",
    "zip": "48009",
    "latitude": 42.534951,
    "longitude": -83.205818,
    "description": "At 1600 Cummings Ave in Troy, Howarth Park has built a loyal following—4.6 stars from 53 dog owner reviews. Open from 9am to 8pm daily, dog owners have plenty of flexibility to plan a visit. Nearby, Crestview Park (0.9 miles) offers dog owners another great spot to explore with their pups."
  },
  {
    "name": "Robinwood Park",
    "street": "640 Robinwood Dr",
    "city": "Troy",
    "state": "MI",
    "zip": "48083",
    "latitude": 42.5546159,
    "longitude": -83.1360076,
    "description": "Troy dog owners rate Robinwood Park at 640 Robinwood Dr highly, with 4.6 stars from 280 visits. Open from 7:30am to 9:30pm daily, dog owners can easily fit a visit into busy schedules. For variety, the neighborhood offers more dog parks to explore: Troy Community Center (1.1 miles) and Daisy Knight Dog Park (1.1 miles)."
  },
  {
    "name": "Boulan Park",
    "street": "1898 Boulan Park Dr",
    "city": "Troy",
    "state": "MI",
    "zip": "48084",
    "latitude": 42.5720451,
    "longitude": -83.170905,
    "description": "Located at 1898 Boulan Park Dr in Troy, Boulan Park earns strong marks from local dog owners—4.6 stars from 649 reviews. Open from 7am to 10pm daily, there's room in the day for dog owners to bring their furry friends. More dog-friendly parks nearby include Troy Community Center (1.1 miles) and Daisy Knight Dog Park (1.2 miles)—perfect for pups who love adventure."
  },
  {
    "name": "Troy Community Center",
    "street": "3179 Livernois Rd",
    "city": "Troy",
    "state": "MI",
    "zip": "48083",
    "latitude": 42.5659695,
    "longitude": -83.1498794,
    "description": "With 4.6 stars from 805 reviews, Troy Community Center at 3179 Livernois Rd has become a favorite among Troy dog owners. The park has earned its reputation among dog owners in the neighborhood as a reliable choice. Dog owners exploring the neighborhood can also bring their furry friends to Daisy Knight Dog Park (0.2 miles)."
  },
  {
    "name": "Lyon Oaks Dog Park",
    "street": "",
    "city": "Troy",
    "state": "MI",
    "zip": "",
    "latitude": 42.5246873,
    "longitude": -83.5363637,
    "description": "For dog owners in the Troy area, Lyon Oaks Dog Park offers a 4.5-star experience based on 333 reviews. Open from 6am to 8pm daily, there's plenty of opportunity for dog owners to find a time that works. Dog owners exploring the neighborhood can also bring their furry friends to Gunnar Mettala Park (0.8 miles)."
  },
  {
    "name": "Redwood Park",
    "street": "750 Redwood Dr",
    "city": "Troy",
    "state": "MI",
    "zip": "48083",
    "latitude": 42.5408993,
    "longitude": -83.122416,
    "description": "58 dog owners have reviewed Redwood Park at 750 Redwood Dr in Troy, averaging 4.4 stars. Open from 7am to 10pm daily, dog owners have a window to spend time with their pups. Nearby dog parks worth exploring with your pup include Robinwood Park (1.2 miles) and Exchange Park (1.3 miles)."
  },
  {
    "name": "Cummingston Park",
    "street": "2445 Torquay Ave",
    "city": "Troy",
    "state": "MI",
    "zip": "48073",
    "latitude": 42.5377528,
    "longitude": -83.1742397,
    "description": "At 2445 Torquay Ave, Cummingston Park has 4.3 stars based on 118 reviews from Troy dog owners. Open from 6am to 10pm daily, dog owners have flexibility to plan a visit with their four-legged friends. Dog owners might also enjoy Normandy Oaks Park, another dog park just 0.8 miles away."
  },
  {
    "name": "Rentz Park",
    "street": "26218 Bonnie Ave",
    "city": "Warren",
    "state": "MI",
    "zip": "48089",
    "latitude": 42.4871998,
    "longitude": -83.0020091,
    "description": "Rentz Park (4.5 stars from 31 reviews) is a popular destination for Warren dog owners, located at 26218 Bonnie Ave. Open from 7am to 9pm daily, there's room in the day for dog owners to bring their furry friends. Dog owners exploring the neighborhood can also bring their furry friends to Trombly Park (0.5 miles)."
  },
  {
    "name": "Austin Dannis Park",
    "street": "5200 Stephens Rd",
    "city": "Warren",
    "state": "MI",
    "zip": "48091",
    "latitude": 42.4710588,
    "longitude": -82.9873131,
    "description": "For dog owners in Warren, Austin Dannis Park at 5200 Stephens Rd has a 4.3-star rating (235 reviews). Open from 6am to 7pm daily, dog owners have flexibility to plan a visit with their four-legged friends. Dog owners looking for variety can also visit Rentz Park (1.3 miles) or Coinage-Priority, Inc. (1.8 miles) with their four-legged friends."
  },
  {
    "name": "City of Warren Butcher Park",
    "street": "4700 Martin Rd",
    "city": "Warren",
    "state": "MI",
    "zip": "48092",
    "latitude": 42.4984691,
    "longitude": -83.0593693,
    "description": "At 4700 Martin Rd, City of Warren Butcher Park has 4.3 stars based on 231 reviews from Warren dog owners. This park provides dog owners in the community with a place to visit with their dogs. For dog owners who like to explore, Burdi Park (1.3 miles) and Red Oaks Dog Park (1.6 miles) are both nearby parks to try with your dog."
  },
  {
    "name": "Burdi Park",
    "street": "7000 12 Mile Rd",
    "city": "Warren",
    "state": "MI",
    "zip": "48092",
    "latitude": 42.5061098,
    "longitude": -83.0369561,
    "description": "Burdi Park at 7000 12 Mile Rd in Warren has 4.3 stars from 98 dog owner reviews. Open from 6am to 10pm daily, dog owners can stop by when it fits their schedule. For dog owners who like to explore, City of Warren Butcher Park (1.3 miles) and Trombly Park (1.8 miles) are both nearby parks to try with your dog."
  },
  {
    "name": "‍ Trombly Park",
    "street": "",
    "city": "Warren",
    "state": "MI",
    "zip": "",
    "latitude": 42.4932575,
    "longitude": -83.0062746,
    "description": "Trombly Park in Warren is rated 4.1 stars by 111 dog owners. Local dog owners use this park as a spot to spend time with their furry companions. Dog owners in the neighborhood can also take their furry friends to Rentz Park, 0.5 miles away."
  },
  {
    "name": "Bates Park",
    "street": "32601 Warkop Ave",
    "city": "Warren",
    "state": "MI",
    "zip": "48093",
    "latitude": 42.5321723,
    "longitude": -83.02164,
    "description": "Warren dog owners have access to Bates Park at 32601 Warkop Ave for outings with their four-legged friends. The park gives neighborhood dog owners a destination for outings with their four-legged friends. For pups who want more adventure, Burdi Park is a nearby dog park worth visiting (2.0 miles)."
  },
  {
    "name": "Old Hines Park",
    "street": "Hawthorn Park Dr",
    "city": "Westland",
    "state": "MI",
    "zip": "48185",
    "latitude": 42.3438237,
    "longitude": -83.3524863,
    "description": "With 4.5 stars from 70 reviews, Old Hines Park has become a favorite among Westland dog owners. The steady stream of dog owner visits speaks to the park's appeal. Dog owners can also take their pups to nearby Hines Park (0.1 miles) or Wayne County Dog Park (0.1 miles)."
  },
  {
    "name": "‍ Westland Rotary Canine Corral",
    "street": "37091 Marquette St",
    "city": "Westland",
    "state": "MI",
    "zip": "48185",
    "latitude": 42.3167902,
    "longitude": -83.4056997,
    "description": "For dog owners near 37091 Marquette St in Westland, Westland Rotary Canine Corral provides a convenient spot to take their dogs. Open from 6am to 10pm daily, the park fits conveniently into different routines. More dog parks in the area include Rotary Park (2.3 miles) and Avondale Park (2.6 miles)—great options for mixing up your pup's routine."
  },
  {
    "name": "Wayne County Dog Park",
    "street": "31844 Edward N Hines Dr",
    "city": "Westland",
    "state": "MI",
    "zip": "48185",
    "latitude": 42.343346,
    "longitude": -83.355024,
    "description": "At 31844 Edward N Hines Dr in Westland, Wayne County Dog Park carries 4.1 stars from 137 dog owner reviews. Open from 7am to 9pm daily, dog owners have flexibility to plan a visit with their four-legged friends. For pups who want more adventure, Old Hines Park is a nearby dog park worth visiting (0.1 miles)."
  },
  {
    "name": "Palmer Park",
    "street": "1275 52nd St SWWyoming",
    "city": "‍ Wyoming",
    "state": "MI",
    "zip": "49509",
    "latitude": 42.8697858,
    "longitude": -85.6944491,
    "description": "Located at 1275 52nd St SW in Wyoming, Palmer Park earns strong marks from local dog owners—4.7 stars from 665 reviews. The steady stream of dog owner visits speaks to the park's appeal. Dog owners exploring the neighborhood can also bring their furry friends to 40th Street Park (1.5 miles)."
  },
  {
    "name": "Lemery Park",
    "street": "4050 Byron Center Ave SWWyoming",
    "city": "‍ Wyoming",
    "state": "MI",
    "zip": "49519",
    "latitude": 42.8912506,
    "longitude": -85.7242253,
    "description": "Lemery Park (4.5 stars from 523 reviews) is a popular destination for Wyoming dog owners, located at 4050 Byron Center Ave SW. Open from 7am to 12am daily, dog owners have plenty of flexibility to plan a visit. Dog owners exploring the neighborhood can also bring their furry friends to Ferrand Park (0.9 miles)."
  },
  {
    "name": "Pinery Park",
    "street": "2301 De Hoop AveWyoming",
    "city": "‍ Wyoming",
    "state": "MI",
    "zip": "49509",
    "latitude": 42.9218903,
    "longitude": -85.6970725,
    "description": "At 2301 De Hoop Ave in Wyoming, Pinery Park has built a loyal following—4.5 stars from 743 dog owner reviews. Open from 7am to 9pm daily, dog owners can plan visits around work or their pup's energy level. Dog owners can also take their pups to nearby Wyoming Parks & Recreation (0.6 miles) or Jackson Park (1.1 miles)."
  },
  {
    "name": "‍ Lamar Park",
    "street": "2561 Porter St SWWyoming",
    "city": "‍ Wyoming",
    "state": "MI",
    "zip": "49519",
    "latitude": 42.9212516,
    "longitude": -85.7295223,
    "description": "With 4.5 stars across 1,384 reviews, Lamar Park at 2561 Porter St SW has clearly won over Wyoming dog owners. This park has clearly won over local dog owners who return again and again with their furry friends. For variety, many dog owners also bring their furry friends to Millennium Park (1.5 miles)—another great dog park in the area."
  },
  {
    "name": "Jackson Park",
    "street": "3235 Robin Ave SWWyoming",
    "city": "‍ Wyoming",
    "state": "MI",
    "zip": "49509",
    "latitude": 42.9064333,
    "longitude": -85.7002265,
    "description": "At 3235 Robin Ave SW in Wyoming, Jackson Park carries 4.4 stars from 116 dog owner reviews. Open from 7am to 9pm daily, dog owners have flexibility to plan a visit with their four-legged friends. For dog owners who like to explore, Wyoming Parks & Recreation (0.6 miles) and Lions Park (0.8 miles) are both nearby parks to try with your dog."
  },
  {
    "name": "40th Street Park",
    "street": "1030 40th St SWWyoming",
    "city": "‍ Wyoming",
    "state": "MI",
    "zip": "49509",
    "latitude": 42.8914652,
    "longitude": -85.6908504,
    "description": "At 1030 40th St SW in Wyoming, 40th Street Park welcomes dog owners from the surrounding neighborhood. For dog owners in the neighborhood, this park offers a place to take their pups. For dog owners who like to explore, Lions Park (0.4 miles) and Jackson Park (1.1 miles) are both nearby parks to try with your dog."
  },
  {
    "name": "Wyoming Parks & Recreation",
    "street": "1155 28th St SWWyoming",
    "city": "‍ Wyoming",
    "state": "MI",
    "zip": "49509",
    "latitude": 42.9134844,
    "longitude": -85.6950351,
    "description": "Wyoming Parks & Recreation (1155 28th St SW) serves dog owners in the Wyoming neighborhood looking for a place to visit with their pups. Open from 7am to 5pm, Mon through Thu, dog owners in the area can work a visit into their day. Nearby dog parks worth exploring with your pup include Jackson Park (0.6 miles) and Pinery Park (0.6 miles)."
  },
  {
    "name": "Ferrand Park",
    "street": "4760 Byron Center Ave SWWyoming",
    "city": "‍ Wyoming",
    "state": "MI",
    "zip": "49519",
    "latitude": 42.8784559,
    "longitude": -85.7237146,
    "description": "Wyoming dog owners have access to Ferrand Park at 4760 Byron Center Ave SW for outings with their four-legged friends. Dog owners looking for a local destination will find this park accessible. Dog owners might also enjoy Lemery Park, another dog park just 0.9 miles away."
  },
  {
    "name": "Lions Park",
    "street": "Dunbar Ave SWWyoming",
    "city": "‍ Wyoming",
    "state": "MI",
    "zip": "49509",
    "latitude": 42.897666,
    "longitude": -85.6911498,
    "description": "In Wyoming, dog owners can find Lions Park—a local park worth exploring with their furry companions. Open from 7am to 5pm, Mon through Thu, dog owners have a window to spend time with their pups. For dog owners who like to explore, 40th Street Park (0.4 miles) and Jackson Park (0.8 miles) are both nearby parks to try with your dog."
  }
]