[
  {"name":"Rice Creek Off-Leash Dog Area","street":"5959 Lexington Ave N","city":"Shoreview","state":"MN","zip":"55126","latitude":45.1175942,"longitude":-93.1683467,"description":"The Rice Creek Off-Leash Dog Area in Shoreview, MN is a large, fully-fenced 13-acre dog park with two double-gated entrances and a gated swimming hole. Other features include paths, a prairie, sandy areas and trees. There are restrooms and a water fountain in the Lexington Ave parking lot.","bringfido_id":"14004"},
  {"name":"Dakota Woods Dog Park","street":"16470 Blaine Ave","city":"Rosemount","state":"MN","zip":"55068","latitude":44.7083097,"longitude":-93.0546196,"description":"Bring Fido to the 16-acre Dakota Woods Dog Park in Rosemount, MN. Pets will find plenty of room to exercise in this massive, fenced dog park featuring lots of wooded trails and double gates for added security. Bring water, and please note that a daily or annual dog pass is required.","bringfido_id":"2252"},
  {"name":"Battle Creek Dog Park","street":"2350 Upper Afton Rd","city":"Maplewood","state":"MN","zip":"55119","latitude":44.9406123,"longitude":-93.0043514,"description":"Battle Creek Dog Park is a spacious fully-enclosed 35-acre park for Fido to enjoy in Maplewood, MN. This plentiful space is free to use and visitors do not need a permit. The park has miles of wooded trails & walking paths, plenty of shaded areas and two small ponds where your pet can swim. Allow your companion to swim, explore and play off leash in this beautiful open area. There is no water at this site (except for the ponds) so visitors should also bring a bottle of drinking water.","bringfido_id":"1935"},
  {"name":"Minneapolis Airport Off-Leash Dog Park","street":"6040 28th Ave S","city":"Minneapolis","state":"MN","zip":"55417","latitude":44.8930504,"longitude":-93.2356867,"description":"Just south of Highway 62, the Minneapolis Airport Off-Leash Dog Park features year-round fun for you and Fido in 80 acres of mixed open space and paths bordering a large swamp/wetland area in Minneapolis, MN. Not all areas are fenced so dogs should have good recall. No permit is required. The land is owned by the Metropolitan Airport Commission and borders the airport runways. Since the park is not managed by the city, no amenities exist here (including trash receptacles). Bring water and waste bags with you, and please take them when you leave.","bringfido_id":"11860"},
  {"name":"Bloomington Off-Leash Recreation Area","street":"Nesbitt Ave & W 111th St","city":"Bloomington","state":"MN","zip":"55438","latitude":44.8026147,"longitude":-93.3611217,"description":"The Bloomington Off-Leash Recreation Area in Bloomington, MN is a dog's dream! This 25-acre dog park features a very large grassy area, hills, trees, separate fenced areas and even a pond for those pups that like to swim. A dog license is required to use the park.","bringfido_id":"645"},
  {"name":"Albert Lea Community Dog Park at Brookside Park","street":"501 Richway Dr W","city":"Albert Lea","state":"MN","zip":"56007","latitude":43.666081,"longitude":-93.373634,"description":"The Albert Lea Community Dog Park is located south of Brookside Boathouse in Brookside Park,  The off-leash dog park is divided into small dog and large dog zones. Facilities/amenities include plenty of shade, water, and parking available. The park is adjacent to a walking trail near Fountain Lake.","bringfido_id":"14031"},
  {"name":"River Road Dog Park","street":"5701-5899 W River Rd NW","city":"Rochester","state":"MN","zip":"55901","latitude":44.0877805,"longitude":-92.4802593,"description":"Bring Fido to blow off some steam at the River Road Dog Park in Rochester, MN. This park includes separate large, fenced dog runs, perfect for pups to socialize and roam off leash. Please remember to pick up after your pup.","bringfido_id":"14712"},
  {"name":"Higgins Dog Park","street":"715 E Channing Ave","city":"Fergus Falls","state":"MN","zip":"56537","latitude":46.2744366,"longitude":-96.0618353,"description":"Higgins Dog Park is a dog park in Fergus Falls, MN. Higgins Dog Park is an off-leash play area where owners can enjoy the park and the chance to socialize with other dog lovers. This park offers two play areas, where dogs are separated by personality types, rather than size. Owners must always carry a leash for their dogs, and spike collars are strictly prohibited; aggressive dogs and females in heat are prohibited from entering the park.","bringfido_id":"25809"},
  {"name":"Elm Creek Park Reserve Dog Off-Leash Area","street":"11750 Zachary Ln N","city":"Champlin","state":"MN","zip":"55316","latitude":45.1682468,"longitude":-93.4236697,"description":"Fido will find more than enough room to play at the Elm Creek Park Reserve Dog Off-Leash Area in Champlin, MN. This 29-acre, fenced dog park is in the middle of the gorgeous Elm Creek Reserve. The park features a separate area for small dogs and a fenced wetland pond. A daily or annual pass is required. Dogs must be leashed in all areas outside of the off-leash areas.","bringfido_id":"2398"},
  {"name":"Cleary Lake Dog Off-Leash Area","street":"6246 190th St E","city":"Prior Lake","state":"MN","zip":"55372","latitude":44.6779058,"longitude":-93.3968059,"description":"The Cleary Lake Dog Off-Leash Area in Prior Lake, MN is a 28-acre fenced off-leash dog park that is part of the Three Rivers Park District. Take your pet for a run in the lovely prairie setting, which includes a separately fenced pond for dog swimming. A permit from the park district administration is required.","bringfido_id":"2177"},
  {"name":"Crow-Hassan Dog Off-Leash Area","street":"27100 Territorial Rd","city":"Hanover","state":"MN","zip":"55374","latitude":45.2072977,"longitude":-93.6260871,"description":"The Crow-Hassan Dog Off-Leash Area in Hanover, MN is a 40-acre unfenced dog park at the Crow-Hassan Park Reserve. There is plenty of space for Fido to run around and blow off steam, but please make sure to stay near and clean up after him. A daily or annual pass is required.","bringfido_id":"9597"},
  {"name":"Dog Park at Brookdale Park","street":"7650 June Ave N","city":"Brooklyn Park","state":"MN","zip":"55443","latitude":45.092767,"longitude":-93.333828,"description":"Pets are welcome to run and play off leash at the dog park at Brookdale Park in Brooklyn Park, MN. This fully-fenced dog run features hills and open spaces. An entry fee is required.","bringfido_id":"2031"},
  {"name":"Indoor Zoomies","street":"10924 Greenbrier Rd","city":"Minnetonka","state":"MN","zip":"55305","latitude":44.9513872,"longitude":-93.4183939,"description":"Indoor Zoomies in Minnetonka, MN is a dog park exclusively for small dogs 30 pounds and under. The play area is fully fenced in and has ramps for your dog to play on. There are also chairs for you to sit at and watch your pup. Fido can join in on the fun once they are registered and upload vet records on the site. They offer a Daily Pass, a 5 Pass Pack, and a 10 Pass Pack.","bringfido_id":"31688"},
  {"name":"Waggin' Tails Dog Park","street":"US-12 & 22nd St S","city":"Benson","state":"MN","zip":"56215","latitude":45.3081686,"longitude":-95.6137177,"description":"The Waggin' Tails Dog Park in Benson, MN is an off-leash, fenced-in area that is about two acres in size. This pup recreation area features running fresh water, separate fenced-in areas for small and large dogs, nighttime lighting, seating for humans, a dog pond and community dog toys. The park is sponsored and maintained by the Humane Society of Swift County.","bringfido_id":"10194"},
  {"name":"Andy's Bark Park","street":"11664 Dale Rd","city":"Woodbury","state":"MN","zip":"55129","latitude":44.881971,"longitude":-92.872327,"description":"Andy's Bark Park is an off-leash dog park in Woodbury, MN. The park has a pet watering station, pet waste disposal stations, mowed walking trails, benches, a sheltered area with picnic tables, and a portable restroom. Be careful as the area is not fully fenced.","bringfido_id":"1549"},
  {"name":"Anytime Puppy Playground","street":"6950 146th St W #120","city":"Apple Valley","state":"MN","zip":"55124","latitude":44.7369997,"longitude":-93.2084031,"description":"Fido can run and play with his friends at Anytime Puppy Playground in Apple Valley, MN. This 24-hour, membership-based dog park is fully indoors and can be accessed anytime using your phone. Please remember to clean up after your pup and read the park rules online in advance.","bringfido_id":"38340"},
  {"name":"Dog Park at Bald Eagle-Otter Lakes Regional Park","street":"5750 Otter Lake Rd","city":"White Bear Lake","state":"MN","zip":"55110","latitude":45.110826,"longitude":-93.0433736,"description":"Bring your pet to play off leash at the 10-acre, fully-fenced dog park at Bald Eagle-Otter Lakes Regional Park in White Bear Lake, MN. They offer designated small dog hours from 6:00 PM-7:00 PM on Tuesdays and 10:00 AM-11:00 AM on Saturdays.","bringfido_id":"3156"},
  {"name":"Plymouth Dog Park","street":"17005 Chankahda Trl","city":"Plymouth","state":"MN","zip":"55446","latitude":45.0601012,"longitude":-93.5003371,"description":"The Plymouth Dog Park located in Plymouth, MN is the largest in the city, featuring a drinking fountain, a picnic shelter, a portable restroom, trails and a fenced area for small dogs. The off-leash area is bordered by private property. Please respect the surrounding neighbors and keep your pets within the confines of the dog park.","bringfido_id":"1564"},
  {"name":"High Bridge Dog Park","street":"59 Randolph Ave","city":"St. Paul","state":"MN","zip":"55102","latitude":44.9363532,"longitude":-93.108564,"description":"High Bridge Dog Park, located at the site of a former coal power plant in St. Paul, MN, is a fully-fenced, seven-acre dog park with plenty of space for your pup to romp off leash. The dog park entrance is on the westernmost end of the park, near the parking lot","bringfido_id":"14573"},
  {"name":"Lake Sarah Dog Off-Leash Area","street":"6670 W Lake Sarah Dr","city":"Rockford","state":"MN","zip":"55373","latitude":45.0690137,"longitude":-93.7122167,"description":"Pets will go wild for the Lake Sarah Dog Off-Leash Area in Rockford, MN. This 30-acre fenced dog park includes trails, grassy spaces and play areas for Fido to run around off leash.","bringfido_id":"2823"},
  {"name":"Lake Chase Park Dog Park","street":"1915 State Ave","city":"Owatonna","state":"MN","zip":"55060","latitude":44.1031916,"longitude":-93.2438163,"description":"Bring your pet to play off-leash at the dog park at Lake Chase Park in Owatonna, MN, which includes a separate small dog area, walking paths, play pieces for dogs, lights, a fire hydrant, running water and shade.","bringfido_id":"3161"},
  {"name":"Dog Park at Perry Park","street":"3700 New Brighton Rd","city":"Arden Hills","state":"MN","zip":"55112","latitude":45.052783,"longitude":-93.180142,"description":"Bring Fido to play at the dog park located within Perry Park in Arden Hills, MN. This dog park was converted from an old baseball field into a fenced, off-leash area for Fido to exercise, socialize and play fetch. There is a double gate security system to ensure all dogs stay safe entering and exiting. Make sure to leash Fido back up when returning to the larger Perry Park.","bringfido_id":"14817"},
  {"name":"Dog Park at Pinecone Central Park","street":"1105 Central Park Blvd","city":"Sartell","state":"MN","zip":"56377","latitude":45.6366452,"longitude":-94.2296508,"description":"Bring Fido to play and exercise at the dog park at Pinecone Central Park in Sartell, MN. This full-fenced area is tucked into the corner of the park, down a gravel trail, with signage at the entrance. Be sure to bring some water for Fido and have proof of their rabies vaccination.","bringfido_id":"13101"},
  {"name":"Dog Park at Southbridge Community Park","street":"7101 Southbridge Pkwy","city":"Shakopee","state":"MN","zip":"55379","latitude":44.7800185,"longitude":-93.4310072,"description":"Bring Fido to blow off some steam at the dog park at Southbridge Community Park in Shakopee, MN. This park features a 10-acre all-dog area, a half-acre small dog run, a water station and walking paths. The fee to use the park is included in the City of Shakopee dog license. Please make sure your dog is properly licensed and read all rules and regulations before visiting the park","bringfido_id":"13422"},
  {"name":"Lake Minnewashta Off-Leash Dog Area","street":"6730 Ches Mar Dr","city":"Excelsior","state":"MN","zip":"55331","latitude":44.8828793,"longitude":-93.6076174,"description":"The Lake Minnewashta Off-Leash Dog Area in Excelsior, MN, is home to about .8 miles of walking trails, a fenced pond, a separate area for small dogs, two large open spaces for interactive play with other dogs, and a water fountain for humans and pets. Pups must be licensed and vaccinated. Please clean up after your pet.","bringfido_id":"18767"},
  {"name":"Watertown Dog Park","street":"11695 County Rd 20","city":"Watertown","state":"MN","zip":"55388","latitude":44.9608429,"longitude":-93.824449,"description":"Bring Fido to the Watertown Dog Park, featuring four acres of rolling terrain, tree canopy and small wetlands in Watertown, MN. This park includes completely fenced small and large dog run areas with vestibule entrances, potable water, waste bags and seating areas. This attraction is located adjacent to the Luce Line Trail and Paul Avenue with easy access to downtown and the Crow River.","bringfido_id":"14182"},
  {"name":"Monti Paws Dog Park","street":"6138-6500 Old State Hwy 152","city":"Monticello","state":"MN","zip":"55362","latitude":45.2865034,"longitude":-93.7621589,"description":"Monti Paws Dog Park, located inside Meadow Oak Park, is a dog-friendly recreation area in Monticello, MN. There are two entrances to the park, one on the east side and one on the west side, and both are double-gated to allow for unleashing your pets before entering the park. The small dog area is limited to dogs weighing less than 25 pounds and features a smaller open grassy play area, a bench and a shade tree. The designated space for large dogs welcomes pups of all sizes and features an open grassy play area, watering station, benches, picnic tables and mature shade trees on the east side.","bringfido_id":"18769"},
  {"name":"Rivertown Dog Park","street":"851 10th St E","city":"Hastings","state":"MN","zip":"55033","latitude":44.7355406,"longitude":-92.8405023,"description":"Rivertown Dog Park in Hastings, MN, offers three different areas for Fido to play. Parking and dog waste bags are available. All dogs must be licensed, vaccinated and be wearing up-to-date license tags at all times.","bringfido_id":"13514"},
  {"name":"Dog Park at Lions Park","street":"1336 22nd St SW","city":"Willmar","state":"MN","zip":"56201","latitude":45.1083862,"longitude":-95.0732962,"description":"Bring Fido to run around, socialize and blow off steam at the dog park at Lions Park in Willmar, MN. This 2.5-acre off-leash dog recreation area is completely fenced and includes large and small dog sections, pet waste bags and a trash container. A shelter area and water faucet (seasonal) are also located on site.","bringfido_id":"14160"},
  {"name":"Buster Park","street":"Jenny St and E River Rd","city":"Brainerd","state":"MN","zip":"56401","latitude":46.3449317,"longitude":-94.2088697,"description":"Buster Park is a pet-friendly recreation area in Brainerd, MN. This fenced-in dog park is installed at the south end of the Kiwanis Park. The area offers 47,000 square feet for your dog to explore! There are picnic tables, and large trees create plenty of shade to keep you and Fido cool during warmer weather.","bringfido_id":"18764"},
  {"name":"City of Hutchinson Dog Park","street":"427 1st Ave SE","city":"Hutchinson","state":"MN","zip":"55350","latitude":44.8911662,"longitude":-94.3632841,"description":"Bring Fido to the City of Hutchinson Dog Park to romp off-leash in Hutchinson, MN! The park features a small dog area, a large dog area, grass, benches, a water source, dog waste stations and more. Water is shut off during the winter season. Rules and driving directions can be found on the dog park's official website.","bringfido_id":"16301"},
  {"name":"Motley Pet Stop & Rec Area","street":"1st Ave S","city":"Motley","state":"MN","zip":"56466","latitude":46.3373585,"longitude":-94.6452968,"description":"Bring Fido to play at the off-leash Motley Pet Stop & Rec Area in Motley, MN. This dog park is located behind the BP station on Main Street and offers a fenced area for your pup to enjoy. There are no trees providing shade, so be sure to bring along plenty of water for Fido.","bringfido_id":"14785"},
  {"name":"Off-Leash Dog Park at Roosevelt Park","street":"7644 4th Ave S","city":"Richfield","state":"MN","zip":"55423","latitude":44.864331,"longitude":-93.2706222,"description":"Fido is invited to play at the Off-Leash Dog Park within Roosevelt Park in Richfield, MN. This fully fenced-in facility offers separate spaces for small and large breeds. Amenities include grooming stations, accessible picnic tables, lights and a fun pet photo booth.","bringfido_id":"34484"},
  {"name":"River Oaks Dog Park","street":"100 River Oaks Pt","city":"Moorhead","state":"MN","zip":"56560","latitude":46.8331284,"longitude":-96.7914695,"description":"River Oaks Dog Park is a recreational area in Moorhead, MN. The park features two separate areas for small and large dogs and dog agility equipment. There's also a bench and a picnic table. Dog owners are reminded to bring water for their pets. There are walking paths surrounding the park.","bringfido_id":"31195"},
  {"name":"Clearwater / Pleasant Regional Park Off-Leash Pet Area","street":"10909 90th St NW","city":"Annandale","state":"MN","zip":"55302","latitude":45.2832393,"longitude":-94.1149716,"description":"Bring Fido to get some exercise at the Clearwater / Pleasant Regional Park Off-Leash Pet Area in Annandale, MN. This pup recreation space features a short trail and an unfenced open grassy area. Please note the pet-friendly area is not gated, so it is reserved for well-behaved pups with good recall. The space can be accessed by parking in the Disc Golf parking lot.","bringfido_id":"34609"},
  {"name":"Thompson Dog Park","street":"1125 N Swift St","city":"Saint Peter","state":"MN","zip":"56082","latitude":44.3389497,"longitude":-93.9618699,"description":"Thompson Dog Park in Saint Peter, MN, features two separate areas for large and small dogs to run and play off leash. The park is fully fenced with a double-gated entrance. There are benches, picnic tables, a watering station for pets and a waste removal station.","bringfido_id":"39115"},
  {"name":"Saint Bark","street":"1145 Snelling Ave N","city":"St. Paul","state":"MN","zip":"55108","latitude":44.9756751,"longitude":-93.1681884,"description":"Saint Bark in St. Paul, MN, is an indoor and outdoor dog park where pups can play off-leash while owners relax with local brews, ciders, and seltzers. Enjoy supervised play, big-screen TVs, food trucks and complimentary Wi-Fi in a community-focused space. Entry is per dog; max two dogs per person. Guests must be 18+ for safety.","bringfido_id":"42496"},
  {"name":"Dog Park at Staring Lake Park","street":"13800 Pioneer Trl","city":"Eden Prairie","state":"MN","zip":"55347","latitude":44.8291461,"longitude":-93.4477632,"description":"Visit the dog park at Staring Lake Park, a 5.7-acre off-leash area in Eden Prairie, MN. The park features include grassy open areas, natural walking paths and lovely wooded trails. This park closes after the first sufficient snow fall of the year to utilize the area as a Nordic ski trail, and is only open mid-March to December.","bringfido_id":"3545"},
  {"name":"Fish Lake Regional Park Dog Off-Leash Area","street":"14900 Bass Lake Rd","city":"Maple Grove","state":"MN","zip":"55311","latitude":45.080896,"longitude":-93.465482,"description":"Dogs can run and play in the seven-acre haven at the Fish Lake Regional Park Dog Off-Leash Area in Maple Grove, MN, which features a walking area as well as a smaller running area for small breeds.","bringfido_id":"13365"},
  {"name":"Jean & Carl Frank Canine Park","street":"1839 Pinewood Rd SE","city":"Rochester","state":"MN","zip":"55904","latitude":43.990672,"longitude":-92.4420197,"description":"The Jean & Carl Frank Canine Park in Rochester, MN is a large open space for dogs to play off leash. The park is equipped with a variety of agility equipment, including tunnels, bridges and more. Humans can watch from benches provided under the shade of trees. Be careful as sections of the park are not fully fenced. These sections lead to paved walking trails that you can also explore with your pooch. Dog owners are reminded to clean up any mess left behind.","bringfido_id":"2736"},
  {"name":"Jean Duluth Dog Park","street":"3567 Riley Rd","city":"Duluth","state":"MN","zip":"55803","latitude":46.872864,"longitude":-92.0493854,"description":"Jean Duluth Dog Park is a 3.5-acre fenced park at the northern edge of Duluth, MN. It has a double-gated entry and a separate area for dogs up to 20 pounds.","bringfido_id":"14325"},
  {"name":"Hibbing Dog Park","street":"666-698 Greyhound Blvd","city":"Hibbing","state":"MN","zip":"55746","latitude":47.4322635,"longitude":-92.9434522,"description":"Pets will love to play off leash at the Hibbing Dog Park in Hibbing, MN. This fully fenced dog park includes a separate area for smaller pets.","bringfido_id":"3095"},
  {"name":"Dog Park at Homeward Hills Park","street":"12000 Silverwood Dr","city":"Eden Prairie","state":"MN","zip":"55347","latitude":44.8205287,"longitude":-93.4299615,"description":"Pets are welcome to run and play off leash at the dog park at Homeward Hills Park in Eden Prairie, MN. This fenced recreation area is open seasonally, from April-October, as it is used as a hockey rink during the winter months.","bringfido_id":"2666"},
  {"name":"Minnehaha Off-Leash Dog Park","street":"5399 Minnehaha Park Dr S","city":"Minneapolis","state":"MN","zip":"55417","latitude":44.9060085,"longitude":-93.2009502,"description":"The Minnehaha Off-Leash Dog Park in Minneapolis, MN spans more than six acres and features a doggy beach to let your pup roam, socialize, splash and play. An off-leash permit is required to gain admittance. Pups must be leashed at all times when not in the designated off-leash area. Please note that the park is partially fenced.","bringfido_id":"32608"},
  {"name":"Fairmont Dog Park","street":"1450 S Prairie Ave","city":"Fairmont","state":"MN","zip":"56031","latitude":43.6348892,"longitude":-94.4565587,"description":"Bring Fido to blow off some steam at the Fairmont Dog Park, located adjacent to the walk/bike/run trail system and the Aquatic Park in Fairmount, MN. This 1.5-acre off-leash pup recreation area has a double-gated entryway with separate areas for small and large dogs. Dog owners are reminded to clean up any less that is left behind.","bringfido_id":"13297"},
  {"name":"Gary Mattson Dog Park","street":"633 County Rd 35 W","city":"Buffalo","state":"MN","zip":"55313","latitude":45.1739918,"longitude":-93.9060801,"description":"Gary Mattson Dog Park in Buffalo, MN, features a large off-leash fenced area where Fido can romp and play. There is a covered shelter with a picnic table where pet parents can rest. Leashed dogs can cool off in the water at Buffalo Lake, which is mere steps from the dog park.","bringfido_id":"27108"},
  {"name":"Hackensack Dog Park","street":"420 Lake Ave","city":"Hackensack","state":"MN","zip":"56452","latitude":46.9307243,"longitude":-94.5145736,"description":"Bring Fido to Hackensack Dog Park in Hackensack, MN. This fenced, off-leash dog park is located within Bonna Park, and provides pups a safe place to run and play. The dog park has a water source for dogs to stay hydrated as they romp with their friends. Please note that dogs must be leashed until they reach the dog park.","bringfido_id":"29507"},
  {"name":"Eveleth Dog Park","street":"701-1099 Fayal Ave","city":"Eveleth","state":"MN","zip":"55734","latitude":47.4730059,"longitude":-92.5361148,"description":"Fido can enjoy time off-leash at Eveleth Dog Park in Eveleth, MN. This fenced dog park features trees, shade, big rocks, benches and waste receptacles. Please note that a permit and fee are required to utilize this dog park.","bringfido_id":"33913"},
  {"name":"Breckenridge Dog Park","street":"504 Beede Ave","city":"Breckenridge","state":"MN","zip":"56520","latitude":46.268309,"longitude":-96.5897988,"description":"Breckenridge Dog Park is a great place to let Fido play off leash. The park features a 6-foot fence with double gates and includes a small and large dog area, doggy waste station, seating, and a bike rack. Dog owners are reminded to clean up any mess that is left behind in the park. Breckenridge Dog Park is open every day of the week from dawn until dusk.","bringfido_id":"25173"},
  {"name":"Dog Park at Pomme De Terre","street":"230th St","city":"Morris","state":"MN","zip":"56267","latitude":45.5713117,"longitude":-95.8821557,"description":"Fido is invited to play at the dog park at Pomme De Terre in Morris, MN. The off-leash facility features two separate sections for large and small dogs. Amenities include agility equipment, water buckets and tennis balls, which visitors provide.","bringfido_id":"39099"},
  {"name":"Jackson Dog Park","street":"101 1st St","city":"Jackson","state":"MN","zip":"56143","latitude":43.6186426,"longitude":-94.9867563,"description":"Fido is invited to play at the Jackson Dog Park located in Jackson, MN. This off-leash area features two designated sections with a water fountain for you and your pup, as well as agility equipment. Shade and seating opportunities are available.","bringfido_id":"41800"},
  {"name":"Carver Park Reserve Dog Off-Leash Area","street":"7200 Park Dr","city":"Victoria","state":"MN","zip":"55386","latitude":44.874198,"longitude":-93.6563438,"description":"Carver Park Reserve Dog Off-Leash Area is a 27-acre, completely fenced dog park with a separate area for small dogs. There is no water supply, so bring drinking water for your dog and yourself. A daily or annual pass is required. Don't forget to clean up any mess that is left behind and to keep your pup under control at all times","bringfido_id":"2095"},
  {"name":"Savage Dog Park","street":"12425 Xenwood Ave","city":"Savage","state":"MN","zip":"55378","latitude":44.7779117,"longitude":-93.3538559,"description":"Bring Fido to blow off some steam at the Savage Dog Park, which consists of more than two acres of fenced-off open space in Savage, MN. It includes separate areas for small and large dogs, four mailboxes that contain poop bags, running water during warm weather and dog toys.","bringfido_id":"11808"},
  {"name":"Bryant Lake Dog Off-Leash Area","street":"6402 Rowland Rd","city":"Eden Prairie","state":"MN","zip":"55344","latitude":44.8863933,"longitude":-93.4341104,"description":"Dogs go wild for the nine-acre, fully-fenced Bryant Lake Dog Off-Leash Area in Eden Prairie, MN. The site features a double-gated entry and includes an area for small dogs. Shelter and water are available. A daily or annual pass is required.","bringfido_id":"2042"},
  {"name":"Arlington Arkwright Dog Park","street":"400 Arlington Ave E","city":"St. Paul","state":"MN","zip":"55130","latitude":44.9825415,"longitude":-93.0835774,"description":"Nestled in a residential neighborhood in St. Paul MN, the Arlington Arkwright Dog Park is a 4.5-acre park offering people and pets an opportunity to engage in social interaction and play. Dogs can be off leash in this fully-fenced area, and there are wooded trails and plenty of open space to run.","bringfido_id":"726"},
  {"name":"Dog Park at Kiwanis Recreation Area","street":"2301 US-169","city":"Mankato","state":"MN","zip":"56001","latitude":44.197591,"longitude":-94.017257,"description":"Visit the two large, fenced-in dog parks at the Kiwanis Recreation Area in Mankato, MN. Pups are free to play and run off leash at this park featuring tons of grass and trees. Poop bags are also provided.","bringfido_id":"321"},
  {"name":"Lowertown Dog Park","street":"386 Broadway St","city":"St. Paul","state":"MN","zip":"55101","latitude":44.9509838,"longitude":-93.0880852,"description":"The Lowertown Dog Park in St. Paul, MN is a completely fenced-in area located near CHS Field. Dogs are welcome to run around off leash. Please note all pups must be licensed and vaccinated. Make sure to clean up after your pet.","bringfido_id":"12890"},
  {"name":"Stewartville Dog Park","street":"20th St NE","city":"Stewartville","state":"MN","zip":"55976","latitude":43.8685038,"longitude":-92.4894274,"description":"Stewartville Dog Park is a dog-friendly recreation area in Stewartville, Minnesota. The fenced-in area is a great place for dogs to socialize and play. Dog owners must have a leash with them at all times while hanging out at the park.","bringfido_id":"18254"},
  {"name":"Ritter Farm Dog Park","street":"19300 Ritter Pkwy Trl","city":"Lakeville","state":"MN","zip":"55044","latitude":44.6677344,"longitude":-93.2952661,"description":"Ritter Farm Dog Park is a dog-friendly greenspace in Lakeville, MN. The heavily forested park is near a lake and offers a large fenced run with water fountains for pups and people. There are 18 parking spots and a portable restroom on site.","bringfido_id":"25989"},
  {"name":"Nymore Dog Park","street":"625 Miles Ave SE","city":"Bemidji","state":"MN","zip":"56601","latitude":47.455743,"longitude":-94.852756,"description":"Bring Fido to play at the Nymore Dog Park in Bemidji, MN. This fenced dog park is separated into two sections, one for small dogs and one for large dogs, to ensure that all pups have a fun, safe visit. Remember to leash Fido back up when exiting the park.","bringfido_id":"14783"},
  {"name":"Dog Park","street":"1700 E Rum River Dr S","city":"Cambridge","state":"MN","zip":"55008","latitude":45.5579558,"longitude":-93.2373012,"description":"Dog Park is an off-leash recreation area in Cambridge, MN with tons of open space and ample shade. Dogs must be on a leash until safely within the confines of the park. Owners must keep leashes with them at all times and have voice-control over their pets. Please make sure to pick up after your pup.","bringfido_id":"18861"},
  {"name":"Dog Park at Bassett Creek Park","street":"6029 32nd Ave N","city":"Crystal","state":"MN","zip":"55422","latitude":45.0145837,"longitude":-93.3568589,"description":"Dogs are welcome to run and play off leash at the dog park at Bassett Creek Park in Crystal, MN. The area is grass covered with tall, shady trees and includes separate spaces for large and small dogs. Please make sure your pup is leashed at all times when not in the dog park.","bringfido_id":"1932"},
  {"name":"Loring Park Off-Leash Dog Park","street":"1382 Willow St","city":"Minneapolis","state":"MN","zip":"55403","latitude":44.9689455,"longitude":-93.2853391,"description":"City dogs will love the chance to play and run off leash at the Loring Park Off-Leash Dog Park in Minneapolis, MN. The designated area is in the northeast section of this public park, which includes grass, boulders, a bridge, gravel and trees. A permit is required.","bringfido_id":"2887"},
  {"name":"Victory Prairie Off-Leash Dog Park","street":"4701 Russell Ave N","city":"Minneapolis","state":"MN","zip":"55412","latitude":45.040071,"longitude":-93.312411,"description":"Visit the Victory Prairie Off-Leash Dog Park in Minneapolis, MN. This pup recreation area features 2.5 acres, all fenced in, mostly grass, with a few gravel paths and wood chips by the picnic tables. Water is not provided, so make sure to bring enough for you and Fido. The entrance to this park is ADA-compliant.","bringfido_id":"10802"},
  {"name":"St. Anthony Parkway Off-Leash Dog Park","street":"700 St Anthony Pkwy","city":"Minneapolis","state":"MN","zip":"55418","latitude":45.0257032,"longitude":-93.2472552,"description":"Bring Fido to blow off some steam at the St. Anthony Parkway Off-Leash Dog Park in Minneapolis, MN. This 2-acre, completely fenced off-leash park includes mulch ground cover and shade trees. Remember to bring water. A daily or annual permit is required.","bringfido_id":"3535"},
  {"name":"Kaposia Landing Dog Park","street":"800 Bryant Ave","city":"South St. Paul","state":"MN","zip":"55075","latitude":44.9152847,"longitude":-93.0548886,"description":"Your pet will love to run off leash at the 6.3-acre fully-fenced, grassy Kaposia Landing Dog Park in South St. Paul, MN, which includes picnic tables and shade areas. There is also seasonal running water on site. Membership from the city is required.","bringfido_id":"2760"},
  {"name":"Two Harbors Dog Park","street":"301 8th Ave","city":"Two Harbors","state":"MN","zip":"55616","latitude":47.0273472,"longitude":-91.6665292,"description":"Two Harbors Dog Park is a public dog area for you and your pup to socialize and exercise safely off leash in Two Harbors, MN. This dog park is open seasonally from June-November and is located in the practice rink behind Lake County Arena.","bringfido_id":"12178"},
  {"name":"Lyndale Farmstead Off-Leash Dog Park","street":"3845 Dupont Ave S","city":"Minneapolis","state":"MN","zip":"55409","latitude":44.9326464,"longitude":-93.295696,"description":"Lyndale Farmstead Off-Leash Dog Park is one of seven dog-friendly recreation areas in the Minneapolis, MN area. There are benches and shaded areas for humans to enjoy while pets run around the park. Please note that the ground at this dog area is crushed granite, and some pup's paws may be sensitive to this surface. A daily or annual permit is required.","bringfido_id":"16407"},
  {"name":"Susan E. Lurton Nature Park and Off Leash Dog Park","street":"3580 Wayzata Blvd","city":"Long Lake","state":"MN","zip":"55356","latitude":44.9909119,"longitude":-93.6155283,"description":"Susan E. Lurton Nature Park and Off Leash Dog Park is a 39-acre park located on the southwestern shore of Lake Classen in Long Lake, MN. The park offers trails for walking Fido, benches and parking. Please note that an annual pass is required.","bringfido_id":"30321"},
  {"name":"WAG Farms Dog Park","street":"9475 Glendenning Rd","city":"Cottage Grove","state":"MN","zip":"55016","latitude":44.8120336,"longitude":-92.9338509,"description":"WAG Farms Dog Park is a pet-friendly volunteer-run dog park in Cottage Grove, MN featuring grasslands, wooded areas and a pond. There's a special area just for small dogs, too. Throughout the 14 acres, thereâ€™s space for a game of fetch and a general wander together.","bringfido_id":"18789"},
  {"name":"Lauderdale Dog Park","street":"1885 Fulham St","city":"Lauderdale","state":"MN","zip":"55113","latitude":44.9984773,"longitude":-93.2010145,"description":"Lauderdale Dog Park is a small fenced-in dog park located in the northeast corner of the Community Park in Lauderdale, MN. Dogs are welcome to play with their friends and get some exercise in this park.","bringfido_id":"18768"},
  {"name":"Pooch Playland Dog Park","street":"Victor St","city":"Alexandria","state":"MN","zip":"56308","latitude":45.8816456,"longitude":-95.3533016,"description":"Fido will love to explore and romp at Pooch Playland Dog Park in Alexandria, MN. This secluded park overlooks Lake Connie and has two fenced areas. Vibrant green grass makes the perfect stomping ground for pups who like to make friends and play fetch! Dog owners are reminded to clean up any mess that dogs leave behind.","bringfido_id":"19444"},
  {"name":"Prairie Island Dog Park","street":"Prairie Island Rd","city":"Winona","state":"MN","zip":"55987","latitude":44.0778889,"longitude":-91.6844722,"description":"Bring Fido to blow off some steam at the Prairie Island Dog Park in Winona, MN. This off-leash dog park is home to an area for smaller and less active dogs, as well as a fairly big area for bigger and more active dogs. There are some trees that will provide a nice shade for dogs, too.","bringfido_id":"19297"},
  {"name":"Hackensack Dog Park","street":"401 Lake Ave","city":"Hackensack","state":"MN","zip":"56452","latitude":46.9299916,"longitude":-94.5166377,"description":"Hackensack Dog Park in Hackensack, MN, welcomes Fido to join you on just under an acre of fenced-in land. Your pup can enjoy some exercise and socialization with other four-legged visitors. Park amenities include benches and a water source where you can fill up Fido's bowl.","bringfido_id":"29837"},
  {"name":"Dog Park at Jessens Park","street":"Jessens Dr & Gladiola Dr","city":"St. Charles","state":"MN","zip":"55972","latitude":43.958556,"longitude":-92.051097,"description":"The dog park at Jessens Park welcomes Fido to enjoy some off-leash exercise and fresh air in St. Charles, MN. Partnering with the St. Charles Lions, this city park provides a fenced area for visiting canines to explore and socialize with one another along with a shaded bench for pet parents.","bringfido_id":"39523"},
  {"name":"Indoor Zoomies","street":"10924 Greenbrier Rd","city":"Minnetonka","state":"MN","zip":"55305","latitude":44.9513872,"longitude":-93.4183939,"description":"Bring Fido for some fun at Indoor Zoomies in Minnetonka, MN. This indoor dog park is exclusive for small dogs under 30 pounds. This indoor space does require an entrance fee, and both daily passes and pass packs are available.","bringfido_id":"32391"},
  {"name":"Woodview Off-Leash Dog Park","street":"481 Larpenteur Ave W","city":"Roseville","state":"MN","zip":"55113","latitude":44.9921746,"longitude":-93.1203165,"description":"The Woodview Off-Leash Dog Park in Roseville, MN, is a cooperative project between the City of Roseville and Ramsey County. Dogs without a leash can exercise in two soft trail areas. Both spaces are fully fenced, making them perfect areas for off-leash play.","bringfido_id":"3847"},
  {"name":"Lake of the Isles Off-Leash Dog Park","street":"2845 W Lake of the Isles Pkwy","city":"Minneapolis","state":"MN","zip":"55408","latitude":44.9543228,"longitude":-93.3146139,"description":"Bring Fido to blow off some steam at the Lake of the Isles Off-Leash Dog Park in Minneapolis, MN. This 1.87-acre completely fenced dog area features a separate space for small dogs, so everyone can play safely. Please make sure to pick up after your pet and read all rules and regulations before arriving.","bringfido_id":"2821"},
  {"name":"Dog Park at Bunker Hills Regional Park","street":"Hanson Blvd & 133rd Ave","city":"Andover","state":"MN","zip":"55448","latitude":45.2087464,"longitude":-93.3122325,"description":"Bring Fido to the dog park at Bunker Hills Regional Park in Andover, MN. This 6.5-acre park has a small and large dog run, an open play area and a short trail for those that want to walk with their dog. This park is free to use. Remember to bring water for your pup.","bringfido_id":"18763"},
  {"name":"Swanson Dog Park","street":"9150 Central Ave NE","city":"Blaine","state":"MN","zip":"55434","latitude":45.136951,"longitude":-93.236677,"description":"Bring Fido to run around and socialize at the Swanson Dog Park in Blaine, MN. This fenced dog recreation area features separate large and small dog runs, shelters with heaters and power, picnic tables, clean bag containers, drinking fountains and a security light.","bringfido_id":"18760"},
  {"name":"Love's Travel Stop","street":"8078 Crossing Dr","city":"Rockville","state":"MN","zip":"56301","latitude":45.5121929,"longitude":-94.2878185,"description":"Love's Travel Stop in Rockville, MN is a dog-friendly gas station and rest area. Across America, you'll find Love's Travel Stops that offer facilities for traveling canines. This location has a fully-fenced dog park with a convenient waste station.","bringfido_id":"29103"},
  {"name":"Loyalty Dog Park","street":"111 S A St","city":"Marshall","state":"MN","zip":"56258","latitude":44.4437018,"longitude":-95.7883534,"description":"The Loyalty Dog Park is an enclosed, off-leash canine, exercise area located in Marshall, MN. It's owned and operated by the City of Marshall. Some of the amenities at the Marshall Area Dog Run include a double-gated entrance, designated areas for large and small breed dogs, watering stations, benches, tables, fire hydrants and shaded areas.","bringfido_id":"25135"},
  {"name":"Brew Park","street":"2605 Fernbrook Ln N #J","city":"Plymouth","state":"MN","zip":"55447","latitude":45.008758,"longitude":-93.4624044,"description":"Brew Park is a unique attraction in Plymouth, MN, featuring an indoor dog park and restaurant. Canine companions can access the membership-only turfed park area to enjoy off-leash fun. The enclosed space features park rangers and a separate area for small pups. Visitors can also treat themselves to a bite from The Barkery, where Fido can chow down on a snack from the dog menu, like pumpkin bones or a doggy brew. Owners can enjoy options such as BBQ pork sliders, pickle chicken flatbread, or a BLT caprese baguette with beer, wine, or seltzer.","bringfido_id":"40481"},
  {"name":"Cannon Falls Dog Park","street":"825 Cannon River Ave","city":"Cannon Falls","state":"MN","zip":"55009","latitude":44.5162691,"longitude":-92.8882013,"description":"Fido is welcome to play at Cannon Falls Dog Park in Cannon Falls, MN. The off-leash area offers a fully fenced, grassy space for small and large dogs, as well as two play tunnels. Upon arriving, you'll notice the dog park is located next to the baseball fields.","bringfido_id":"40396"},
  {"name":"Alimagnet Dog Park","street":"1200 Alimagnet Pkwy #2","city":"Burnsville","state":"MN","zip":"55337","latitude":44.743508,"longitude":-93.253697,"description":"Alimagnet Dog Park is the perfect place to let your dog run free in Burnsville, MN. It features a seven-acre off-leash fenced area, a double-gated entry, a pond, an open grass area, a wood-mulch walking path, a wooded area, picnic tables, benches, waste bags and trash containers. Park rules include picking up after your dog and filling any holes that your dog may dig. All dogs must enter and exit the park on a leash. Any aggressive behavior will not be tolerated.","bringfido_id":"47"},
  {"name":"Keene Creek Dog Park","street":"Bristol St & 63rd Ave W","city":"Duluth","state":"MN","zip":"55807","latitude":46.7343176,"longitude":-92.178635,"description":"Pets will love to run and play off leash at the Keene Creek Dog Park in Duluth, MN. This fully-fenced dog park features a separate area for dogs under 20 pounds and running water in the warmer months.","bringfido_id":"2771"},
  {"name":"Wilson Park Off Leash Pet Exercise Area","street":"625 Riverside Dr NE","city":"St Cloud","state":"MN","zip":"56303","latitude":45.5585529,"longitude":-94.1695912,"description":"Bring Fido to run and play at the Wilson Park Off Leash Pet Exercise Area, located in St Cloud, MN. The dog park area is at the south end of the park and is surrounded by chain link fencing on three sides, with the fourth side open to river access. Visitors are required to have an Off-Leash Pet Exercise Areas (OLPEA) permit.","bringfido_id":"3826"},
  {"name":"Whitney Dog Park","street":"1566 Forest Dr","city":"St Cloud","state":"MN","zip":"56303","latitude":45.5859569,"longitude":-94.1804938,"description":"Your pup will love to run and make friends at Whitney Dog Park in St Cloud, MN. This fenced, off-leash park requires an Off-Leash Pet Exercise Areas (OLPEA) permit. Fido will love the fresh air and view of the Sauk River.","bringfido_id":"9635"},
  {"name":"Flying Cloud Drive Dog Park","street":"7171 Flying Cloud Dr","city":"Eden Prairie","state":"MN","zip":"55344","latitude":44.8742348,"longitude":-93.4139571,"description":"Pets will love to romp and play off leash at the Flying Cloud Drive Dog Park in Eden Prairie, MN. This fenced dog park, which is open year-round, includes a section for small or fragile dogs, in addition to a larger area for big dogs.","bringfido_id":"2447"},
  {"name":"Jaycees Dog Park","street":"3700 12th St N","city":"St Cloud","state":"MN","zip":"56303","latitude":45.573153,"longitude":-94.2033076,"description":"Fido will love to run and make friends at the off-leash Jaycees Dog Park in St Cloud, MN. This fenced park has trees to provide shad and picnic tables. An Off-Leash Pet Exercise Areas (OLPEA) permit is needed to bring your pup to this specially-designated area.","bringfido_id":"9636"},
  {"name":"Dog Park at Cedar Knoll Park","street":"2541 Nevada Ave","city":"St. Louis Park","state":"MN","zip":"55426","latitude":44.95751,"longitude":-93.372223,"description":"Pets love to play off leash at the dog park at Cedar Knoll Park in St. Louis Park, MN. This fenced dog area includes lovely trees for shade. A permit from the city is required.","bringfido_id":"2088"},
  {"name":"Dog Park at Dakota Park","street":"2643 Dakota Ave S","city":"St. Louis Park","state":"MN","zip":"55426","latitude":44.9564594,"longitude":-93.363589,"description":"Pets will love to play off leash at the dog park at Dakota Park in St. Louis Park, MN. This fenced dog park includes a separate area for smaller pups. Permits are available from the city inspections desk.","bringfido_id":"2251"},
  {"name":"Franklin Terrace Off-Leash Dog Park","street":"925 Franklin Ter","city":"Minneapolis","state":"MN","zip":"55406","latitude":44.9647611,"longitude":-93.2322029,"description":"Bring Fido to explore the Franklin Terrace Off-Leash Dog Park in Minneapolis, MN. This dog park is completely fenced, so pups can feel free to run around, socialize and blow off steam. Please remember to pick up after your pet.","bringfido_id":"2495"},
  {"name":"Dog Park at Edenvale Park","street":"7200 Edenvale Blvd","city":"Eden Prairie","state":"MN","zip":"55346","latitude":44.8727005,"longitude":-93.4695073,"description":"Pets are welcome to run and play off leash at the dog park at Edenvale Park in Eden Prairie, MN. This fenced recreation area is open seasonally, from April-October, as it is used as a hockey rink during the winter months.","bringfido_id":"2376"},
  {"name":"Dog Park at Thresher Fields Park","street":"3204 Borchert Ln","city":"Eagan","state":"MN","zip":"55121","latitude":44.8383069,"longitude":-93.1280787,"description":"The dog park at Thresher Fields Park in Eagan, MN features trails, rolling hills and open spaces. The entire area is fenced, including the lake shore with gated access to the lake. Additionally, there's a designated, fenced area for small dogs. Permits are required for dogs visiting this park.","bringfido_id":"18787"},
  {"name":"Dog Park at Holbrook Park","street":"310 Harrington Dr","city":"Long Lake","state":"MN","zip":"55356","latitude":44.984403,"longitude":-93.579584,"description":"Visit the dog park at Holbrook Park, an off-leash dog area in Long Lake, MN. All pups that use the park must be current on licensing with their city of residence and on vaccinations. Rules for use are posted near the entrance to the off-leash area. The park is open seasonally April-October, as it is used as a hockey rink during the winter months.","bringfido_id":"12134"},
  {"name":"Fancy Coats Dog Park","street":"5300 8th Ave NE","city":"Willmar","state":"MN","zip":"56201","latitude":45.1318757,"longitude":-94.9754055,"description":"Bring Fido to the Fancy Coats Dog Park in Willmar, MN. This spacious fenced park is located behind Fancy Coats Pet Grooming & Inn, and features lots or trees, benches and running water. Park use costs $3. Pay inside Fancy Coats or in the white box inside the dog park entrance.","bringfido_id":"11825"},
  {"name":"Dog Park at Crestwood Park","street":"9780 Dell Rd","city":"Eden Prairie","state":"MN","zip":"55347","latitude":44.828346,"longitude":-93.5056768,"description":"Pets are welcome to run and play off leash at the dog park at Crestwood Park in Eden Prairie, MN. This fenced recreation area is open seasonally, from April-October, as it is used as a hockey rink during the winter months.","bringfido_id":"2234"},
  {"name":"Dog Park at Welcome Park","street":"4630 Welcome Ave N","city":"Crystal","state":"MN","zip":"55422","latitude":45.0387531,"longitude":-93.3513772,"description":"Pets are welcome to play off leash at the dog park at Welcome Park in Crystal, MN. This completely fenced dog area is open seasonally, as it serves as a hockey rink in winter.","bringfido_id":"3764"},
  {"name":"Van Valkenburg Park Off-Leash Dog Area","street":"4935 Lincoln Dr","city":"Edina","state":"MN","zip":"55437","latitude":44.9140754,"longitude":-93.4012881,"description":"Bring Fido to explore the Van Valkenburg Park Off-Leash Dog Area in Edina, MN. This fenced dog park includes amenities such as restrooms and benches. Dogs using the park must wear a special green collar that identifies them as a leash-free permit holder by contacting Edina City Hall.","bringfido_id":"18788"},
  {"name":"North Loop Dog Park","street":"790 N 3rd St","city":"Minneapolis","state":"MN","zip":"55401","latitude":44.9882254,"longitude":-93.2816278,"description":"Visit the North Loop Dog Park, an approximately 6,000 square feet area solely dedicated for off-leash play by neighborhood dogs in Minneapolis, MN.","bringfido_id":"18783"},
  {"name":"Sochacki Park Dog Off-Leash Area","street":"3500 June Ave N","city":"Minneapolis","state":"MN","zip":"55422","latitude":45.0186599,"longitude":-93.3331069,"description":"Bring Fido to blow off steam at the Sochacki Park Dog Off-Leash Area in Minneapolis, MN. This 1-acre fenced dog park has a separate area for small dogs. Remember to bring water for you and your pup. Dogs must be leashed at all times when not in the dog park.","bringfido_id":"18784"},
  {"name":"Alpine Dog Park","street":"6600 Alpine Drive","city":"Ramsey","state":"MN","zip":"55303","latitude":45.2466011,"longitude":-93.4319716,"description":"Alpine Dog Park is a pet-friendly recreation area in Ramsey, MN. The designated off-leash area is located in the center of Alpine Park beyond ball fields Number 2 and Number 3. This site is partially irrigated, with about half of the several acres with tall grass and a wooded corner. The park is also equipped with a pet fountain and seating for humans.","bringfido_id":"18758"},
  {"name":"Bark Park at Sunnybrook Park","street":"710 Sunnybrook Rd","city":"Wadena","state":"MN","zip":"56482","latitude":46.4416027,"longitude":-95.1255701,"description":"Bring Fido to play at the Bark Park located within Sunnybrook Park in Wadena, MN. This fenced-in area allows your pup plenty of space to run and explore off his leash! Water fountains and trash cans are available. Remember to leash Fido back up before exiting into the larger park.","bringfido_id":"1904"},
  {"name":"Otsego Dog Park","street":"8789 Nashua Avenue Northeast","city":"Elk River","state":"MN","zip":"55330","latitude":45.2788712,"longitude":-93.6139382,"description":"Otsego Dog Park is pet-friendly. Located in the southeast corner of Otsego Prairie Park, this fenced space is home to many oak and maple trees for shade, picnic tables, lights, and portable potties can be accessed all year around. Water is available to dogs during the summer months. Otsego Dog Park is open every day of the week from sunrise to 10pm.","bringfido_id":"24555"},
  {"name":"DL Dog Park","street":"1023 10th Ave SE","city":"Detroit Lakes","state":"MN","zip":"56501","latitude":46.8162207,"longitude":-95.8320307,"description":"DL Dog Park is a dog-friendly park in Detroit Lakes, MN, that is open seven days a week from sunrise to sunset. The large fenced park features dirt and grass play areas, a small pavilion with picnic tables, a dog water fountain, and a dog waste station.","bringfido_id":"26007"},
  {"name":"Gateway Dog Park","street":"1099 S 4th Ave","city":"Minneapolis","state":"MN","zip":"55404","latitude":44.970787,"longitude":-93.2695591,"description":"Visit the Gateway Dog Park in Minneapolis, MN, where your pup can enjoy the agility equipment in the fenced-off area. Please remember to clean up after Fido.","bringfido_id":"19280"},
  {"name":"Brooklyn Park Environmental Nature Area","street":"10201 W River Rd","city":"Brooklyn Park","state":"MN","zip":"55444","latitude":45.1385472,"longitude":-93.3169504,"description":"The Brooklyn Park Environmental Nature Area is an off-leash dog park in Brooklyn Park, MN. This dog area features big grassy spaces and is completely fenced in. The fee for entry into the park is $3 per day and $10 annually.","bringfido_id":"18762"},
  {"name":"Love's Travel Stop","street":"2102 Enterprise Dr","city":"St. Charles","state":"MN","zip":"55972","latitude":43.9542463,"longitude":-92.067141,"description":"Love's Travel Stop in St. Charles, MN, is a dog-friendly gas station and rest area. Across America, you'll find Love's Travel Stops that offer facilities for traveling canines. This location has a fully-fenced dog park with a convenient waste station.","bringfido_id":"26588"},
  {"name":"Lions Park Off-Leash Dog Areas","street":"1300 Crosstown Blvd","city":"Chaska","state":"MN","zip":"55318","latitude":44.7990517,"longitude":-93.5991522,"description":"The Lions Park Off-Leash Dog Areas in Chaska, MN are two separate dog parks featuring a smaller area with cut grass for throwing the ball or just relaxing at a picnic table, and an exotic and dry wooded nature area for you and your canine friend to explore! The small, fenced-in area has a drinking station, wash station and concrete entrance pad. The wooded fenced-in area contains 4.26 acres and is located across the creek from the small fenced-in area.","bringfido_id":"32517"},
  {"name":"Love's Travel Stop Columbus","street":"15402 Hornsby St NE","city":"Columbus","state":"MN","zip":"55025","latitude":45.2489283,"longitude":-93.0229513,"description":"Love's Travel Stop in Columbus, MN, is a pet-friendly gas station and rest area. Traveling canines will enjoy stretching their legs at this fenced dog park, which features plenty of grass, benches, trash receptacles and waste bags.","bringfido_id":"34941"},
  {"name":"Love's Travel Stop Columbus","street":"15402 Hornsby St NE","city":"Columbus","state":"MN","zip":"55025","latitude":45.2492295,"longitude":-93.0223275,"description":"Love's Travel Stop is a gas station and rest area in Columbus, MN. This pet-friendly location has a fully-fenced dog park with separate areas for small and large pups and trash receptacles. Features of this pit stop also include Hardee's, Godfather's Pizza, private showers, a laundry facility, Wi-Fi, truck parking and more.","bringfido_id":"34940"},
  {"name":"Dog Park at South German Park","street":"527 S German St","city":"New Ulm","state":"MN","zip":"56073","latitude":44.3084337,"longitude":-94.4540977,"description":"Bring Fido to the dog park at South German Park in New Ulm, MN. This off-leash dog park features two fenced-in areas for small and large dogs to play, run around and socialize safely. Dog owners are reminded to clean up any mess left behind.","bringfido_id":"23058"},
  {"name":"Dog Park at Riebe Park","street":"203 4th St Cir N","city":"Princeton","state":"MN","zip":"55371","latitude":45.5736163,"longitude":-93.5754354,"description":"The dog park at Riebe Park in Princeton, MN contains a large fenced-in area for dogs to run around off leash and picnic tables for the owners. There is also a water fountain for pups to rehydrate before their next round of fetch.","bringfido_id":"32543"},
  {"name":"Centennial Dog Park","street":"2600 15th Ave N","city":"Moorhead","state":"MN","zip":"56560","latitude":46.8910878,"longitude":-96.7427449,"description":"Centennial Dog Park is a recreational space in Moorhead, MN. The park features three separate fenced areas, agility equipment, picnic tables and benches. There's plenty of space for Fido to get some exercise and meet new friends. Dog owners are reminded to bring water for their pets.","bringfido_id":"31194"},
  {"name":"Saint Peter Dog Park","street":"43358 Rabbit Rd","city":"Saint Peter","state":"MN","zip":"56082","latitude":44.3223487,"longitude":-93.9484319,"description":"Fido is invited to play at Saint Peter Dog Park in Minnesota. The park features two separate areas for large and small dogs and double-gated entrances. Picnic tables, benches, and a trash can are available, but please pack your own waste bags and water.","bringfido_id":"35708"},
  {"name":"Dog Park at UÅ‹ÄÃ­ MakhÃ¡ Park","street":"2230 Montreal Ave","city":"St. Paul","state":"MN","zip":"55116","latitude":44.912073,"longitude":-93.1942085,"description":"Bring Fido to socialize and exercise off leash at the dog park at UÅ‹ÄÃ­ MakhÃ¡ Park in St. Paul, MN. This fully fenced, multi-surface recreation space features a range of amenities, including waste stations, water fountains, shaded seating and double-gated entry. Canine companions must be leashed when entering and exiting the dog park.","bringfido_id":"39894"},
  {"name":"Grand Marais Dog Park","street":"781 5th Ave W","city":"Grand Marais","state":"MN","zip":"55604","latitude":47.7586857,"longitude":-90.3402263,"description":"Explore the scenic trails of Cook County in Minnesota with your well-behaved pup, as the Grand Marais Dog Park, managed by Go Dog North Shore, invites your furry friend to play. Be aware that the terrain may feature uneven surfaces with rocks and roots. Upon arrival, you'll discover a spacious 3-acre fenced area and a designated section for small dogs weighing under 25 pounds.","bringfido_id":"35730"},
  {"name":"Wabasha Dog Park","street":"Bailey Ave & 11th St","city":"Wabasha","state":"MN","zip":"55981","latitude":44.3746639,"longitude":-92.0345985,"description":"Wabasha Dog Park is an off-leash area in Wabasha, MN, where Fido is invited to play and socialize with other pups. This fenced area offers a great space for your pup to exercise while you enjoy some fresh air. Park amenities include a picnic table and shade trees.","bringfido_id":"39502"},
  {"name":"Dog Park at Winter Park","street":"6389 64th Ln NE","city":"Albertville","state":"MN","zip":"55301","latitude":45.242979,"longitude":-95.677386,"description":"Bring Fido to exercise and socialize off leash at the dog park at Winter Park in Albertville, MN. This small, public recreation space features a fenced park where four-legged friends can romp and sniff together. Dogs must be leashed when entering and exiting the park.","bringfido_id":"39721"},
  {"name":"Sandstone Dog Park","street":"617 Angle Ave","city":"Sandstone","state":"MN","zip":"55072","latitude":46.1334199,"longitude":-92.8660412,"description":"Sandstone Dog Park in Sandstone, MN welcomes Fido to enjoy some exercise and fresh air at this fenced park that offers a large area of grass and dirt to explore. Dogs must be leashed when entering/exiting the park and be cleaned up after. Puppies under four months aren't permitted, and children under 13 must be accompanied by an adult.","bringfido_id":"40233"},
  {"name":"Hayward Rest Area","street":"I-90","city":"Albert Lea","state":"MN","zip":"56007","latitude":43.6691144,"longitude":-93.284431,"description":"Hayward Rest Area in Albert Lea, MN is a dog-friendly stop along I-90 that features a fenced off-leash dog park. Though it's a small, single-area space, it's grassy, clean and perfect for letting pups stretch their legs. The rest area also includes restrooms, a picnic area, a playground and access to walking trails. Conveniently located near mile marker 162 on eastbound I-90.","bringfido_id":"41232"},
  {"name":"Lake City Dog Park","street":"10th St","city":"Lake City","state":"MN","zip":"55041","latitude":44.4453004,"longitude":-92.2845491,"description":"Four-legged friends are invited to socialize and explore at Lake City Dog Park in Lake City, MN. This fenced recreation area features a separate small-dog area so pups of all sizes can enjoy off-leash play. Amenities include double-gated entry, shaded picnic tables, waste bags and trash receptacles.","bringfido_id":"42979"},
  {"name":"City of Northfield Dog Park","street":"960 MN-3 S","city":"Northfield","state":"MN","zip":"55057","latitude":44.4501834,"longitude":-93.1727455,"description":"Bring your pet to play off-leash at the simple, fenced, City of Northfield Dog Park in Northfield, MN, which includes a shelter, benches and picnic tables.","bringfido_id":"3108"},
  {"name":"Dog Park at Orono Park","street":"18599 Gary St","city":"Elk River","state":"MN","zip":"55330","latitude":45.3043345,"longitude":-93.6032943,"description":"Visit the dog park at Orono Park, a beautiful off-leash lakeside area in Elk River, MN featuring tons of room to run, a picnic table and a doggy fountain.","bringfido_id":"12983"},
  {"name":"Meeker Island Dog Park","street":"471 Mississippi River Blvd N","city":"St. Paul","state":"MN","zip":"55104","latitude":44.9273839,"longitude":-93.1996678,"description":"The Meeker Island Dog Park in St. Paul, MN features a large dog run and dog beach. There is no fence surrounding the park, which is bordered by the Mississippi River and the steep river bluffs. Dogs that are under control are allowed to run off leash as long their owners are in sight at all times.","bringfido_id":"12891"},
  {"name":"Dog Park at Locke Park","street":"450 71st Ave NE","city":"Fridley","state":"MN","zip":"55432","latitude":45.0967389,"longitude":-93.2565638,"description":"Your pet will thank you for a chance to play off-leash at the dog park at Locke Park in Fridley, MN. This fenced dog run features mulched ground cover, picnic tables and lovely wooded areas. Bring water with you. A daily or annual permit is required.","bringfido_id":"1648"},
  {"name":"Observation Dog Park","street":"914 W 3rd St","city":"Duluth","state":"MN","zip":"55806","latitude":46.779512,"longitude":-92.112743,"description":"Dogs can run off leash at the Observation Dog Park in Duluth, MN. This fully-fenced dog park includes a separate area for dogs under 20 pounds. Owners must bring their own water. Parking is located where 10th Ave ends.","bringfido_id":"12671"},
  {"name":"Stillwater Dog Park","street":"2000 Myrtle St W","city":"Stillwater","state":"MN","zip":"55082","latitude":45.0579371,"longitude":-92.835305,"description":"The Stillwater Dog Park is a fenced, off-leash dog park in Stillwater, MN. The park was established in 2014 to promote responsible dog ownership through community-based recreation and education. Licenses are required for use.","bringfido_id":"18786"},
  {"name":"Dog Park at Valley Place Park","street":"3224 Louisiana Ave","city":"Crystal","state":"MN","zip":"55427","latitude":45.0153435,"longitude":-93.3701765,"description":"Pets are welcome to play off leash at the dog park at Valley Place Park in Crystal, MN. This fenced dog area is open seasonally, as it sometimes serves as a hockey rink in winter.","bringfido_id":"2871"},
  {"name":"Dog Park at Nesbitt Preserve Park","street":"8641 Center Way","city":"Eden Prairie","state":"MN","zip":"55344","latitude":44.8466317,"longitude":-93.4187489,"description":"Pets are welcome to run and play off leash at the dog park at Nesbitt Preserve Park in Eden Prairie, MN. This fenced recreation area is open seasonally, from April-October, as it is used as a hockey rink during the winter months.","bringfido_id":"3074"}
]
