[
  {
    "name": "Twin Lakes Dog Park",
    "street": "2500 Chapel Hill Rd",
    "city": "Columbia",
    "state": "MO",
    "zip": "65203",
    "latitude": 38.93242,
    "longitude": -92.375659,
    "description": "Dog owners in Columbia have made Twin Lakes Dog Park at 2500 Chapel Hill Rd a go-to spot, rating it 4.8 stars across 544 reviews. Open from 6am to 11pm daily, dog owners can easily fit a visit into busy schedules. Looking for more places to take your pup? Kiwanis Park is another popular dog park just 0.9 miles away."
  },
  {
    "name": "Columbia Cosmopolitan Recreati",
    "street": "1615 Business Loop 70 W",
    "city": "Columbia",
    "state": "MO",
    "zip": "65202",
    "latitude": 38.9674863,
    "longitude": -92.3623113,
    "description": "With 4.7 stars across 1,655 reviews, Columbia Cosmopolitan Recreati at 1615 Business Loop 70 W has clearly won over Columbia dog owners. Open from 6am to 12am daily, the park accommodates a variety of dog owner schedules and routines. Nearby, Clary-Shy Community Park (0.7 miles) is another dog park favorite where you can take your four-legged friend."
  },
  {
    "name": "Grindstone Nature Area",
    "street": "2011 Old 63 S",
    "city": "Columbia",
    "state": "MO",
    "zip": "65201",
    "latitude": 38.9259154,
    "longitude": -92.3111329,
    "description": "With 4.7 stars from 435 reviews, Grindstone Nature Area at 2011 Old 63 S has become a favorite among Columbia dog owners. Open from 6am to 11pm daily, dog owners can plan visits around work or their pup's energy level. Dog owners can also take their pups to nearby Lions-Stephens Park (1.9 miles) or Valleyview Park (2.2 miles)."
  },
  {
    "name": "Lions-Stephens Park",
    "street": "104 N William St",
    "city": "Columbia",
    "state": "MO",
    "zip": "65201",
    "latitude": 38.9525921,
    "longitude": -92.3166198,
    "description": "Columbia dog owners rate Lions-Stephens Park at 104 N William St highly, with 4.6 stars from 61 visits. Open from 6am to 11pm daily, dog owners can plan visits around work or their pup's energy level. Dog owners exploring the neighborhood can also bring their furry friends to Valleyview Park (0.9 miles)."
  },
  {
    "name": "Garth Nature Area Dog Park",
    "street": "2799 N Garth Ave",
    "city": "Columbia",
    "state": "MO",
    "zip": "65202",
    "latitude": 38.980288,
    "longitude": -92.3382181,
    "description": "Garth Nature Area Dog Park (4.6 stars from 402 reviews) is a popular destination for Columbia dog owners, located at 2799 N Garth Ave. Open from 6am to 11pm daily, the park accommodates early risers and evening visitors alike. For variety, the neighborhood offers more dog parks to explore: Bear Creek Park (1.0 miles) and Columbia Cosmopolitan Recreati (1.6 miles)."
  },
  {
    "name": "John A. Stewart Park",
    "street": "1-99 E Parkway Dr",
    "city": "Columbia",
    "state": "MO",
    "zip": "65203",
    "latitude": 38.948768,
    "longitude": -92.3415782,
    "description": "Dog owners in Columbia have made John A. Stewart Park at 1-99 E Parkway Dr a go-to spot, rating it 4.5 stars across 27 reviews. The park has earned its reputation among dog owners in the neighborhood as a reliable choice. Dog owners exploring the neighborhood can also bring their furry friends to Valleyview Park (0.5 miles)."
  },
  {
    "name": "Clary-Shy Community Park",
    "street": "1701 W Ash St",
    "city": "Columbia",
    "state": "MO",
    "zip": "65203",
    "latitude": 38.9574866,
    "longitude": -92.3628449,
    "description": "With 4.5 stars from 337 reviews, Clary-Shy Community Park at 1701 W Ash St has become a favorite among Columbia dog owners. Open from 6am to 11pm daily, there's plenty of opportunity for dog owners to find a time that works. Other dog parks in the area include Columbia Cosmopolitan Recreati (0.7 miles) and Kiwanis Park (1.0 miles)—both great for exploring with your four-legged friend."
  },
  {
    "name": "Dog Park",
    "street": "5009 Aztec Blvd",
    "city": "Columbia",
    "state": "MO",
    "zip": "65202",
    "latitude": 38.9766881,
    "longitude": -92.2614152,
    "description": "154 dog owners have reviewed Dog Park at 5009 Aztec Blvd in Columbia, averaging 4.4 stars. Open from 7am to 11pm daily, the park gives dog owners in the neighborhood time to bring their pups. Nearby dog parks worth exploring with your pup include Bear Creek Park (3.2 miles) and Lions-Stephens Park (3.4 miles)."
  },
  {
    "name": "Valleyview Park",
    "street": "",
    "city": "Columbia",
    "state": "MO",
    "zip": "",
    "latitude": 38.951883,
    "longitude": -92.3337366,
    "description": "Valleyview Park holds a 4.3-star rating from 56 Columbia dog owner visits. Open from 7am to 11pm daily, local dog owners have time to explore with their furry companions. Looking to explore more? John A. Stewart Park is another dog-friendly park 0.5 miles from here."
  },
  {
    "name": "Bear Creek Park",
    "street": "1402 Elleta Blvd",
    "city": "Columbia",
    "state": "MO",
    "zip": "65202",
    "latitude": 38.9749132,
    "longitude": -92.3203405,
    "description": "Dog owners in Columbia have rated Bear Creek Park (1402 Elleta Blvd) 4.2 stars across 40 reviews. Open from 6am to 11pm daily, the park is accessible for dog owners in the area. Dog owners looking for variety can also visit Garth Nature Area Dog Park (1.0 miles) or Lions-Stephens Park (1.6 miles) with their four-legged friends."
  },
  {
    "name": "Kiwanis Park",
    "street": "926 College Park Dr",
    "city": "Columbia",
    "state": "MO",
    "zip": "65203",
    "latitude": 38.944102,
    "longitude": -92.3668909,
    "description": "For dog owners in Columbia, Kiwanis Park at 926 College Park Dr has a 4.3-star rating (85 reviews). Open from 6am to 12am daily, dog owners in the area can work a visit into their day. For pups who want more adventure, Twin Lakes Dog Park is a nearby dog park worth visiting (0.9 miles)."
  },
  {
    "name": "Saint Ferdinand Park",
    "street": "25 St Ferdinand Park Dr",
    "city": "Florissant",
    "state": "MO",
    "zip": "63031",
    "latitude": 38.8008959,
    "longitude": -90.3268649,
    "description": "1,530 dog owners have made Saint Ferdinand Park (25 St Ferdinand Park Dr) one of Florissant's most trusted parks (4.6 stars). Open from 7am to 8pm daily, there's always time for dog owners to bring their pup for some quality time. For variety, many dog owners also bring their furry friends to Duchesne Park (1.2 miles)—another great dog park in the area."
  },
  {
    "name": "James McDonnell County Park",
    "street": "2961 Adie RdSt Ann",
    "city": "Florissant",
    "state": "MO",
    "zip": "63074",
    "latitude": 38.7134071,
    "longitude": -90.4052422,
    "description": "Florissant dog owners rate James McDonnell County Park at 2961 Adie Rd highly, with 4.6 stars from 582 visits. Open from 7am to 9pm daily, dog owners can plan visits around work or their pup's energy level. More dog-friendly parks nearby include Dogport Dog Park (2.5 miles) and Irv Zeid Citizens' Park (3.9 miles)—perfect for pups who love adventure."
  },
  {
    "name": "Sunset Park",
    "street": "2300 Sunset Park Dr",
    "city": "Florissant",
    "state": "MO",
    "zip": "63031",
    "latitude": 38.8259128,
    "longitude": -90.3577262,
    "description": "Sunset Park (4.6 stars from 479 reviews) is a popular destination for Florissant dog owners, located at 2300 Sunset Park Dr. Open from 7am to 8pm daily, dog owners can easily fit a visit into busy schedules. For variety, the neighborhood offers more dog parks to explore: Saint Ferdinand Park (2.4 miles) and Duchesne Park (2.8 miles)."
  },
  {
    "name": "Manion Park",
    "street": "15 Manion Park Dr",
    "city": "Florissant",
    "state": "MO",
    "zip": "63031",
    "latitude": 38.7846378,
    "longitude": -90.3372988,
    "description": "At 15 Manion Park Dr in Florissant, Manion Park carries 4.4 stars from 105 dog owner reviews. Open from 8am to 10pm daily, dog owners can stop by when it fits their schedule. For pups who want more adventure, Duchesne Park is a nearby dog park worth visiting (0.3 miles)."
  },
  {
    "name": "Aubuchon Park",
    "street": "1 Sunset Dr",
    "city": "Florissant",
    "state": "MO",
    "zip": "63042",
    "latitude": 38.781899,
    "longitude": -90.350083,
    "description": "At 1 Sunset Dr, Aubuchon Park has 4.3 stars based on 79 reviews from Florissant dog owners. Open from 5:30am to 8pm daily, dog owners in the area can work a visit into their day. Looking to explore more? Duchesne Park is another dog-friendly park 0.6 miles from here."
  },
  {
    "name": "Dunegant Park",
    "street": "2000 Derhake Rd",
    "city": "Florissant",
    "state": "MO",
    "zip": "63033",
    "latitude": 38.7803292,
    "longitude": -90.2851739,
    "description": "Dunegant Park at 2000 Derhake Rd holds a 4.2-star rating from 42 Florissant dog owner visits. For dog owners in the neighborhood, this park offers a place to take their pups. Nearby dog parks worth exploring with your pup include Wayside Park (2.2 miles) and Saint Ferdinand Park (2.7 miles)."
  },
  {
    "name": "Musick Park",
    "street": "8617 Latty Ave",
    "city": "Florissant",
    "state": "MO",
    "zip": "63042",
    "latitude": 38.7673392,
    "longitude": -90.3339071,
    "description": "Dog owners in Florissant have rated Musick Park (8617 Latty Ave) 4.2 stars across 266 reviews. Open from 6am to 9pm daily, local dog owners have time to explore with their furry companions. For dog owners who like to explore, Manion Park (1.2 miles) and Aubuchon Park (1.3 miles) are both nearby parks to try with your dog."
  },
  {
    "name": "Duchesne Park",
    "street": "5 Brower Ln",
    "city": "Florissant",
    "state": "MO",
    "zip": "63031",
    "latitude": 38.7876273,
    "longitude": -90.3410323,
    "description": "88 dog owners have reviewed Duchesne Park at 5 Brower Ln in Florissant, averaging 4.1 stars. Open from 8am to 11pm daily, local dog owners have time to explore with their furry companions. Dog owners looking for variety can also visit Manion Park (0.3 miles) or Aubuchon Park (0.6 miles) with their four-legged friends."
  },
  {
    "name": "Santa Fe Park",
    "street": "2900 S Santa Fe Rd",
    "city": "Independence",
    "state": "MO",
    "zip": "64052",
    "latitude": 39.0677876,
    "longitude": -94.4260904,
    "description": "At 2900 S Santa Fe Rd in Independence, Santa Fe Park has built a loyal following—4.4 stars from 661 dog owner reviews. Open from 6am to 11pm daily, dog owners can easily fit a visit into busy schedules. Other dog parks in the area include Dog Park (1.8 miles) and Little Blue Park (1.8 miles)—both great for exploring with your four-legged friend."
  },
  {
    "name": "Clothier Park",
    "street": "17220 Medical Center Pkwy",
    "city": "Independence",
    "state": "MO",
    "zip": "64057",
    "latitude": 39.075513,
    "longitude": -94.376026,
    "description": "Clothier Park at 17220 Medical Center Pkwy in Independence has 4.4 stars from 218 dog owner reviews. Open from 6am to 10pm daily, dog owners can stop by when it fits their schedule. Nearby dog parks worth exploring with your pup include Little Blue Park (2.3 miles) and Dog Park (2.3 miles)."
  },
  {
    "name": "Little Blue Park",
    "street": "111 E Maple Ave",
    "city": "Independence",
    "state": "MO",
    "zip": "64050",
    "latitude": 39.092523,
    "longitude": -94.4137163,
    "description": "Located at 111 E Maple Ave, Little Blue Park in Independence is rated 4.3 stars by 90 dog owners. Dog owners in the area appreciate having a local spot to bring their pups. Dog owners looking for variety can also visit Dog Park (0.0 miles) or Santa Fe Park (1.8 miles) with their four-legged friends."
  },
  {
    "name": "Choplin-Hood Park",
    "street": "15919 E Cogan Ln",
    "city": "Independence",
    "state": "MO",
    "zip": "64050",
    "latitude": 39.1129146,
    "longitude": -94.3884966,
    "description": "In Independence, dog owners can find Choplin-Hood Park at 15919 E Cogan Ln—a local park worth exploring with their furry companions. Open from 6am to 11pm daily, dog owners in the area can work a visit into their day. Dog owners might also enjoy Little Blue Park, another dog park just 2.0 miles away."
  },
  {
    "name": "Loose Park",
    "street": "5200 Wornall Rd",
    "city": "Kansas City",
    "state": "MO",
    "zip": "64112",
    "latitude": 39.032186,
    "longitude": -94.592225,
    "description": "With 5,901 reviews and a 4.8-star rating, Loose Park (5200 Wornall Rd) has become a landmark for Kansas City dog owners. Open from 5am to 12am daily, dog owners can find the perfect time for their furry friend. For more dog park adventures, explore Swope Park (2.8 miles) or CITYDOGs KC (3.6 miles) with your furry companion."
  },
  {
    "name": "CITYDOGs KC",
    "street": "2401 Summit St",
    "city": "Kansas City",
    "state": "MO",
    "zip": "64108",
    "latitude": 39.0845012,
    "longitude": -94.5932633,
    "description": "Kansas City dog owners rate CITYDOGs KC at 2401 Summit St highly, with 4.8 stars from 256 visits. Dog owners frequent this park for its consistent quality and welcoming atmosphere. Other dog parks in the area include Green Roof Park (1.2 miles) and Ermine Case Junior Park (1.3 miles)—both great for exploring with your four-legged friend."
  },
  {
    "name": "Swope Park",
    "street": "3801 Blue Pkwy",
    "city": "Kansas City",
    "state": "MO",
    "zip": "64130",
    "latitude": 39.0362343,
    "longitude": -94.5405754,
    "description": "Dog owners in Kansas City have made Swope Park at 3801 Blue Pkwy a go-to spot, rating it 4.9 stars across 12 reviews. The steady stream of dog owner visits speaks to the park's appeal. Looking for more places to take your pup? Loose Park is another popular dog park just 2.8 miles away."
  },
  {
    "name": "Doggy Pit Stop",
    "street": "7820 N Walrond Ave",
    "city": "Kansas City",
    "state": "MO",
    "zip": "64119",
    "latitude": 39.2351663,
    "longitude": -94.5411511,
    "description": "At 7820 N Walrond Ave in Kansas City, Doggy Pit Stop has built a loyal following—4.9 stars from 10 dog owner reviews. Dog owners looking for a solid destination will find this park delivers. For a change of scenery, Hobby Hill West Park is another dog-friendly destination 2.4 miles from here."
  },
  {
    "name": "E. H. Young Riverfront Park",
    "street": "1001 NW Argosy Pkwy",
    "city": "Kansas City",
    "state": "MO",
    "zip": "64150",
    "latitude": 39.1629454,
    "longitude": -94.6198274,
    "description": "E. H. Young Riverfront Park at 1001 NW Argosy Pkwy is well-regarded by Kansas City dog owners, holding 4.6 stars across 82 reviews. Open from 5am to 12am daily, the park works well for dog owners with different schedules. Dog owners can also take their pups to nearby Waggin' Trail Dog Park (2.4 miles) or Bar K (4.0 miles)."
  },
  {
    "name": "Dogwood Park",
    "street": "107-109 NW Victoria DrLee's Summit",
    "city": "Kansas City",
    "state": "MO",
    "zip": "64086",
    "latitude": 38.9369326,
    "longitude": -94.3848522,
    "description": "Dogwood Park (4.6 stars from 439 reviews) is a popular destination for Kansas City dog owners, located at 107-109 NW Victoria Dr. Open from 6am to 9pm daily, there's plenty of opportunity for dog owners to find a time that works. Dog owners exploring the neighborhood can also bring their furry friends to Woods Playground (1.8 miles)."
  },
  {
    "name": "Happy Tails Park",
    "street": "1251 SE Ranson RdLee's Summit",
    "city": "Kansas City",
    "state": "MO",
    "zip": "64081",
    "latitude": 38.8958418,
    "longitude": -94.3400956,
    "description": "Happy Tails Park (4.6 stars from 440 reviews) is a popular destination for Kansas City dog owners, located at 1251 SE Ranson Rd. Open from 6am to 9pm daily, the park works well for dog owners with different schedules. Looking for more places to take your pup? Harris Memorial Park is another popular dog park just 2.2 miles away."
  },
  {
    "name": "Frank A. Theis Park",
    "street": "",
    "city": "Kansas City",
    "state": "MO",
    "zip": "",
    "latitude": 39.100105,
    "longitude": -94.5781416,
    "description": "For dog owners in the Kansas City area, Frank A. Theis Park offers a 4.6-star experience based on 505 reviews. Open from 5am to 12am daily, dog owners can easily fit a visit into busy schedules. Dog owners exploring the neighborhood can also bring their furry friends to Penn Valley Off Leash Dog Park (0.0 miles)."
  },
  {
    "name": "Hobby Hill West Park",
    "street": "7700 N BroadwayGladstone",
    "city": "Kansas City",
    "state": "MO",
    "zip": "64118",
    "latitude": 39.234285,
    "longitude": -94.585046,
    "description": "Hobby Hill West Park at 7700 N Broadway is well-regarded by Kansas City dog owners, holding 4.6 stars across 512 reviews. Open from 6am to 11pm daily, the park works well for dog owners with different schedules. Dog owners can also take their pups to nearby Doggy Pit Stop (2.4 miles) or Anne Garney Park (4.3 miles)."
  },
  {
    "name": "Berkley Riverfront",
    "street": "1298 Riverfront Dr",
    "city": "Kansas City",
    "state": "MO",
    "zip": "64120",
    "latitude": 39.1184198,
    "longitude": -94.5694756,
    "description": "For Kansas City dog owners, Berkley Riverfront at 1298 Riverfront Dr has become a reliable favorite—4.6 stars from 2,874 reviews. Open from 5am to 12am daily, the park is convenient for before work, after work, or weekend adventures. Other popular dog parks nearby include Bar K (0.5 miles) and DCID Walnut St. Dog Park (1.1 miles)—both favorites among local pup parents."
  },
  {
    "name": "Anne Garney Park",
    "street": "Anne Garney Park Dr",
    "city": "Kansas City",
    "state": "MO",
    "zip": "64155",
    "latitude": 39.2940617,
    "longitude": -94.5600943,
    "description": "With 4.5 stars from 55 reviews, Anne Garney Park has become a favorite among Kansas City dog owners. Open from 5am to 12am daily, there's room in the day for dog owners to bring their furry friends. For a change of scenery, Doggy Pit Stop is another dog-friendly destination 4.2 miles from here."
  },
  {
    "name": "Brookside Triangle Park",
    "street": "",
    "city": "Kansas City",
    "state": "MO",
    "zip": "",
    "latitude": 39.100105,
    "longitude": -94.5781416,
    "description": "In Kansas City, Brookside Triangle Park earns strong marks from local dog owners—4.5 stars from 80 reviews. Open from 5am to 12am daily, dog owners have plenty of flexibility to plan a visit. More dog-friendly parks nearby include Penn Valley Off Leash Dog Park (0.0 miles) and Frank A. Theis Park (0.0 miles)—perfect for pups who love adventure."
  },
  {
    "name": "Liberty Dog Park",
    "street": "Stocksdale Park DriveLiberty",
    "city": "Kansas City",
    "state": "MO",
    "zip": "64068",
    "latitude": 39.2337362,
    "longitude": -94.3910186,
    "description": "With 4.5 stars from 383 reviews, Liberty Dog Park has become a favorite among Kansas City dog owners. Open from 5am to 9pm daily, the park offers flexibility for dog owners with varying routines. Dog owners looking for a dependable spot will find this park lives up to its ratings."
  },
  {
    "name": "Blue Springs Dog Park",
    "street": "1049 NE 20 StBlue Springs",
    "city": "Kansas City",
    "state": "MO",
    "zip": "64029",
    "latitude": 39.0292462,
    "longitude": -94.2350022,
    "description": "At 1049 NE 20 St in Kansas City, Blue Springs Dog Park has built a loyal following—4.5 stars from 466 dog owner reviews. Open from 6am to 12am daily, the park works well for dog owners with different schedules. The reviews indicate this is a trusted destination for dog owners in the area."
  },
  {
    "name": "DCID Walnut St. Dog Park",
    "street": "700 Walnut St",
    "city": "Kansas City",
    "state": "MO",
    "zip": "64106",
    "latitude": 39.105374,
    "longitude": -94.581826,
    "description": "For dog owners near 700 Walnut St in Kansas City, DCID Walnut St. Dog Park provides a convenient spot to take their dogs. The park serves as a gathering spot for dog owners and their four-legged friends in the area. For pups who want more adventure, Green Roof Park is a nearby dog park worth visiting (0.4 miles)."
  },
  {
    "name": "Green Roof Park",
    "street": "1211 Main St",
    "city": "Kansas City",
    "state": "MO",
    "zip": "64106",
    "latitude": 39.0996638,
    "longitude": -94.5830346,
    "description": "At 1211 Main St in Kansas City, Green Roof Park carries 4.3 stars from 38 dog owner reviews. Open from 8am to 9pm daily, the park fits conveniently into different routines. Dog owners might also enjoy Penn Valley Off Leash Dog Park, another dog park just 0.3 miles away."
  },
  {
    "name": "Harris Memorial Park",
    "street": "601 SW Jefferson StLee's Summit",
    "city": "Lee'S Summit",
    "state": "MO",
    "zip": "64063",
    "latitude": 38.906363,
    "longitude": -94.377784,
    "description": "Lee's Summit dog owners rate Harris Memorial Park at 601 SW Jefferson St highly, with 4.6 stars from 120 visits. Local dog owners appreciate what this park offers their four-legged friends. Other dog parks in the area include Woods Playground (0.4 miles) and Velie Park (0.4 miles)—both great for exploring with your four-legged friend."
  },
  {
    "name": "Velie Park",
    "street": "",
    "city": "Lee'S Summit",
    "state": "MO",
    "zip": "",
    "latitude": 38.9107156,
    "longitude": -94.3821295,
    "description": "In Lee's Summit, Velie Park has built a loyal following—4.5 stars from 62 dog owner reviews. Open from 6am to 10pm daily, dog owners have plenty of flexibility to plan a visit. For variety, the neighborhood offers more dog parks to explore: Woods Playground (0.0 miles) and Harris Memorial Park (0.4 miles)."
  },
  {
    "name": "Bryan C Pottberg Park",
    "street": "5200 NE Campground RdLee's Summit",
    "city": "Lee'S Summit",
    "state": "MO",
    "zip": "64064",
    "latitude": 39.0069243,
    "longitude": -94.34934,
    "description": "Bryan C Pottberg Park at 5200 NE Campground Rd is well-regarded by Lee's Summit dog owners, holding 4.5 stars across 75 reviews. Open from 6am to 10pm daily, dog owners can plan visits around work or their pup's energy level. The positive feedback from local dog owners speaks to the park's consistent quality."
  },
  {
    "name": "Woods Playground",
    "street": "",
    "city": "Lee'S Summit",
    "state": "MO",
    "zip": "",
    "latitude": 38.9107156,
    "longitude": -94.3821295,
    "description": "Woods Playground provides Lee's Summit dog owners with a local spot to visit with their pups. Open from 5am to 11pm daily, dog owners have a window to spend time with their pups. Dog owners might also enjoy Velie Park, another dog park just 0.0 miles away."
  },
  {
    "name": "Veterans Memorial Walk",
    "street": "801 Belleau Creek RdO'Fallon",
    "city": "‍ O'Fallon",
    "state": "MO",
    "zip": "63366",
    "latitude": 38.8007692,
    "longitude": -90.6775116,
    "description": "At 801 Belleau Creek Rd in O'Fallon, Veterans Memorial Walk has built a loyal following—4.9 stars from 40 dog owner reviews. Dog owners looking for a solid destination will find this park delivers. For a change of scenery, Playground is another dog-friendly destination 1.0 miles from here."
  },
  {
    "name": "Broemmelsiek Park",
    "street": "",
    "city": "‍ O'Fallon",
    "state": "MO",
    "zip": "",
    "latitude": 38.6329706,
    "longitude": -90.7788717,
    "description": "O'Fallon dog owners rate Broemmelsiek Park highly, with 4.9 stars from 36 visits. For dog owners in the area, this park has become a trusted spot for time with their pups. The positive feedback from local dog owners speaks to the park's consistent quality."
  },
  {
    "name": "Boulevard Park",
    "street": "2550 Lake St Louis BlvdLake St Louis",
    "city": "‍ O'Fallon",
    "state": "MO",
    "zip": "63367",
    "latitude": 38.782281,
    "longitude": -90.7809988,
    "description": "With 4.7 stars from 371 reviews, Boulevard Park at 2550 Lake St Louis Blvd has become a favorite among O'Fallon dog owners. Dog owners frequent this park for its consistent quality and welcoming atmosphere. Looking for more places to take your pup? O'Day Park is another popular dog park just 2.4 miles away."
  },
  {
    "name": "O'Day Park",
    "street": "1000 O'Day Park DriveO'Fallon",
    "city": "‍ O'Fallon",
    "state": "MO",
    "zip": "63368",
    "latitude": 38.7486808,
    "longitude": -90.7714299,
    "description": "O'Day Park (4.7 stars from 236 reviews) is a popular destination for O'Fallon dog owners, located at 1000 O'Day Park Drive. Open from 6am to 9pm daily, there's room in the day for dog owners to bring their furry friends. For variety, the neighborhood offers more dog parks to explore: Boulevard Park (2.4 miles) and Barathaven Park (2.6 miles)."
  },
  {
    "name": "Bluebird Meadow Park",
    "street": "1668 Henning RdDardenne Prairie",
    "city": "‍ O'Fallon",
    "state": "MO",
    "zip": "63368",
    "latitude": 38.735019,
    "longitude": -90.721606,
    "description": "O'Fallon dog owners rate Bluebird Meadow Park at 1668 Henning Rd highly, with 4.7 stars from 45 visits. Open from 6am to 10pm daily, the park accommodates early risers and evening visitors alike. Other dog parks in the area include Barathaven Park (0.4 miles) and O'Day Park (2.8 miles)—both great for exploring with your four-legged friend."
  },
  {
    "name": "Woodlands Sports Park",
    "street": "1 Woodlands PkwySt Peters",
    "city": "‍ O'Fallon",
    "state": "MO",
    "zip": "63376",
    "latitude": 38.7729973,
    "longitude": -90.6438368,
    "description": "O'Fallon dog owners rate Woodlands Sports Park at 1 Woodlands Pkwy highly, with 4.6 stars from 587 visits. Open from 8am to 8pm daily, the park offers flexibility for dog owners with varying routines. Other dog parks in the area include College Meadows Park (0.8 miles) and Rabbit Run Park (1.0 miles)—both great for exploring with your four-legged friend."
  },
  {
    "name": "‍ Dames Park",
    "street": "387 Dames Park DrO'Fallon",
    "city": "‍ O'Fallon",
    "state": "MO",
    "zip": "63366",
    "latitude": 38.8277189,
    "longitude": -90.708536,
    "description": "Dog owners in O'Fallon have made Dames Park at 387 Dames Park Dr a go-to spot, rating it 4.6 stars across 517 reviews. Open from 6am to 9pm daily, the park offers flexibility for dog owners with varying routines. For variety, the neighborhood offers more dog parks to explore: Civic Park (1.2 miles) and Playground (1.5 miles)."
  },
  {
    "name": "Civic Park",
    "street": "308 Civic Park DrO'Fallon",
    "city": "‍ O'Fallon",
    "state": "MO",
    "zip": "63366",
    "latitude": 38.8112122,
    "longitude": -90.7051393,
    "description": "With 4.6 stars from 414 reviews, Civic Park at 308 Civic Park Dr has become a favorite among O'Fallon dog owners. Open from 6am to 9pm daily, the park offers flexibility for dog owners with varying routines. For variety, the neighborhood offers more dog parks to explore: Playground (0.9 miles) and Dames Park (1.2 miles)."
  },
  {
    "name": "Jack Gettemeyer Park",
    "street": "",
    "city": "‍ O'Fallon",
    "state": "MO",
    "zip": "",
    "latitude": 38.791612,
    "longitude": -90.5958468,
    "description": "Jack Gettemeyer Park is well-regarded by O'Fallon dog owners, holding 4.6 stars across 20 reviews. Dog owners in the area consistently choose this park as a go-to destination for their pups. More dog-friendly parks nearby include City Centre Park (0.0 miles) and Tot Lot Park (1.2 miles)—perfect for pups who love adventure."
  },
  {
    "name": "Barathaven Park",
    "street": "Barathaven BlvdDardenne Prairie",
    "city": "‍ O'Fallon",
    "state": "MO",
    "zip": "63368",
    "latitude": 38.7322055,
    "longitude": -90.7278769,
    "description": "Barathaven Park (4.5 stars from 25 reviews) is a popular destination for O'Fallon dog owners. Dog owners frequent this park for its consistent quality and welcoming atmosphere. For variety, the neighborhood offers more dog parks to explore: Bluebird Meadow Park (0.4 miles) and O'Day Park (2.6 miles)."
  },
  {
    "name": "Knaust Park",
    "street": "114 Sea Side CtO'Fallon",
    "city": "‍ O'Fallon",
    "state": "MO",
    "zip": "63376",
    "latitude": 38.7748942,
    "longitude": -90.6864128,
    "description": "Located at 114 Sea Side Ct in O'Fallon, Knaust Park earns strong marks from local dog owners—4.5 stars from 117 reviews. Open from 7am to 5:30pm daily, the park offers flexibility for dog owners with varying routines. Other dog parks in the area include Veterans Memorial Walk (1.9 miles) and Woodlands Sports Park (2.3 miles)—both great for exploring with your four-legged friend."
  },
  {
    "name": "Tot Lot Park",
    "street": "259 Bellemeade DrSt Peters",
    "city": "‍ O'Fallon",
    "state": "MO",
    "zip": "63376",
    "latitude": 38.7846471,
    "longitude": -90.6157488,
    "description": "O'Fallon dog owners rate Tot Lot Park at 259 Bellemeade Dr highly, with 4.5 stars from 258 visits. Open from 8am to 7pm daily, the park accommodates early risers and evening visitors alike. Nearby, Rabbit Run Park (0.8 miles) offers dog owners another great spot to explore with their pups."
  },
  {
    "name": "Rabbit Run Park",
    "street": "10 Mayfield RdSt Peters",
    "city": "‍ O'Fallon",
    "state": "MO",
    "zip": "63376",
    "latitude": 38.7823959,
    "longitude": -90.6295751,
    "description": "O'Fallon dog owners rate Rabbit Run Park at 10 Mayfield Rd highly, with 4.5 stars from 389 visits. Open from 5am to 7pm daily, there's room in the day for dog owners to bring their furry friends. Dog owners exploring the neighborhood can also bring their furry friends to Covenant Park (0.5 miles)."
  },
  {
    "name": "Dardenne Park",
    "street": "175 Dew CtSt Peters",
    "city": "‍ O'Fallon",
    "state": "MO",
    "zip": "63376",
    "latitude": 38.7931034,
    "longitude": -90.6474116,
    "description": "At 175 Dew Ct, Dardenne Park has 4.4 stars based on 10 reviews from O'Fallon dog owners. Dog owners in the area appreciate having a local spot to bring their pups. Dog owners looking for variety can also visit Brown Road Park (1.0 miles) or Olde Towne Park (1.2 miles) with their four-legged friends."
  },
  {
    "name": "‍ Playground",
    "street": "600-698 Sheppard DrO'Fallon",
    "city": "‍ O'Fallon",
    "state": "MO",
    "zip": "63366",
    "latitude": 38.8117149,
    "longitude": -90.6892587,
    "description": "Dog owners in O'Fallon have rated Playground (600-698 Sheppard Dr) 4.4 stars across 50 reviews. For dog owners in the neighborhood, this park offers a place to take their pups. Dog owners looking for variety can also visit Civic Park (0.9 miles) or Veterans Memorial Walk (1.0 miles) with their four-legged friends."
  },
  {
    "name": "Cherokee Lakes Campground",
    "street": "3942 MO-79O'Fallon",
    "city": "‍ O'Fallon",
    "state": "MO",
    "zip": "63366",
    "latitude": 38.8499438,
    "longitude": -90.701661,
    "description": "At 3942 MO-79, Cherokee Lakes Campground has 4.4 stars based on 267 reviews from O'Fallon dog owners. The park gives neighborhood dog owners a destination for outings with their four-legged friends. Nearby dog parks worth exploring with your pup include Dames Park (1.6 miles) and Civic Park (2.7 miles)."
  },
  {
    "name": "Nathanael Greene/Close Memoria",
    "street": "2400 S Scenic Ave",
    "city": "Springfield",
    "state": "MO",
    "zip": "65807",
    "latitude": 37.1714705,
    "longitude": -93.33186,
    "description": "4,342 dog owners have made Nathanael Greene/Close Memoria (2400 S Scenic Ave) one of Springfield's most trusted parks (4.9 stars). This park has clearly won over local dog owners who return again and again with their furry friends. Other popular dog parks nearby include Rountree Historic Park (1.3 miles) and Champion Park (1.7 miles)—both favorites among local pup parents."
  },
  {
    "name": "S Creek Greenway Trail",
    "street": "S Creek Greenway Trail",
    "city": "Springfield",
    "state": "MO",
    "zip": "65807",
    "latitude": 37.1952284,
    "longitude": -93.3583499,
    "description": "With 4.9 stars from 24 reviews, S Creek Greenway Trail has become a favorite among Springfield dog owners. For dog owners in the area, this park has become a trusted spot for time with their pups. Looking for more places to take your pup? Rountree Historic Park is another popular dog park just 1.3 miles away."
  },
  {
    "name": "Fantastic Caverns",
    "street": "4872 N Farm Rd 125",
    "city": "Springfield",
    "state": "MO",
    "zip": "65803",
    "latitude": 37.2875176,
    "longitude": -93.3585964,
    "description": "Fantastic Caverns at 4872 N Farm Rd 125 in Springfield has earned its reputation with 4.7 stars from 7,379 dog owner reviews. Open from 8am to 5pm daily, dog owners rarely have to rush—there's time to let pups fully enjoy the space. Dog owners exploring the area should also bring their pups to Dickerson Park (3.6 miles) and Lost Hill Park (4.3 miles)."
  },
  {
    "name": "Sequiota Park",
    "street": "3500 S Lone Pine Ave",
    "city": "Springfield",
    "state": "MO",
    "zip": "65804",
    "latitude": 37.149613,
    "longitude": -93.238744,
    "description": "For Springfield dog owners, Sequiota Park at 3500 S Lone Pine Ave has become a reliable favorite—4.7 stars from 3,115 reviews. Open from 5am to 11pm daily, dog owners have plenty of flexibility to visit when it suits their schedule. Want to give your pup even more adventure? Springfield Conservation Natur is another beloved dog park just 1.1 miles away."
  },
  {
    "name": "Lost Hill Park",
    "street": "4705 N Farm Rd 151",
    "city": "Springfield",
    "state": "MO",
    "zip": "65803",
    "latitude": 37.2480174,
    "longitude": -93.2972269,
    "description": "Located at 4705 N Farm Rd 151 in Springfield, Lost Hill Park earns strong marks from local dog owners—4.7 stars from 559 reviews. Open from 6am to 11pm daily, the park works well for dog owners with different schedules. Dog owners exploring the neighborhood can also bring their furry friends to Doling Park (0.4 miles)."
  },
  {
    "name": "Springfield Conservation Natur",
    "street": "4601 S Nature Center Way",
    "city": "Springfield",
    "state": "MO",
    "zip": "65804",
    "latitude": 37.1373612,
    "longitude": -93.2527173,
    "description": "For dog owners in the Springfield area, Springfield Conservation Natur (4601 S Nature Center Way) offers a 4.7-star experience based on 541 reviews. Open from 8am to 5pm, every day except Monday and Sunday, the park offers flexibility for dog owners with varying routines. Other dog parks in the area include Sequiota Park (1.1 miles) and Lake Springfield Park (1.4 miles)—both great for exploring with your four-legged friend."
  },
  {
    "name": "Bark Yard",
    "street": "3110 E Cherry St",
    "city": "Springfield",
    "state": "MO",
    "zip": "65802",
    "latitude": 37.2022496,
    "longitude": -93.2311908,
    "description": "With 4.7 stars from 208 reviews, Bark Yard at 3110 E Cherry St has become a favorite among Springfield dog owners. Open from 7am to 6pm daily, dog owners can plan visits around work or their pup's energy level. Dog owners can also take their pups to nearby Ooley Park (0.7 miles) or George Washington Carver Park (0.9 miles)."
  },
  {
    "name": "Frisco Highline Trail",
    "street": "W Kearney St",
    "city": "Springfield",
    "state": "MO",
    "zip": "65803",
    "latitude": 37.2407113,
    "longitude": -93.2946163,
    "description": "In Springfield, Frisco Highline Trail has built a loyal following—4.7 stars from 178 dog owner reviews. Dog owners looking for a solid destination will find this park delivers. For a change of scenery, Doling Park is another dog-friendly destination 0.3 miles from here."
  },
  {
    "name": "Chesterfield Park",
    "street": "",
    "city": "Springfield",
    "state": "MO",
    "zip": "",
    "latitude": 37.2081729,
    "longitude": -93.2922715,
    "description": "Chesterfield Park (4.7 stars from 119 reviews) is a popular destination for Springfield dog owners. Open from 6am to 9:30pm daily, the park accommodates early risers and evening visitors alike. Nearby, Kirkwood Park (0.0 miles) offers dog owners another great spot to explore with their pups."
  },
  {
    "name": "Lake Springfield Park",
    "street": "5324 S Kissick Ave",
    "city": "Springfield",
    "state": "MO",
    "zip": "65804",
    "latitude": 37.1169689,
    "longitude": -93.2678702,
    "description": "At 5324 S Kissick Ave in Springfield, Lake Springfield Park has built a loyal following—4.6 stars from 17 dog owner reviews. For dog owners in the area, this park has become a trusted spot for time with their pups. Other dog parks in the area include Lake Springfield Park (0.6 miles) and Springfield Conservation Natur (1.6 miles)—both great for exploring with your four-legged friend."
  },
  {
    "name": "Jordan Valley Park",
    "street": "635 E Trafficway St",
    "city": "Springfield",
    "state": "MO",
    "zip": "65806",
    "latitude": 37.210252,
    "longitude": -93.285075,
    "description": "Jordan Valley Park (4.6 stars from 745 reviews) is a popular destination for Springfield dog owners, located at 635 E Trafficway St. Open from 5am to 11pm daily, the park works well for dog owners with different schedules. For a change of scenery, Chesterfield Park is another dog-friendly destination 0.4 miles from here."
  },
  {
    "name": "‍ Valley Water Mill Park",
    "street": "2450 E Valley Water Mill Rd",
    "city": "Springfield",
    "state": "MO",
    "zip": "65803",
    "latitude": 37.2620256,
    "longitude": -93.2581577,
    "description": "At 2450 E Valley Water Mill Rd in Springfield, Valley Water Mill Park has built a loyal following—4.6 stars from 829 dog owner reviews. Open from 7am to 8pm daily, the park works well for dog owners with different schedules. More dog-friendly parks nearby include Springfield-Greene County Park (2.1 miles) and Doling Park (2.2 miles)—perfect for pups who love adventure."
  },
  {
    "name": "Phelps Grove Park",
    "street": "950 E Bennett St",
    "city": "Springfield",
    "state": "MO",
    "zip": "65807",
    "latitude": 37.1892874,
    "longitude": -93.2816923,
    "description": "Dog owners in Springfield have embraced Phelps Grove Park (950 E Bennett St) as a top destination—4.6 stars from 1,501 visits. Open from 5am to 11pm daily, the park is convenient for before work, after work, or weekend adventures. Keep the adventure going at other nearby dog parks like Jenny Lincoln Park (1.1 miles) or McDaniel Park (1.3 miles)."
  },
  {
    "name": "Doling Park",
    "street": "301 E Talmage St",
    "city": "Springfield",
    "state": "MO",
    "zip": "65803",
    "latitude": 37.2444479,
    "longitude": -93.2908011,
    "description": "At 301 E Talmage St in Springfield, Doling Park stands out with 4.5 stars from 1,969 happy dog owners. Open from 5am to 11pm daily, dog owners can plan visits around their pup's favorite times to be active. Nearby, Frisco Highline Trail (0.3 miles) is another dog park favorite where you can take your four-legged friend."
  },
  {
    "name": "Dickerson Park",
    "street": "1401 W Norton Rd",
    "city": "Springfield",
    "state": "MO",
    "zip": "65803",
    "latitude": 37.2548955,
    "longitude": -93.3074505,
    "description": "Local dog owners love Dickerson Park at 1401 W Norton Rd in Springfield—4.5 stars from an impressive 4,430 reviews. Open from 9am to 4pm daily, dog owners can plan visits around their pup's favorite times to be active. For variety, many dog owners also bring their furry friends to Lost Hill Park (0.7 miles)—another great dog park in the area."
  },
  {
    "name": "New Town Park",
    "street": "Civic Green DrSt Charles",
    "city": "St. Charles",
    "state": "MO",
    "zip": "63301",
    "latitude": 38.8360963,
    "longitude": -90.4911005,
    "description": "For dog owners in the St. Charles area, New Town Park offers a 4.8-star experience based on 123 reviews. Open from 8am to 4:30pm daily, the park accommodates early risers and evening visitors alike. Looking for more places to take your pup? Fox Hill Park is another popular dog park just 1.3 miles away."
  },
  {
    "name": "‍ Katy Trail - St. Charles Trail",
    "street": "222 S Riverside DrSt Charles",
    "city": "St. Charles",
    "state": "MO",
    "zip": "63301",
    "latitude": 38.78473,
    "longitude": -90.479294,
    "description": "With 4.8 stars from 63 reviews, Katy Trail - St. Charles Trail at 222 S Riverside Dr has become a favorite among St. Charles dog owners. For dog owners in the area, this park has become a trusted spot for time with their pups. For a change of scenery, Frontier Park is another dog-friendly destination 0.0 miles from here."
  },
  {
    "name": "Frontier Park",
    "street": "500 S Riverside DrSt Charles",
    "city": "St. Charles",
    "state": "MO",
    "zip": "63301",
    "latitude": 38.78473,
    "longitude": -90.479294,
    "description": "Local dog owners love Frontier Park at 500 S Riverside Dr in St. Charles—4.7 stars from an impressive 2,393 reviews. Open from 6am to 12am daily, dog owners can easily fit a visit into their day, whether morning or evening. For more dog park adventures, explore Katy Trail - St. Charles Trail (0.0 miles) or DuSable Park (0.6 miles) with your furry companion."
  },
  {
    "name": "Jaycee Park",
    "street": "2805 Elm StSt Charles",
    "city": "St. Charles",
    "state": "MO",
    "zip": "63301",
    "latitude": 38.8001955,
    "longitude": -90.5038665,
    "description": "At 2805 Elm St in St. Charles, Jaycee Park has built a loyal following—4.7 stars from 607 dog owner reviews. Open from 7am to 8pm daily, the park offers flexibility for dog owners with varying routines. For variety, the neighborhood offers more dog parks to explore: Blanchette Park (1.1 miles) and McNair Park (1.2 miles)."
  },
  {
    "name": "Fox Hill Park",
    "street": "3400 Kister DrSt Charles",
    "city": "St. Charles",
    "state": "MO",
    "zip": "63301",
    "latitude": 38.8172762,
    "longitude": -90.4891238,
    "description": "Fox Hill Park at 3400 Kister Dr is well-regarded by St. Charles dog owners, holding 4.8 stars across 17 reviews. Open from 6am to 9pm daily, dog owners can plan visits around work or their pup's energy level. Nearby, Schneider/Kiwanis Park (1.1 miles) offers dog owners another great spot to explore with their pups."
  },
  {
    "name": "McNair Park",
    "street": "3100 Droste RdSt Charles",
    "city": "St. Charles",
    "state": "MO",
    "zip": "63301",
    "latitude": 38.797328,
    "longitude": -90.525345,
    "description": "At 3100 Droste Rd in St. Charles, McNair Park has built a loyal following—4.6 stars from 635 dog owner reviews. Open from 7am to 10pm daily, the park accommodates early risers and evening visitors alike. Looking for more places to take your pup? Fleet Park is another popular dog park just 0.9 miles away."
  },
  {
    "name": "Blanchette Park",
    "street": "1900 W Randolph StSt Charles",
    "city": "St. Charles",
    "state": "MO",
    "zip": "63301",
    "latitude": 38.7961557,
    "longitude": -90.484205,
    "description": "Located at 1900 W Randolph St in St. Charles, Blanchette Park earns strong marks from local dog owners—4.6 stars from 799 reviews. Open from 7am to 9pm daily, dog owners have plenty of flexibility to plan a visit. Other dog parks in the area include DuSable Park (0.5 miles) and Ed Bales Area (0.8 miles)—both great for exploring with your four-legged friend."
  },
  {
    "name": "370 Lakeside Park",
    "street": "1000 Lakeside Park DrSt Peters",
    "city": "St. Charles",
    "state": "MO",
    "zip": "63376",
    "latitude": 38.8215202,
    "longitude": -90.56966,
    "description": "370 Lakeside Park at 1000 Lakeside Park Dr in St. Charles is a community favorite, with 1,560 dog owners giving it 4.6 stars. Dog owners in the area know they can count on this park for quality time with their pups. For more dog park adventures, explore Shady Springs Park (1.3 miles) or Fountain Lakes Park (2.1 miles) with your furry companion."
  },
  {
    "name": "Wapelhorst Park",
    "street": "1875 Muegge RdSt Charles",
    "city": "St. Charles",
    "state": "MO",
    "zip": "63303",
    "latitude": 38.7676246,
    "longitude": -90.5472546,
    "description": "St. Charles dog owners rate Wapelhorst Park at 1875 Muegge Rd highly, with 4.5 stars from 893 visits. The park serves dog owners well, providing a destination the community values. For variety, the neighborhood offers more dog parks to explore: Schaefer Park (1.0 miles) and Baxter's K9 Complex (1.1 miles)."
  },
  {
    "name": "DuSable Park",
    "street": "110 Olive StSt Charles",
    "city": "St. Charles",
    "state": "MO",
    "zip": "63301",
    "latitude": 38.7933786,
    "longitude": -90.4750807,
    "description": "DuSable Park at 110 Olive St in St. Charles has 4.3 stars from 22 dog owner reviews. The neighborhood benefits from having this park as an option for dog owners and their pups. For pups who want more adventure, Blanchette Park is a nearby dog park worth visiting (0.5 miles)."
  },
  {
    "name": "‍ Ed Bales Area",
    "street": "2598 N Main StSt Charles",
    "city": "St. Charles",
    "state": "MO",
    "zip": "63301",
    "latitude": 38.800939,
    "longitude": -90.471006,
    "description": "70 dog owners have reviewed Ed Bales Area at 2598 N Main St in St. Charles, averaging 4.4 stars. Open from 6am to 10pm daily, dog owners have a window to spend time with their pups. Dog owners in the neighborhood can also take their furry friends to DuSable Park, 0.6 miles away."
  },
  {
    "name": "Fleet Park",
    "street": "Fleet LnSt Charles",
    "city": "St. Charles",
    "state": "MO",
    "zip": "63301",
    "latitude": 38.7980516,
    "longitude": -90.5427016,
    "description": "Fleet Park serves dog owners in the St. Charles neighborhood looking for a place to visit with their pups. Dog owners in the area appreciate having a local spot to bring their pups. Nearby dog parks worth exploring with your pup include McNair Park (0.9 miles) and Shady Springs Park (1.6 miles)."
  },
  {
    "name": "Eco Park",
    "street": "1802 N 2nd StSt Charles",
    "city": "St. Charles",
    "state": "MO",
    "zip": "63301",
    "latitude": 38.9272462,
    "longitude": -90.3442814,
    "description": "At 1802 N 2nd St, Eco Park has 4.4 stars based on 88 reviews from St. Charles dog owners. Open from 8am to 10pm daily, the park gives dog owners in the neighborhood time to bring their pups. Reading what other dog owners have experienced here can help with planning a visit."
  },
  {
    "name": "Schneider/Kiwanis Park",
    "street": "3596 Elm Point RdSt Charles",
    "city": "St. Charles",
    "state": "MO",
    "zip": "63301",
    "latitude": 38.8173978,
    "longitude": -90.5104254,
    "description": "Schneider/Kiwanis Park at 3596 Elm Point Rd in St. Charles has 4.4 stars from 91 dog owner reviews. Open from 7am to 10pm daily, dog owners in the area can work a visit into their day. For pups who want more adventure, Fountain Lakes Park is a nearby dog park worth visiting (1.1 miles)."
  },
  {
    "name": "‍ Heatherbrook Park",
    "street": "130 Wildwood CtSt Charles",
    "city": "St. Charles",
    "state": "MO",
    "zip": "63303",
    "latitude": 38.7488265,
    "longitude": -90.5186124,
    "description": "At 130 Wildwood Ct, Heatherbrook Park has 4.4 stars based on 98 reviews from St. Charles dog owners. Open from 8am to 5pm weekdays, the park gives dog owners in the neighborhood time to bring their pups. For dog owners who like to explore, Baxter's K9 Complex (2.0 miles) and Wapelhorst Park (2.0 miles) are both nearby parks to try with your dog."
  },
  {
    "name": "Schaefer Park",
    "street": "1647 Wilshire Valley DrSt Charles",
    "city": "St. Charles",
    "state": "MO",
    "zip": "63303",
    "latitude": 38.7548936,
    "longitude": -90.5553553,
    "description": "Schaefer Park at 1647 Wilshire Valley Dr holds a 4.4-star rating from 148 St. Charles dog owner visits. Open from 7am to 8pm daily, the park is accessible for dog owners in the area. For pups who want more adventure, Baxter's K9 Complex is a nearby dog park worth visiting (0.1 miles)."
  },
  {
    "name": "Corby Dog Park",
    "street": "2200 Northeast PkwySt Joseph",
    "city": "St. Joseph",
    "state": "MO",
    "zip": "64506",
    "latitude": 39.782438,
    "longitude": -94.834208,
    "description": "For dog owners in the St. Joseph area, Corby Dog Park (2200 Northeast Pkwy) offers a 4.5-star experience based on 244 reviews. Local dog owners appreciate what this park offers their four-legged friends. Based on the reviews, dog owners can expect a reliable spot for spending time with their pup."
  },
  {
    "name": "‍ Forest Park",
    "street": "5595 Grand Dr",
    "city": "St. Louis",
    "state": "MO",
    "zip": "63112",
    "latitude": 38.6280278,
    "longitude": -90.1910154,
    "description": "For St. Louis dog owners, Forest Park at 5595 Grand Dr needs no introduction—4.8 stars, 33,214 reviews. Open from 6am to 10pm daily, the park accommodates everything from early morning walks to evening adventures. For dog owners wanting to explore more with their furry friends, Gateway Arch National Park is another great dog park just 0.0 miles away."
  },
  {
    "name": "Jefferson Barracks Park",
    "street": "345 North Rd W",
    "city": "St. Louis",
    "state": "MO",
    "zip": "63125",
    "latitude": 38.5167867,
    "longitude": -90.2776197,
    "description": "Jefferson Barracks Park at 345 North Rd W in St. Louis is a community favorite, with 2,323 dog owners giving it 4.8 stars. Open from 8am to 8pm daily, dog owners have room to work around busy schedules. Want to give your pup even more adventure? River Des Peres Park is another beloved dog park just 3.1 miles away."
  },
  {
    "name": "‍ Bar K St. Louis",
    "street": "4565 McRee Ave",
    "city": "St. Louis",
    "state": "MO",
    "zip": "63110",
    "latitude": 38.6209894,
    "longitude": -90.2599744,
    "description": "For St. Louis dog owners, Bar K St. Louis at 4565 McRee Ave has become a reliable favorite—4.8 stars from 1,507 reviews. The strong community of dog owners here reflects how much the park is valued. Looking to mix things up? Forest Park is a nearby dog park 0.6 miles away that's worth exploring with your pup."
  },
  {
    "name": "Veterans Tribute Park",
    "street": "1031 Kisker RdWeldon Spring",
    "city": "St. Louis",
    "state": "MO",
    "zip": "63304",
    "latitude": 38.7208727,
    "longitude": -90.6180771,
    "description": "Dog owners in St. Louis have made Veterans Tribute Park at 1031 Kisker Rd a go-to spot, rating it 4.8 stars across 856 reviews. Open from 7am to 8:45pm daily, dog owners can easily fit a visit into busy schedules. For variety, the neighborhood offers more dog parks to explore: Community Park (1.6 miles) and College Meadows Park (3.1 miles)."
  },
  {
    "name": "‍ Gateway Arch National Park",
    "street": "11 N 4th St",
    "city": "St. Louis",
    "state": "MO",
    "zip": "63102",
    "latitude": 38.6280278,
    "longitude": -90.1910154,
    "description": "Gateway Arch National Park at 11 N 4th St is one of the most beloved dog parks in St. Louis—4.7 stars from an incredible 12,735 reviews. Open from 5am to 11pm daily, there's plenty of opportunity for dog owners to experience what makes this park special. While you're in the area, dog owners also recommend taking your pup to Forest Park, another excellent dog park 0.0 miles away."
  },
  {
    "name": "Tower Grove Park",
    "street": "4257 Northeast Dr",
    "city": "St. Louis",
    "state": "MO",
    "zip": "63110",
    "latitude": 38.6066114,
    "longitude": -90.2490529,
    "description": "Tower Grove Park at 4257 Northeast Dr has become essential for St. Louis dog owners, earning 4.7 stars from 7,483 visitors. Open from 5am to 10pm daily, dog owners have maximum flexibility to plan their visit. For more dog park adventures, explore Shaw Membership Only Dog Park (0.4 miles) or McDonald Park (0.8 miles) with your furry companion."
  },
  {
    "name": "Citygarden Sculpture Park",
    "street": "801 Market St",
    "city": "St. Louis",
    "state": "MO",
    "zip": "63101",
    "latitude": 38.626347,
    "longitude": -90.193428,
    "description": "For St. Louis dog owners, Citygarden Sculpture Park at 801 Market St has become a reliable favorite—4.7 stars from 2,921 reviews. Open from 6am to 10pm daily, the park accommodates a variety of dog owner schedules and routines. Nearby, Kiener Plaza Park (0.1 miles) is another dog park favorite where you can take your four-legged friend."
  },
  {
    "name": "Lafayette Park",
    "street": "2023 Lafayette Ave",
    "city": "St. Louis",
    "state": "MO",
    "zip": "63104",
    "latitude": 38.6143704,
    "longitude": -90.2149286,
    "description": "Local dog owners love Lafayette Park at 2023 Lafayette Ave in St. Louis—4.7 stars from an impressive 1,441 reviews. Open from 6am to 10pm daily, dog owners have plenty of flexibility to visit when it suits their schedule. Other popular dog parks nearby include Frenchtown Member's Only Dog (0.6 miles) and Compton Hill Reservoir Park (1.3 miles)—both favorites among local pup parents."
  },
  {
    "name": "Shaw Park",
    "street": "27 S Brentwood BlvdClayton",
    "city": "St. Louis",
    "state": "MO",
    "zip": "63105",
    "latitude": 38.6501155,
    "longitude": -90.3415804,
    "description": "For St. Louis dog owners, Shaw Park at 27 S Brentwood Blvd has become a reliable favorite—4.7 stars from 1,305 reviews. Open from 6am to 11pm daily, dog owners have room to work around busy schedules. Dog owners in the area also love bringing their pups to Clayton Dog Park (0.8 miles) and Irv Zeid Citizens' Park (1.7 miles)."
  },
  {
    "name": "Quail Ridge Park",
    "street": "560 Interstate DrWentzville",
    "city": "St. Louis",
    "state": "MO",
    "zip": "63385",
    "latitude": 38.8026645,
    "longitude": -90.8456329,
    "description": "Dog owners in St. Louis have made Quail Ridge Park at 560 Interstate Dr a go-to spot, rating it 4.7 stars across 627 reviews. Open from 7am to 5:30pm daily, dog owners have plenty of flexibility to plan a visit. Other dog parks in the area include Memorial Park (0.7 miles) and Fireman's Park (0.8 miles)—both great for exploring with your four-legged friend."
  },
  {
    "name": "Chouteau Park",
    "street": "Chouteau Ave",
    "city": "St. Louis",
    "state": "MO",
    "zip": "63110",
    "latitude": 38.6277599,
    "longitude": -90.2452385,
    "description": "For dog owners in the St. Louis area, Chouteau Park offers a 4.7-star experience based on 11 reviews. Dog owners in the area consistently choose this park as a go-to destination for their pups. For a change of scenery, Forest Park is another dog-friendly destination 0.7 miles from here."
  },
  {
    "name": "All Bark Village",
    "street": "776 Joachim AveHerculaneum",
    "city": "St. Louis",
    "state": "MO",
    "zip": "63048",
    "latitude": 38.2630654,
    "longitude": -90.3866334,
    "description": "St. Louis dog owners rate All Bark Village at 776 Joachim Ave highly, with 4.6 stars from 69 visits. Open from 6am to 8pm daily, there's plenty of opportunity for dog owners to find a time that works. The steady stream of positive reviews suggests dog owners consistently have good experiences here."
  },
  {
    "name": "Taylor Park",
    "street": "222 N Taylor Ave",
    "city": "St. Louis",
    "state": "MO",
    "zip": "63108",
    "latitude": 38.6427748,
    "longitude": -90.2577166,
    "description": "Taylor Park at 222 N Taylor Ave is well-regarded by St. Louis dog owners, holding 4.6 stars across 84 reviews. The park has earned its reputation among dog owners in the neighborhood as a reliable choice. For a change of scenery, Forest Park is another dog-friendly destination 0.9 miles from here."
  },
  {
    "name": "Ozark Dog Park",
    "street": "1839",
    "city": "St. Louis",
    "state": "MO",
    "zip": "63010",
    "latitude": 38.4273267,
    "longitude": -90.3856656,
    "description": "Ozark Dog Park (4.6 stars from 269 reviews) is a popular destination for St. Louis dog owners, located at 1839 Ozark. Dog owners frequent this park for its consistent quality and welcoming atmosphere. The steady stream of positive reviews suggests dog owners consistently have good experiences here."
  },
  {
    "name": "Central Park",
    "street": "7461 Elm AveMaplewood",
    "city": "St. Louis",
    "state": "MO",
    "zip": "63143",
    "latitude": 38.6085028,
    "longitude": -90.3230627,
    "description": "St. Louis dog owners rate Central Park at 7461 Elm Ave highly, with 4.5 stars from 24 visits. Open from 7am to 9pm daily, the park accommodates early risers and evening visitors alike. More dog-friendly parks nearby include Clayton Dog Park (2.6 miles) and Willmore Park (3.0 miles)—perfect for pups who love adventure."
  },
  {
    "name": "Edgar M. Queeny County Park",
    "street": "550 Weidman Rd",
    "city": "St. Louis",
    "state": "MO",
    "zip": "63011",
    "latitude": 38.5823419,
    "longitude": -90.4916608,
    "description": "1,437 dog owners have made Edgar M. Queeny County Park (550 Weidman Rd) one of St. Louis's most trusted parks (4.6 stars). This park has clearly won over local dog owners who return again and again with their furry friends. Nearby, Tails & Trails Dog Park (2.0 miles) is another dog park favorite where you can take your four-legged friend."
  },
  {
    "name": "City Centre Park",
    "street": "1 St Peters Centre BlvdSt Peters",
    "city": "St. Peters",
    "state": "MO",
    "zip": "63376",
    "latitude": 38.791602,
    "longitude": -90.5959041,
    "description": "City Centre Park at 1 St Peters Centre Blvd in St. Peters is a community favorite, with 1,121 dog owners giving it 4.6 stars. Open from 7am to 8pm daily, the park accommodates a variety of dog owner schedules and routines. Nearby, Jack Gettemeyer Park (0.0 miles) is another dog park favorite where you can take your four-legged friend."
  },
  {
    "name": "Laurel Park",
    "street": "3000 McClay Valley BlvdSt Peters",
    "city": "St. Peters",
    "state": "MO",
    "zip": "63376",
    "latitude": 38.7606601,
    "longitude": -90.5678761,
    "description": "With 4.6 stars from 564 reviews, Laurel Park at 3000 McClay Valley Blvd has become a favorite among St. Peters dog owners. Open from 7am to 7pm daily, there's room in the day for dog owners to bring their furry friends. Looking for more places to take your pup? Schaefer Park is another popular dog park just 0.8 miles away."
  },
  {
    "name": "Covenant Park",
    "street": "2199 Willott RdSt Peters",
    "city": "St. Peters",
    "state": "MO",
    "zip": "63376",
    "latitude": 38.7756266,
    "longitude": -90.6254122,
    "description": "Covenant Park (4.5 stars from 144 reviews) is a popular destination for St. Peters dog owners, located at 2199 Willott Rd. Open from 6am to 10pm daily, there's plenty of opportunity for dog owners to find a time that works. Looking for more places to take your pup? Rabbit Run Park is another popular dog park just 0.5 miles away."
  },
  {
    "name": "Baxter's K9 Complex",
    "street": "2903 N St Peters PkwySt Peters",
    "city": "St. Peters",
    "state": "MO",
    "zip": "63376",
    "latitude": 38.753404,
    "longitude": -90.5544512,
    "description": "150 dog owners have reviewed Baxter's K9 Complex at 2903 N St Peters Pkwy in St. Peters, averaging 4.3 stars. Dog owners in the area appreciate having a local spot to bring their pups. For dog owners who like to explore, Schaefer Park (0.1 miles) and Laurel Park (0.9 miles) are both nearby parks to try with your dog."
  },
  {
    "name": "Shady Springs Park",
    "street": "3888 Shady Springs LnSt Peters",
    "city": "St. Peters",
    "state": "MO",
    "zip": "63376",
    "latitude": 38.8031468,
    "longitude": -90.5717786,
    "description": "Located at 3888 Shady Springs Ln, Shady Springs Park in St. Peters is rated 4.3 stars by 192 dog owners. Open from 7am to 7pm daily, dog owners can stop by when it fits their schedule. Nearby dog parks worth exploring with your pup include 370 Lakeside Park (1.3 miles) and Jack Gettemeyer Park (1.5 miles)."
  }
]