[
  {
    "name": "Norm Schoenthal Island",
    "street": "",
    "city": "Billings",
    "state": "MT",
    "zip": "",
    "latitude": 45.7874957,
    "longitude": -108.49607,
    "description": "In Billings, Norm Schoenthal Island has built a loyal following—4.8 stars from 143 dog owner reviews. Open from 6am to 9pm daily, there's plenty of opportunity for dog owners to find a time that works. For variety, the neighborhood offers more dog parks to explore: High Sierra Dog Park (0.0 miles) and High Sierra Park (2.8 miles)."
  },
  {
    "name": "High Sierra Dog Park",
    "street": "",
    "city": "Billings",
    "state": "MT",
    "zip": "",
    "latitude": 45.7874957,
    "longitude": -108.49607,
    "description": "In Billings, High Sierra Dog Park has built a loyal following—4.8 stars from 75 dog owner reviews. Open from 5am to 10pm daily, the park offers flexibility for dog owners with varying routines. Dog owners exploring the neighborhood can also bring their furry friends to Norm Schoenthal Island (0.0 miles)."
  },
  {
    "name": "High Sierra Park",
    "street": "W Wicks Ln",
    "city": "Billings",
    "state": "MT",
    "zip": "59105",
    "latitude": 45.8274462,
    "longitude": -108.4967953,
    "description": "In Billings, High Sierra Park has built a loyal following—4.6 stars from 215 dog owner reviews. Open from 5am to 10pm daily, there's room in the day for dog owners to bring their furry friends. Dog owners exploring the neighborhood can also bring their furry friends to Lake Elmo State Park (1.4 miles)."
  },
  {
    "name": "Spring Creek Park",
    "street": "911 15th St W",
    "city": "Billings",
    "state": "MT",
    "zip": "59102",
    "latitude": 45.7791123,
    "longitude": -108.553708,
    "description": "At 911 15th St W in Billings, Spring Creek Park has built a loyal following—4.5 stars from 123 dog owner reviews. Open from 5am to 10pm daily, the park offers flexibility for dog owners with varying routines. Dog owners can also take their pups to nearby Sacajawea Park (1.3 miles) or Central Park (1.6 miles)."
  },
  {
    "name": "Central Park",
    "street": "Central Ave",
    "city": "Billings",
    "state": "MT",
    "zip": "59102",
    "latitude": 45.7697318,
    "longitude": -108.5840208,
    "description": "Central Park in Billings has 4.4 stars from 280 dog owner reviews. Open from 5am to 10pm daily, dog owners can stop by when it fits their schedule. Dog owners might also enjoy Millice Park, another dog park just 0.2 miles away."
  },
  {
    "name": "Sacajawea Park",
    "street": "2112 Beloit Dr",
    "city": "Billings",
    "state": "MT",
    "zip": "59102",
    "latitude": 45.764192,
    "longitude": -108.5686776,
    "description": "Dog owners in Billings have rated Sacajawea Park (2112 Beloit Dr) 4.4 stars across 286 reviews. Open from 5am to 10pm daily, dog owners have a window to spend time with their pups. Dog owners might also enjoy Central Park, another dog park just 0.8 miles away."
  },
  {
    "name": "Lake Elmo State Park",
    "street": "219 Rolling Hills Dr",
    "city": "Billings",
    "state": "MT",
    "zip": "59105",
    "latitude": 45.8448462,
    "longitude": -108.4800905,
    "description": "Billings dog owners rate Lake Elmo State Park at 219 Rolling Hills Dr highly, with 4.4 stars from 1,048 visits. Open from 5am to 10pm daily, dog owners can plan visits around work or their pup's energy level. Nearby, High Sierra Park (1.4 miles) offers dog owners another great spot to explore with their pups."
  },
  {
    "name": "Millice Park",
    "street": "32 29th St W",
    "city": "Billings",
    "state": "MT",
    "zip": "59102",
    "latitude": 45.77099,
    "longitude": -108.588446,
    "description": "Dog owners in Billings have rated Millice Park (32 29th St W) 4.2 stars across 39 reviews. Open from 5am to 10pm daily, dog owners in the area can work a visit into their day. Dog owners in the neighborhood can also take their furry friends to Central Park, 0.2 miles away."
  },
  {
    "name": "Snowfill Recreation Area",
    "street": "",
    "city": "Bozeman",
    "state": "MT",
    "zip": "",
    "latitude": 45.6794293,
    "longitude": -111.044047,
    "description": "Dog owners in Bozeman have made Snowfill Recreation Area a go-to spot, rating it 4.9 stars across 217 reviews. Dog owners looking for a solid destination will find this park delivers. For variety, the neighborhood offers more dog parks to explore: Story Mill Dog Park (1.9 miles) and Dog Park (2.7 miles)."
  },
  {
    "name": "Story Mill Dog Park",
    "street": "1859 Story Mill Rd",
    "city": "Bozeman",
    "state": "MT",
    "zip": "59715",
    "latitude": 45.7014471,
    "longitude": -111.0211355,
    "description": "With 4.9 stars from 11 reviews, Story Mill Dog Park at 1859 Story Mill Rd has become a favorite among Bozeman dog owners. Dog owners frequent this park for its consistent quality and welcoming atmosphere. Nearby, Snowfill Recreation Area (1.9 miles) offers dog owners another great spot to explore with their pups."
  },
  {
    "name": "Dog Park",
    "street": "3900 Baxter Ln",
    "city": "Bozeman",
    "state": "MT",
    "zip": "59718",
    "latitude": 45.700122,
    "longitude": -111.091889,
    "description": "Located at 3900 Baxter Ln in Bozeman, Dog Park earns strong marks from local dog owners—4.8 stars from 405 reviews. The steady stream of dog owner visits speaks to the park's appeal. More dog-friendly parks nearby include Snowfill Recreation Area (2.7 miles) and Story Mill Dog Park (3.4 miles)—perfect for pups who love adventure."
  },
  {
    "name": "Pacific Steel & Recycling",
    "street": "800 River Dr N",
    "city": "Great Falls",
    "state": "MT",
    "zip": "59401",
    "latitude": 47.5171107,
    "longitude": -111.2943882,
    "description": "For dog owners in the Great Falls area, Pacific Steel & Recycling (800 River Dr N) offers a 4.7-star experience based on 187 reviews. Local dog owners appreciate what this park offers their four-legged friends. Looking for more places to take your pup? Oddfellows Park is another popular dog park just 1.7 miles away."
  },
  {
    "name": "Oddfellows Park",
    "street": "920 River Dr S",
    "city": "Great Falls",
    "state": "MT",
    "zip": "59405",
    "latitude": 47.4947603,
    "longitude": -111.3087907,
    "description": "For dog owners in Great Falls, Oddfellows Park at 920 River Dr S has a 4.4-star rating (87 reviews). Dog owners looking for a local destination will find this park accessible. Dog owners in the neighborhood can also take their furry friends to Pacific Steel & Recycling, 1.7 miles away."
  },
  {
    "name": "Crazy Canyon",
    "street": "",
    "city": "‍ Missoula",
    "state": "MT",
    "zip": "",
    "latitude": 46.8701049,
    "longitude": -113.995267,
    "description": "With 4.8 stars from 77 reviews, Crazy Canyon has become a favorite among Missoula dog owners. The park has earned its reputation among dog owners in the neighborhood as a reliable choice. Looking for more places to take your pup? Jacobs Island Offleash Dog is another popular dog park just 0.0 miles away."
  },
  {
    "name": "Caras Park",
    "street": "123 Carousel Dr",
    "city": "‍ Missoula",
    "state": "MT",
    "zip": "59802",
    "latitude": 46.8706282,
    "longitude": -113.997651,
    "description": "1,672 dog owners have made Caras Park (123 Carousel Dr) one of Missoula's most trusted parks (4.7 stars). Open from 6am to 11pm daily, the park is convenient for before work, after work, or weekend adventures. For variety, many dog owners also bring their furry friends to Crazy Canyon (0.1 miles)—another great dog park in the area."
  },
  {
    "name": "Greenough Park",
    "street": "1001 Monroe St",
    "city": "‍ Missoula",
    "state": "MT",
    "zip": "59802",
    "latitude": 46.874318,
    "longitude": -113.979879,
    "description": "Dog owners in Missoula have made Greenough Park at 1001 Monroe St a go-to spot, rating it 4.7 stars across 767 reviews. Open from 5am to 9pm daily, dog owners have plenty of flexibility to plan a visit. Nearby, Crazy Canyon (0.8 miles) offers dog owners another great spot to explore with their pups."
  },
  {
    "name": "Bonner Park",
    "street": "1600 Ronald Ave",
    "city": "‍ Missoula",
    "state": "MT",
    "zip": "59801",
    "latitude": 46.855993,
    "longitude": -113.994016,
    "description": "At 1600 Ronald Ave in Missoula, Bonner Park has built a loyal following—4.7 stars from 671 dog owner reviews. Open from 6am to 11pm daily, the park works well for dog owners with different schedules. Looking for more places to take your pup? Crazy Canyon is another popular dog park just 1.0 miles away."
  },
  {
    "name": "Jacobs Island Offleash Dog",
    "street": "",
    "city": "‍ Missoula",
    "state": "MT",
    "zip": "",
    "latitude": 46.8701049,
    "longitude": -113.995267,
    "description": "Jacobs Island Offleash Dog is well-regarded by Missoula dog owners, holding 4.7 stars across 388 reviews. Open from 6am to 11pm daily, the park accommodates early risers and evening visitors alike. More dog-friendly parks nearby include Crazy Canyon (0.0 miles) and Caras Park (0.1 miles)—perfect for pups who love adventure."
  },
  {
    "name": "McCormick Park",
    "street": "600 Cregg Ln",
    "city": "‍ Missoula",
    "state": "MT",
    "zip": "59801",
    "latitude": 46.8712901,
    "longitude": -114.0049785,
    "description": "Missoula dog owners rate McCormick Park at 600 Cregg Ln highly, with 4.6 stars from 307 visits. Open from 6am to 10pm daily, the park offers flexibility for dog owners with varying routines. Nearby, Caras Park (0.3 miles) offers dog owners another great spot to explore with their pups."
  },
  {
    "name": "44 Ranch Park",
    "street": "2503 Riata Rd",
    "city": "‍ Missoula",
    "state": "MT",
    "zip": "59808",
    "latitude": 46.8947493,
    "longitude": -114.0717741,
    "description": "Located at 2503 Riata Rd, 44 Ranch Park in Missoula is rated 4.4 stars by 18 dog owners. Open from 6am to 11pm daily, the park fits conveniently into different routines. More dog parks in the area include Pleasant View Park (1.1 miles) and Lafray Park (2.5 miles)—great options for mixing up your pup's routine."
  },
  {
    "name": "East Missoula Lions Park",
    "street": "766 Michigan Ave",
    "city": "‍ Missoula",
    "state": "MT",
    "zip": "59802",
    "latitude": 46.8763362,
    "longitude": -113.9390692,
    "description": "With 4.5 stars from 48 reviews, East Missoula Lions Park at 766 Michigan Ave has become a favorite among Missoula dog owners. Dog owners frequent this park for its consistent quality and welcoming atmosphere. Dog owners can also take their pups to nearby Greenough Park (1.9 miles) or Crazy Canyon (2.7 miles)."
  },
  {
    "name": "Missoula County Big Sky Park",
    "street": "Spurgin Rd",
    "city": "‍ Missoula",
    "state": "MT",
    "zip": "59804",
    "latitude": 46.8596968,
    "longitude": -114.0605154,
    "description": "In Missoula, Missoula County Big Sky Park has built a loyal following—4.5 stars from 116 dog owner reviews. For dog owners in the area, this park has become a trusted spot for time with their pups. Dog owners exploring the neighborhood can also bring their furry friends to Franklin park (1.4 miles)."
  },
  {
    "name": "Pleasant View Park",
    "street": "4024 Lexington Ave",
    "city": "‍ Missoula",
    "state": "MT",
    "zip": "59808",
    "latitude": 46.8957938,
    "longitude": -114.0495224,
    "description": "74 dog owners have reviewed Pleasant View Park at 4024 Lexington Ave in Missoula, averaging 4.4 stars. This park provides dog owners in the community with a place to visit with their dogs. More dog parks in the area include 44 Ranch Park (1.1 miles) and Lafray Park (1.8 miles)—great options for mixing up your pup's routine."
  },
  {
    "name": "‍ Lafray Park",
    "street": "606 Lafray Ln",
    "city": "‍ Missoula",
    "state": "MT",
    "zip": "59801",
    "latitude": 46.8744564,
    "longitude": -114.0289527,
    "description": "101 dog owners have reviewed Lafray Park at 606 Lafray Ln in Missoula, averaging 4.4 stars. Open from 8am to 7am daily, the park is accessible for dog owners in the area. For dog owners who like to explore, Franklin park (0.9 miles) and McCormick Park (1.2 miles) are both nearby parks to try with your dog."
  },
  {
    "name": "‍ Montana RailLink Park",
    "street": "2110 S Johnson St",
    "city": "‍ Missoula",
    "state": "MT",
    "zip": "59801",
    "latitude": 46.8513556,
    "longitude": -114.0280492,
    "description": "At 2110 S Johnson St, Montana RailLink Park has 4.2 stars based on 37 reviews from Missoula dog owners. Open from 6am to 10pm daily, dog owners in the area can work a visit into their day. More dog parks in the area include Franklin park (0.7 miles) and Lafray Park (1.6 miles)—great options for mixing up your pup's routine."
  },
  {
    "name": "Franklin park",
    "street": "1100 Kemp St",
    "city": "‍ Missoula",
    "state": "MT",
    "zip": "59801",
    "latitude": 46.861381,
    "longitude": -114.029943,
    "description": "116 dog owners have reviewed Franklin park at 1100 Kemp St in Missoula, averaging 4.3 stars. Open from 6am to 11pm daily, dog owners have flexibility to plan a visit with their four-legged friends. Looking to explore more? Montana RailLink Park is another dog-friendly park 0.7 miles from here."
  }
]