[
  {
    "name": "The Crossings Park",
    "street": "580 Albany Shaker Rd",
    "city": "Albany",
    "state": "NY",
    "zip": "12211",
    "latitude": 42.717867,
    "longitude": -73.7924747,
    "description": "The Crossings Park at 580 Albany Shaker Rd is a favorite among Albany dog owners, earning 4.7 stars from 2,274 reviews. Open from 8am to 8pm daily, dog owners can plan visits around their pup's favorite times to be active. For variety, many dog owners also bring their furry friends to Town of Colonie - West Albany (2.0 miles)—another great dog park in the area."
  },
  {
    "name": "Washington Park",
    "street": "35 Willett St",
    "city": "Albany",
    "state": "NY",
    "zip": "12210",
    "latitude": 42.6562197,
    "longitude": -73.7719595,
    "description": "Washington Park at 35 Willett St in Albany is a community favorite, with 2,957 dog owners giving it 4.6 stars. This park has clearly won over local dog owners who return again and again with their furry friends. For variety, many dog owners also bring their furry friends to Leroy Street Dog Park (0.6 miles)—another great dog park in the area."
  },
  {
    "name": "Andersen Dog Park",
    "street": "414 Swaggertown Rd",
    "city": "Albany",
    "state": "NY",
    "zip": "12302",
    "latitude": 42.8724653,
    "longitude": -73.9487785,
    "description": "At 414 Swaggertown Rd in Albany, Andersen Dog Park has built a loyal following—4.6 stars from 118 dog owner reviews. Dog owners in the area consistently choose this park as a go-to destination for their pups. The steady stream of positive reviews suggests dog owners consistently have good experiences here."
  },
  {
    "name": "Hartman Rd Dog Park",
    "street": "Hartman Rd",
    "city": "Albany",
    "state": "NY",
    "zip": "12208",
    "latitude": 42.6493668,
    "longitude": -73.8297285,
    "description": "In Albany, Hartman Rd Dog Park has built a loyal following—4.5 stars from 104 dog owner reviews. Open from 6am to 8:30pm daily, dog owners can plan visits around work or their pup's energy level. Other dog parks in the area include Buckingham Lake Park (1.5 miles) and Normanskill Farm Dog Park (1.8 miles)—both great for exploring with your four-legged friend."
  },
  {
    "name": "Frank Waterson Park",
    "street": "Colvin Ave",
    "city": "Albany",
    "state": "NY",
    "zip": "12206",
    "latitude": 42.679314,
    "longitude": -73.7948537,
    "description": "With 4.5 stars from 134 reviews, Frank Waterson Park has become a favorite among Albany dog owners. Open from 7am to 9pm daily, dog owners have plenty of flexibility to plan a visit. For variety, the neighborhood offers more dog parks to explore: Westland Hills Dog Park (0.3 miles) and Town of Colonie - West Albany (0.6 miles)."
  },
  {
    "name": "‍ Town of Colonie - West Albany",
    "street": "90 Braintree St",
    "city": "Albany",
    "state": "NY",
    "zip": "12205",
    "latitude": 42.6886281,
    "longitude": -73.7935142,
    "description": "Town of Colonie - West Albany (4.5 stars from 159 reviews) is a popular destination for Albany dog owners, located at 90 Braintree St. Dog owners frequent this park for its consistent quality and welcoming atmosphere. More dog-friendly parks nearby include Westland Hills Dog Park (0.6 miles) and Frank Waterson Park (0.6 miles)—perfect for pups who love adventure."
  },
  {
    "name": "Riverfront Preserve",
    "street": "",
    "city": "Albany",
    "state": "NY",
    "zip": "",
    "latitude": 42.6511674,
    "longitude": -73.754968,
    "description": "Riverfront Preserve (4.5 stars from 206 reviews) is a popular destination for Albany dog owners. Open from 8:30am to 5pm weekdays, the park works well for dog owners with different schedules. For a change of scenery, Washington Park is another dog-friendly destination 0.0 miles from here."
  },
  {
    "name": "Saratoga Springs Dog Park",
    "street": "10 Crescent St",
    "city": "Albany",
    "state": "NY",
    "zip": "12866",
    "latitude": 43.0651366,
    "longitude": -73.7867402,
    "description": "With 4.5 stars from 318 reviews, Saratoga Springs Dog Park at 10 Crescent St has become a favorite among Albany dog owners. Open from 6am to 9pm daily, the park accommodates early risers and evening visitors alike. Local dog owners have clearly found this to be a worthwhile destination."
  },
  {
    "name": "Corning Preserve",
    "street": "Quay St",
    "city": "Albany",
    "state": "NY",
    "zip": "12207",
    "latitude": 42.6520472,
    "longitude": -73.7465783,
    "description": "For dog owners in the Albany area, Corning Preserve offers a 4.5-star experience based on 421 reviews. Dog owners in the area consistently choose this park as a go-to destination for their pups. For variety, the neighborhood offers more dog parks to explore: Olde English Downtown Dog Park (0.2 miles) and Washington Park (0.4 miles)."
  },
  {
    "name": "Buckingham Lake Park",
    "street": "39 Berkshire Blvd",
    "city": "Albany",
    "state": "NY",
    "zip": "12203",
    "latitude": 42.6646192,
    "longitude": -73.8078637,
    "description": "At 39 Berkshire Blvd in Albany, Buckingham Lake Park has built a loyal following—4.5 stars from 539 dog owner reviews. Open from 8am to 8pm daily, the park accommodates early risers and evening visitors alike. Nearby, Frank Waterson Park (1.2 miles) offers dog owners another great spot to explore with their pups."
  },
  {
    "name": "Beverwyck Park",
    "street": "640 Washington Ave",
    "city": "Albany",
    "state": "NY",
    "zip": "12203",
    "latitude": 42.6651201,
    "longitude": -73.7791323,
    "description": "At 640 Washington Ave, Beverwyck Park has 4.4 stars based on 20 reviews from Albany dog owners. Open from 8:30am to 5pm weekdays, dog owners can stop by when it fits their schedule. More dog parks in the area include Washington Park (0.7 miles) and Leroy Street Dog Park (0.9 miles)—great options for mixing up your pup's routine."
  },
  {
    "name": "Town of Colonie Dog Park",
    "street": "71 Schermerhorn Rd",
    "city": "Albany",
    "state": "NY",
    "zip": "12047",
    "latitude": 42.7958832,
    "longitude": -73.7459784,
    "description": "Town of Colonie Dog Park at 71 Schermerhorn Rd in Albany has 4.4 stars from 33 dog owner reviews. Open from 6am to 8pm daily, dog owners have a window to spend time with their pups. Checking recent reviews can help dog owners decide if this park fits their needs."
  },
  {
    "name": "Olde English Downtown Dog Park",
    "street": "119 N Pearl St",
    "city": "Albany",
    "state": "NY",
    "zip": "12207",
    "latitude": 42.6527697,
    "longitude": -73.750612,
    "description": "63 dog owners have reviewed Olde English Downtown Dog Park at 119 N Pearl St in Albany, averaging 4.4 stars. Open from 7am to 7:30pm daily, local dog owners have time to explore with their furry companions. For pups who want more adventure, Corning Preserve is a nearby dog park worth visiting (0.2 miles)."
  },
  {
    "name": "Normanskill Farm Dog Park",
    "street": "Mill Rd",
    "city": "Albany",
    "state": "NY",
    "zip": "12209",
    "latitude": 42.6358065,
    "longitude": -73.8004399,
    "description": "Dog owners in Albany have rated Normanskill Farm Dog Park 4.4 stars across 114 reviews. Open from 6am to 8pm daily, dog owners in the area can work a visit into their day. More dog parks in the area include Hartman Rd Dog Park (1.8 miles) and Dog Park (1.9 miles)—great options for mixing up your pup's routine."
  },
  {
    "name": "Dog Park",
    "street": "",
    "city": "Albany",
    "state": "NY",
    "zip": "",
    "latitude": 42.6220235,
    "longitude": -73.8326232,
    "description": "For dog owners in Albany, Dog Park has a 4.3-star rating (40 reviews). This park provides dog owners in the community with a place to visit with their dogs. More dog parks in the area include Normanskill Farm Dog Park (1.9 miles) and Hartman Rd Dog Park (1.9 miles)—great options for mixing up your pup's routine."
  },
  {
    "name": "Town of Hempstead Dog Park",
    "street": "2858 Shore Rd",
    "city": "Bellmore",
    "state": "NY",
    "zip": "11710",
    "latitude": 40.650255,
    "longitude": -73.532582,
    "description": "Located at 2858 Shore Rd in Bellmore, Town of Hempstead Dog Park earns strong marks from local dog owners—4.7 stars from 55 reviews. Open from 9am to 7pm daily, the park accommodates early risers and evening visitors alike. More dog-friendly parks nearby include Wantagh Park (1.1 miles) and Bernard Brown Park (4.0 miles)—perfect for pups who love adventure."
  },
  {
    "name": "K9 Barks N Brews",
    "street": "2866 Pleasant Ave",
    "city": "Buffalo",
    "state": "NY",
    "zip": "14075",
    "latitude": 42.7277476,
    "longitude": -78.8886849,
    "description": "At 2866 Pleasant Ave in Buffalo , K9 Barks N Brews has built a loyal following—5.0 stars from 48 dog owner reviews. Local dog owners appreciate what this park offers their four-legged friends. Nearby, Hamburg Dog Park (3.1 miles) offers dog owners another great spot to explore with their pups."
  },
  {
    "name": "Knox Farm State Park",
    "street": "437 Buffalo RdEa",
    "city": "Buffalo",
    "state": "NY",
    "zip": "14052",
    "latitude": 42.7723798,
    "longitude": -78.6382626,
    "description": "With 4.8 stars across 1,420 reviews, Knox Farm State Park at 437 Buffalo Rd has clearly won over Buffalo dog owners. Open from 6am to 6pm daily, dog owners have plenty of flexibility to visit when it suits their schedule. The consistent praise from dog owners makes this an easy recommendation."
  },
  {
    "name": "Temporary Dog Park",
    "street": "536 4th St",
    "city": "Buffalo",
    "state": "NY",
    "zip": "14201",
    "latitude": 42.8971957,
    "longitude": -78.8950807,
    "description": "Buffalo dog owners rate Temporary Dog Park at 536 4th St highly, with 4.9 stars from 9 visits. Dog owners in the area consistently choose this park as a go-to destination for their pups. For a change of scenery, Ralph Wilson Park is another dog-friendly destination 0.1 miles from here."
  },
  {
    "name": "Delaware Park",
    "street": "84 Parkside Ave",
    "city": "Buffalo",
    "state": "NY",
    "zip": "14214",
    "latitude": 42.939437,
    "longitude": -78.8513242,
    "description": "Delaware Park at 84 Parkside Ave is one of the most beloved dog parks in Buffalo —4.7 stars from an incredible 5,617 reviews. Open from 7am to 10pm daily, dog owners have generous hours to visit with their pups. Dog owners exploring the area should also bring their pups to Japanese Garden (1.3 miles) and Freedom Park (3.0 miles)."
  },
  {
    "name": "Buffalo Harbor State Park",
    "street": "1111 Fuhrmann Boulevard",
    "city": "Buffalo",
    "state": "NY",
    "zip": "14203",
    "latitude": 42.8464994,
    "longitude": -78.861142,
    "description": "With 4.7 stars across 1,477 reviews, Buffalo Harbor State Park at 1111 Fuhrmann Boulevard has clearly won over Buffalo dog owners. For dog owners seeking a tried-and-true destination, this park delivers consistently. For variety, many dog owners also bring their furry friends to Tifft Nature Preserve (0.2 miles)—another great dog park in the area."
  },
  {
    "name": "Wilkeson Pointe",
    "street": "225 Fuhrmann Boulevard",
    "city": "Buffalo",
    "state": "NY",
    "zip": "14203",
    "latitude": 42.8710648,
    "longitude": -78.88025,
    "description": "Wilkeson Pointe at 225 Fuhrmann Boulevard in Buffalo is a community favorite, with 1,068 dog owners giving it 4.7 stars. Open from 6am to 9pm daily, dog owners have plenty of flexibility to visit when it suits their schedule. Looking to mix things up? Unity Island Park is a nearby dog park 1.1 miles away that's worth exploring with your pup."
  },
  {
    "name": "Tifft Nature Preserve",
    "street": "1200 Fuhrmann Boulevard",
    "city": "Buffalo",
    "state": "NY",
    "zip": "14203",
    "latitude": 42.8470773,
    "longitude": -78.8572452,
    "description": "Tifft Nature Preserve at 1200 Fuhrmann Boulevard is well-regarded by Buffalo dog owners, holding 4.7 stars across 436 reviews. Open from 10am to 4pm, every day except Monday and Tuesday, dog owners can easily fit a visit into busy schedules. For a change of scenery, Buffalo Harbor State Park is another dog-friendly destination 0.2 miles from here."
  },
  {
    "name": "Ship Canal Commons",
    "street": "Ship Canal Pkwy",
    "city": "Buffalo",
    "state": "NY",
    "zip": "14203",
    "latitude": 42.8343531,
    "longitude": -78.8450745,
    "description": "Ship Canal Commons is well-regarded by Buffalo dog owners, holding 4.6 stars across 45 reviews. Open from 6am to 9pm daily, the park works well for dog owners with different schedules. Looking for more places to take your pup? Tifft Nature Preserve is another popular dog park just 1.1 miles away."
  },
  {
    "name": "DeVeaux Woods State Park",
    "street": "3100 Lewiston Rd",
    "city": "Buffalo",
    "state": "NY",
    "zip": "14305",
    "latitude": 43.1195873,
    "longitude": -79.0566885,
    "description": "DeVeaux Woods State Park (4.6 stars from 88 reviews) is a popular destination for Buffalo dog owners, located at 3100 Lewiston Rd. The park has earned its reputation among dog owners in the neighborhood as a reliable choice. Dog owners exploring the neighborhood can also bring their furry friends to Lewiston Dog Park (3.8 miles)."
  },
  {
    "name": "Barkology",
    "street": "4939 Genesee St",
    "city": "Buffalo",
    "state": "NY",
    "zip": "14225",
    "latitude": 42.9358778,
    "longitude": -78.7047351,
    "description": "Buffalo dog owners rate Barkology at 4939 Genesee St highly, with 4.6 stars from 190 visits. The park serves dog owners well, providing a destination the community values. For a change of scenery, Amherst State Park is another dog-friendly destination 3.3 miles from here."
  },
  {
    "name": "Amherst State Park",
    "street": "390 Mill St",
    "city": "Buffalo",
    "state": "NY",
    "zip": "14221",
    "latitude": 42.9712647,
    "longitude": -78.747847,
    "description": "Amherst State Park (4.6 stars from 530 reviews) is a popular destination for Buffalo dog owners, located at 390 Mill St. Open from 6am to 10pm daily, dog owners can plan visits around work or their pup's energy level. Nearby, Barkology (3.3 miles) offers dog owners another great spot to explore with their pups."
  },
  {
    "name": "Japanese Garden",
    "street": "1 Museum Ct",
    "city": "Buffalo",
    "state": "NY",
    "zip": "14216",
    "latitude": 42.9350671,
    "longitude": -78.8769121,
    "description": "For dog owners in the Buffalo area, Japanese Garden (1 Museum Ct) offers a 4.6-star experience based on 909 reviews. Open from 5am to 10pm daily, there's room in the day for dog owners to bring their furry friends. Looking for more places to take your pup? Delaware Park is another popular dog park just 1.3 miles away."
  },
  {
    "name": "Ellicott Creek Park",
    "street": "1 Ellicott Creek Rd",
    "city": "Buffalo",
    "state": "NY",
    "zip": "14150",
    "latitude": 43.013693,
    "longitude": -78.867208,
    "description": "Dog owners in Buffalo have embraced Ellicott Creek Park (1 Ellicott Creek Rd) as a top destination—4.6 stars from 1,748 visits. Open from 7am to 9pm daily, dog owners have plenty of flexibility to visit when it suits their schedule. Looking to mix things up? Niawanda Park is a nearby dog park 1.1 miles away that's worth exploring with your pup."
  },
  {
    "name": "Niawanda Park",
    "street": "200 Niagara St",
    "city": "Buffalo",
    "state": "NY",
    "zip": "14150",
    "latitude": 43.0192196,
    "longitude": -78.8866098,
    "description": "Niawanda Park at 200 Niagara St in Buffalo is a community favorite, with 2,503 dog owners giving it 4.6 stars. Open from 7am to 10pm daily, there's always time for dog owners to bring their pup for some quality time. Want to give your pup even more adventure? Ellicott Creek Park is another beloved dog park just 1.1 miles away."
  },
  {
    "name": "Arlington Park",
    "street": "9 Arlington Pl",
    "city": "Buffalo",
    "state": "NY",
    "zip": "14201",
    "latitude": 42.9013204,
    "longitude": -78.8796965,
    "description": "Located at 9 Arlington Pl in Buffalo , Arlington Park earns strong marks from local dog owners—4.5 stars from 24 reviews. Open from 6am to 10pm daily, dog owners can easily fit a visit into busy schedules. For a change of scenery, Days Park is another dog-friendly destination 0.1 miles from here."
  },
  {
    "name": "Brookdale Park",
    "street": "293 Mc",
    "city": "Buffalo",
    "state": "NY",
    "zip": "14220",
    "latitude": 42.8400512,
    "longitude": -78.8137165,
    "description": "Buffalo dog owners rate Brookdale Park at 293 McKinley Pkwy highly, with 4.5 stars from 29 visits. Open from 7am to 8:30pm daily, there's plenty of opportunity for dog owners to find a time that works. For a change of scenery, Ship Canal Commons is another dog-friendly destination 1.6 miles from here."
  },
  {
    "name": "Eisenhower Park",
    "street": "1899 Hempstead Tpke",
    "city": "East Meadow",
    "state": "NY",
    "zip": "11554",
    "latitude": 40.7243932,
    "longitude": -73.5664456,
    "description": "With 7,549 reviews and a 4.6-star rating, Eisenhower Park (1899 Hempstead Tpke) has become a landmark for East Meadow dog owners. The community of dog owners here reflects the park's outstanding reputation. While you're in the area, dog owners also recommend taking your pup to Eisenhower Dog Park, another excellent dog park 1.1 miles away."
  },
  {
    "name": "Bay Park",
    "street": "2 Marjorie Ln",
    "city": "East Rockaway",
    "state": "NY",
    "zip": "11518",
    "latitude": 40.6331918,
    "longitude": -73.6623116,
    "description": "With 4.5 stars from 412 reviews, Bay Park at 2 Marjorie Ln has become a favorite among East Rockaway dog owners. Open from 8am to 8pm daily, the park offers flexibility for dog owners with varying routines. Dog owners can also take their pups to nearby Valley Stream Dog Park (3.2 miles) or Park (3.6 miles)."
  },
  {
    "name": "‍ Campbell Park",
    "street": "75 Evans Ave",
    "city": "Hempstead",
    "state": "NY",
    "zip": "11550",
    "latitude": 40.6976861,
    "longitude": -73.6270942,
    "description": "Dog owners in Hempstead have rated Campbell Park (75 Evans Ave) 4.3 stars across 92 reviews. Open from 6am to 9pm daily, dog owners in the area can work a visit into their day. Dog owners looking for variety can also visit Kennedy Memorial Park (0.8 miles) or Park (1.3 miles) with their four-legged friends."
  },
  {
    "name": "Kennedy Memorial Park",
    "street": "335 Greenwich St",
    "city": "Hempstead",
    "state": "NY",
    "zip": "11550",
    "latitude": 40.7000168,
    "longitude": -73.6119017,
    "description": "With 4.2 stars from 679 reviews, Kennedy Memorial Park at 335 Greenwich St has become a favorite among Hempstead dog owners. The park has earned its reputation among dog owners in the neighborhood as a reliable choice. For a change of scenery, Campbell Park is another dog-friendly destination 0.8 miles from here."
  },
  {
    "name": "‍ Mirschel Park",
    "street": "90 Atlantic Ave",
    "city": "Hempstead",
    "state": "NY",
    "zip": "11550",
    "latitude": 40.7349837,
    "longitude": -73.6644287,
    "description": "Located at 90 Atlantic Ave, Mirschel Park in Hempstead is rated 4.1 stars by 18 dog owners. Local dog owners use this park as a spot to spend time with their furry companions. For pups who want more adventure, Tully Dog Park is a nearby dog park worth visiting (0.8 miles)."
  },
  {
    "name": "Brierley Park",
    "street": "65 Dartmouth St",
    "city": "Hempstead",
    "state": "NY",
    "zip": "11550",
    "latitude": 40.7168485,
    "longitude": -73.6197835,
    "description": "Dog owners in the Hempstead area will find Brierley Park at 65 Dartmouth St—a local option for spending time with their pups. The neighborhood benefits from having this park as an option for dog owners and their pups. Looking to explore more? Kennedy Memorial Park is another dog-friendly park 1.2 miles from here."
  },
  {
    "name": "Co-op City Greenway",
    "street": "",
    "city": "Mount Vernon",
    "state": "NY",
    "zip": "",
    "latitude": 40.8466508,
    "longitude": -73.8785937,
    "description": "For dog owners in the Mount Vernon area, Co-op City Greenway offers a 4.7-star experience based on 232 reviews. Open from 6am to 10pm daily, the park works well for dog owners with different schedules. Dog owners can also take their pups to nearby Sir William's Dog Run (3.0 miles) or Brush Park (4.4 miles)."
  },
  {
    "name": "Bronx River Pathway",
    "street": "",
    "city": "Mount Vernon",
    "state": "NY",
    "zip": "",
    "latitude": 40.9312099,
    "longitude": -73.8987469,
    "description": "Bronx River Pathway is well-regarded by Mount Vernon dog owners, holding 4.7 stars across 209 reviews. Open from 8am to 6:30pm daily, the park accommodates early risers and evening visitors alike. Dog owners exploring the neighborhood can also bring their furry friends to Ravine Park (0.8 miles)."
  },
  {
    "name": "Ossining Dog Park",
    "street": "235 Cedar Ln",
    "city": "Mount Vernon",
    "state": "NY",
    "zip": "10562",
    "latitude": 41.1915638,
    "longitude": -73.8544106,
    "description": "Mount Vernon dog owners rate Ossining Dog Park at 235 Cedar Ln highly, with 4.6 stars from 55 visits. Open from 6am to 9pm daily, dog owners can plan visits around work or their pup's energy level. The consistent ratings suggest dog owners know what to expect here."
  },
  {
    "name": "Hunt Woods Park",
    "street": "",
    "city": "Mount Vernon",
    "state": "NY",
    "zip": "",
    "latitude": 40.9125085,
    "longitude": -73.8386504,
    "description": "Mount Vernon dog owners rate Hunt Woods Park highly, with 4.5 stars from 91 visits. Open from 6am to 7pm daily, the park works well for dog owners with different schedules. Nearby, Brush Park (1.0 miles) offers dog owners another great spot to explore with their pups."
  },
  {
    "name": "Scout Field",
    "street": "1820 Midland Ave",
    "city": "Mount Vernon",
    "state": "NY",
    "zip": "10708",
    "latitude": 40.9351069,
    "longitude": -73.8353697,
    "description": "Dog owners in Mount Vernon have rated Scout Field (1820 Midland Ave) 4.4 stars across 148 reviews. Open from 6am to 10pm daily, dog owners can stop by when it fits their schedule. More dog parks in the area include Georgia Avenue Park (0.3 miles) and Bronxville Dog Park (1.0 miles)—great options for mixing up your pup's routine."
  },
  {
    "name": "Willson’s Woods Park",
    "street": "8 Bradford Rd",
    "city": "Mount Vernon",
    "state": "NY",
    "zip": "10553",
    "latitude": 40.9114636,
    "longitude": -73.8178458,
    "description": "Willson’s Woods Park at 8 Bradford Rd is well-regarded by Mount Vernon dog owners, holding 4.4 stars across 868 reviews. Open from 11am to 6:30pm daily, dog owners can easily fit a visit into busy schedules. Dog owners can also take their pups to nearby Hunt Woods Park (1.1 miles) or Brush Park (1.1 miles)."
  },
  {
    "name": "Georgia Avenue Park",
    "street": "1482 Georgia Ave",
    "city": "Mount Vernon",
    "state": "NY",
    "zip": "10708",
    "latitude": 40.9320319,
    "longitude": -73.8398193,
    "description": "At 1482 Georgia Ave in Mount Vernon, Georgia Avenue Park carries 4.3 stars from 33 dog owner reviews. Open from 6:30am to 8:30pm daily, dog owners can stop by when it fits their schedule. More dog parks in the area include Scout Field (0.3 miles) and Bronxville Dog Park (1.3 miles)—great options for mixing up your pup's routine."
  },
  {
    "name": "Brush Park",
    "street": "555 S 3rd Ave",
    "city": "Mount Vernon",
    "state": "NY",
    "zip": "10550",
    "latitude": 40.8987446,
    "longitude": -73.8310419,
    "description": "Dog owners in Mount Vernon have rated Brush Park (555 S 3rd Ave) 4.3 stars across 210 reviews. Dog owners in the area appreciate having a local spot to bring their pups. More dog parks in the area include Hunt Woods Park (1.0 miles) and Willson’s Woods Park (1.1 miles)—great options for mixing up your pup's routine."
  },
  {
    "name": "Sycamore Park",
    "street": "83 Kings Hwy",
    "city": "Mount Vernon",
    "state": "NY",
    "zip": "10801",
    "latitude": 40.902913,
    "longitude": -73.7953551,
    "description": "41 dog owners have reviewed Sycamore Park at 83 Kings Hwy in Mount Vernon, averaging 4.1 stars. Open from 6am to 9:30pm daily, dog owners can stop by when it fits their schedule. Nearby dog parks worth exploring with your pup include Glen Island Park (0.5 miles) and Eddie Foy Park (0.9 miles)."
  },
  {
    "name": "Elmsford Dog Park",
    "street": "Winthrop Ave",
    "city": "Mount Vernon",
    "state": "NY",
    "zip": "10523",
    "latitude": 41.0605541,
    "longitude": -73.8125376,
    "description": "Dog owners in the Mount Vernon area will find Elmsford Dog Park—a local option for spending time with their pups. Open from 7am to 8pm daily, the park fits conveniently into different routines. More dog parks in the area include Chatterton Park (2.6 miles) and Battle Hill Park (2.7 miles)—great options for mixing up your pup's routine."
  },
  {
    "name": "‍ Bark Park",
    "street": "465 Main St E",
    "city": "Mount Vernon",
    "state": "NY",
    "zip": "10604",
    "latitude": 41.0372512,
    "longitude": -73.7553371,
    "description": "Located at 465 Main St E, Bark Park offers Mount Vernon dog owners a neighborhood destination for their four-legged friends. Open from 6am to 8pm daily, the park gives dog owners in the neighborhood time to bring their pups. More dog parks in the area include Chatterton Park (1.2 miles) and Battle Hill Park (1.4 miles)—great options for mixing up your pup's routine."
  },
  {
    "name": "Tully Dog Park",
    "street": "211 Denton Ave",
    "city": "New Hyde Park",
    "state": "NY",
    "zip": "11040",
    "latitude": 40.7452646,
    "longitude": -73.6724888,
    "description": "With 4.5 stars from 221 reviews, Tully Dog Park at 211 Denton Ave has become a favorite among New Hyde Park dog owners. Open from 7am to 8:30pm daily, the park offers flexibility for dog owners with varying routines. Looking for more places to take your pup? Mirschel Park is another popular dog park just 0.8 miles away."
  },
  {
    "name": "Glen Island Park",
    "street": "Weyman Ave",
    "city": "New Rochelle",
    "state": "NY",
    "zip": "10805",
    "latitude": 40.8967853,
    "longitude": -73.7891129,
    "description": "Glen Island Park in New Rochelle is a community favorite, with 3,516 dog owners giving it 4.6 stars. Open from 8am to 8pm daily, the park accommodates a variety of dog owner schedules and routines. Other popular dog parks nearby include Sycamore Park (0.5 miles) and Shore Park (0.9 miles)—both favorites among local pup parents."
  },
  {
    "name": "Shore Park",
    "street": "50 Shore Rd",
    "city": "New Rochelle",
    "state": "NY",
    "zip": "10803",
    "latitude": 40.8842818,
    "longitude": -73.7928112,
    "description": "For dog owners in the New Rochelle area, Shore Park (50 Shore Rd) offers a 4.6-star experience based on 369 reviews. Open from 6:30am to 9pm daily, dog owners can plan visits around work or their pup's energy level. Nearby, Glen Island Park (0.9 miles) offers dog owners another great spot to explore with their pups."
  },
  {
    "name": "Ward Acres Park",
    "street": "300 Broadfield Rd",
    "city": "New Rochelle",
    "state": "NY",
    "zip": "10804",
    "latitude": 40.9575761,
    "longitude": -73.784006,
    "description": "Ward Acres Park (4.5 stars from 263 reviews) is a popular destination for New Rochelle dog owners, located at 300 Broadfield Rd. Open from 6am to 8pm daily, dog owners have plenty of flexibility to plan a visit. Dog owners exploring the neighborhood can also bring their furry friends to Paws Place Dog Park (0.0 miles)."
  },
  {
    "name": "Hudson Park",
    "street": "1 Hudson Park Rd",
    "city": "New Rochelle",
    "state": "NY",
    "zip": "10801",
    "latitude": 40.907386,
    "longitude": -73.771253,
    "description": "Local dog owners love Hudson Park at 1 Hudson Park Rd in New Rochelle—4.5 stars from an impressive 1,273 reviews. Open from 8am to 6pm daily, dog owners have plenty of flexibility to visit when it suits their schedule. Want to give your pup even more adventure? Eddie Foy Park is another beloved dog park just 0.7 miles away."
  },
  {
    "name": "Eddie Foy Park",
    "street": "",
    "city": "New Rochelle",
    "state": "NY",
    "zip": "",
    "latitude": 40.9115386,
    "longitude": -73.7826363,
    "description": "Eddie Foy Park in New Rochelle has 4.4 stars based on 58 reviews from dog owners. Local dog owners use this park as a spot to spend time with their furry companions. For dog owners who like to explore, Hudson Park (0.7 miles) and Sycamore Park (0.9 miles) are both nearby parks to try with your dog."
  },
  {
    "name": "Larchmont Dog Beach",
    "street": "118 Park Ave",
    "city": "New Rochelle",
    "state": "NY",
    "zip": "10538",
    "latitude": 40.9172231,
    "longitude": -73.7497517,
    "description": "Dog owners in the New Rochelle area will find Larchmont Dog Beach at 118 Park Ave—a local option for spending time with their pups. Open from 9am to 12:30pm daily, the park fits conveniently into different routines. Looking to explore more? Hudson Park is another dog-friendly park 1.3 miles from here."
  },
  {
    "name": "Manhattan Beach Dog Run",
    "street": "Park Ave",
    "city": "New York",
    "state": "NY",
    "zip": "11235",
    "latitude": 40.6957448,
    "longitude": -73.9639484,
    "description": "New York dog owners rate Manhattan Beach Dog Run highly, with 4.7 stars from 354 visits. Open from 6am to 9pm daily, the park accommodates early risers and evening visitors alike. Nearby, Marcy Green Dog Park (1.0 miles) offers dog owners another great spot to explore with their pups."
  },
  {
    "name": "Marcy Green Dog Park",
    "street": "153 Marcy Ave",
    "city": "New York",
    "state": "NY",
    "zip": "11211",
    "latitude": 40.7086597,
    "longitude": -73.9576354,
    "description": "Dog owners in New York have made Marcy Green Dog Park at 153 Marcy Ave a go-to spot, rating it 4.9 stars across 12 reviews. Dog owners looking for a solid destination will find this park delivers. Other dog parks in the area include Soho Grand Private Dog Park (0.7 miles) and Domino Park (0.7 miles)—both great for exploring with your four-legged friend."
  },
  {
    "name": "Domino Park",
    "street": "15 River St",
    "city": "New York",
    "state": "NY",
    "zip": "11211",
    "latitude": 40.7166283,
    "longitude": -73.9665073,
    "description": "Located at 15 River St in New York, Domino Park earns strong marks from local dog owners—4.7 stars from 38 reviews. The steady stream of dog owner visits speaks to the park's appeal. Looking for more places to take your pup? Soho Grand Private Dog Park is another popular dog park just 0.1 miles away."
  },
  {
    "name": "Chelsea Park",
    "street": "294 10th Ave",
    "city": "New York",
    "state": "NY",
    "zip": "10001",
    "latitude": 40.7499993,
    "longitude": -74.0023622,
    "description": "Dog owners in New York have made Chelsea Park at 294 10th Ave a go-to spot, rating it 4.9 stars across 7 reviews. Open from 6am to 1am daily, dog owners can easily fit a visit into busy schedules. For variety, the neighborhood offers more dog parks to explore: Chelsea Waterside (0.2 miles) and Chelsea Waterside Dog Park (0.3 miles)."
  },
  {
    "name": "‍ Sirius Dog Run",
    "street": "385 S End Ave",
    "city": "New York",
    "state": "NY",
    "zip": "10280",
    "latitude": 40.7116179,
    "longitude": -74.0169917,
    "description": "For dog owners in the New York area, Sirius Dog Run (385 S End Ave) offers a 4.7-star experience based on 16 reviews. Local dog owners appreciate what this park offers their four-legged friends. Dog owners can also take their pups to nearby West Thames Dog Run (0.3 miles) or Rockefeller Park (0.3 miles)."
  },
  {
    "name": "Madison Square Park",
    "street": "11 Madison Ave",
    "city": "New York",
    "state": "NY",
    "zip": "10010",
    "latitude": 40.7415982,
    "longitude": -73.9871904,
    "description": "Dog owners have made Madison Square Park at 11 Madison Ave one of New York's most popular destinations—4.6 stars from 20,213 visits. Open from 10am to 5pm daily, dog owners rarely have to rush—there's time to let pups fully enjoy the space. For dog owners wanting to explore more with their furry friends, Jemmy's Dog Run is another great dog park just 0.1 miles away."
  },
  {
    "name": "Theodore Roosevelt Park",
    "street": "200 Central Park W",
    "city": "New York",
    "state": "NY",
    "zip": "10024",
    "latitude": 40.7813974,
    "longitude": -73.9733215,
    "description": "With 11,666 reviews and a 4.6-star rating, Theodore Roosevelt Park (200 Central Park W) has become a landmark for New York dog owners. Open from 6am to 9pm daily, dog owners rarely have to rush—there's time to let pups fully enjoy the space. The neighborhood offers dog owners more places to bring their pups: West 87th Street Dog Run (0.7 miles) and Riverside Park (1.3 miles)."
  },
  {
    "name": "Prospect Park",
    "street": "95 Prospect Park WBrooklyn",
    "city": "New York",
    "state": "NY",
    "zip": "11215",
    "latitude": 40.6668931,
    "longitude": -73.9737731,
    "description": "At 95 Prospect Park W in New York, Prospect Park has built a loyal following—4.6 stars from 567 dog owner reviews. Open from 5am to 1am daily, dog owners can plan visits around work or their pup's energy level. Dog owners can also take their pups to nearby Kensington Dog Run (1.1 miles) or Manhattan Beach Dog Run (2.1 miles)."
  },
  {
    "name": "Hillside Dog Park",
    "street": "Vine St",
    "city": "New York",
    "state": "NY",
    "zip": "11201",
    "latitude": 40.7017697,
    "longitude": -73.9939783,
    "description": "For dog owners in the New York area, Hillside Dog Park offers a 4.6-star experience based on 365 reviews. Open from 6am to 1am daily, dog owners can plan visits around work or their pup's energy level. Dog owners exploring the neighborhood can also bring their furry friends to Fishbridge Park (0.6 miles)."
  },
  {
    "name": "Carl Schurz Park",
    "street": "Carl Schurz Park",
    "city": "New York",
    "state": "NY",
    "zip": "10028",
    "latitude": 40.7736,
    "longitude": -73.945,
    "description": "In New York, Carl Schurz Park has built a loyal following—4.6 stars from 258 dog owner reviews. Open from 6am to 12am, every day except Wednesday and Thursday, the park offers flexibility for dog owners with varying routines. Nearby, East River Esplanade Dog Run (1.1 miles) offers dog owners another great spot to explore with their pups."
  },
  {
    "name": "Kensington Dog Run",
    "street": "397A Coney Island Ave",
    "city": "New York",
    "state": "NY",
    "zip": "11218",
    "latitude": 40.6504275,
    "longitude": -73.9719616,
    "description": "Located at 397A Coney Island Ave in New York, Kensington Dog Run earns strong marks from local dog owners—4.6 stars from 215 reviews. Open from 6am to 10pm daily, dog owners have plenty of flexibility to plan a visit. Nearby, Prospect Park (1.1 miles) offers dog owners another great spot to explore with their pups."
  },
  {
    "name": "Sir William's Dog Run",
    "street": "Margaret Corbin Dr",
    "city": "New York",
    "state": "NY",
    "zip": "10040",
    "latitude": 40.8620773,
    "longitude": -73.9325436,
    "description": "With 4.6 stars from 131 reviews, Sir William's Dog Run has become a favorite among New York dog owners. Open from 6am to 1am daily, the park offers flexibility for dog owners with varying routines. Nearby, Fort Lee Dog Park (2.8 miles) offers dog owners another great spot to explore with their pups."
  },
  {
    "name": "‍ Leroy Street Dog Park",
    "street": "2353 West St",
    "city": "New York",
    "state": "NY",
    "zip": "10014",
    "latitude": 42.6613583,
    "longitude": -73.7619619,
    "description": "With 4.6 stars from 103 reviews, Leroy Street Dog Park at 2 has become a favorite among New York dog owners. Open from 6am to 1am daily, the park offers flexibility for dog owners with varying routines. For a change of scenery, Washington Park is another dog-friendly destination 0.6 miles from here."
  },
  {
    "name": "Tompkins Square Dog Run",
    "street": "99 1/2 St Marks Pl",
    "city": "New York",
    "state": "NY",
    "zip": "10009",
    "latitude": 40.7274013,
    "longitude": -73.984443,
    "description": "For dog owners in the New York area, Tompkins Square Dog Run (99 1/2 St Marks Pl) offers a 4.6-star experience based on 102 reviews. Open from 6am to 11pm daily, dog owners have plenty of flexibility to plan a visit. More dog-friendly parks nearby include Union Square Dog Run (0.7 miles) and Robin Kovary Dog Run for Small (0.7 miles)—perfect for pups who love adventure."
  },
  {
    "name": "Peter Detmold Dog Run",
    "street": "455 E 51st St",
    "city": "New York",
    "state": "NY",
    "zip": "10022",
    "latitude": 40.7538795,
    "longitude": -73.9639685,
    "description": "With 4.6 stars from 27 reviews, Peter Detmold Dog Run at 455 E 51st St has become a favorite among New York dog owners. For dog owners in the area, this park has become a trusted spot for time with their pups. Looking for more places to take your pup? Peter Detmold Park is another popular dog park just 0.1 miles away."
  },
  {
    "name": "Robin Kovary Dog Run for Small",
    "street": "59 Washington Square S",
    "city": "New York",
    "state": "NY",
    "zip": "10012",
    "latitude": 40.730291,
    "longitude": -73.997877,
    "description": "Located at 59 Washington Square S in New York, Robin Kovary Dog Run for Small earns strong marks from local dog owners—4.6 stars from 18 reviews. Dog owners in the area consistently choose this park as a go-to destination for their pups. Dog owners exploring the neighborhood can also bring their furry friends to Washington Square Park (0.0 miles)."
  },
  {
    "name": "Forest Park",
    "street": "80-30 Park Ln",
    "city": "Queens",
    "state": "NY",
    "zip": "11415",
    "latitude": 40.7111058,
    "longitude": -73.8352945,
    "description": "With 4.6 stars from 558 reviews, Forest Park at 80-30 Park Ln has become a favorite among Queens dog owners. Open from 6am to 9pm daily, dog owners have plenty of flexibility to plan a visit. For a change of scenery, Maria Hernandez Park is another dog-friendly destination 4.7 miles from here."
  },
  {
    "name": "Woofs Canine Club & Indoor",
    "street": "187 W Main St",
    "city": "Rochester",
    "state": "NY",
    "zip": "14580",
    "latitude": 43.2121611,
    "longitude": -77.4374976,
    "description": "With 4.9 stars from 37 reviews, Woofs Canine Club & Indoor at 187 W Main St has become a favorite among Rochester dog owners. For dog owners in the area, this park has become a trusted spot for time with their pups. The positive feedback from local dog owners speaks to the park's consistent quality."
  },
  {
    "name": "Highland Park",
    "street": "180 Reservoir Ave",
    "city": "Rochester",
    "state": "NY",
    "zip": "14620",
    "latitude": 43.1323869,
    "longitude": -77.60796,
    "description": "At 180 Reservoir Ave in Rochester, Highland Park stands out with 4.8 stars from 4,189 happy dog owners. Open from 10am to 4pm daily, dog owners have room to work around busy schedules. For more dog park adventures, explore Marie Daley Park (0.7 miles) or Goodwin Park (1.6 miles) with your furry companion."
  },
  {
    "name": "Cobbs Hill Park",
    "street": "80 Culver Rd",
    "city": "Rochester",
    "state": "NY",
    "zip": "14610",
    "latitude": 43.1405799,
    "longitude": -77.5766154,
    "description": "Dog owners in Rochester have embraced Cobbs Hill Park (80 Culver Rd) as a top destination—4.7 stars from 2,557 visits. Open from 6am to 9pm daily, there's always time for dog owners to bring their pup for some quality time. Keep the adventure going at other nearby dog parks like Cobbs Hill Dog Park (0.4 miles) or Goodwin Park (1.2 miles)."
  },
  {
    "name": "Ellison Park",
    "street": "395 Richs Dugway Rd",
    "city": "Rochester",
    "state": "NY",
    "zip": "14625",
    "latitude": 43.1468644,
    "longitude": -77.5183626,
    "description": "At 395 Richs Dugway Rd in Rochester, Ellison Park stands out with 4.7 stars from 1,467 happy dog owners. Open from 7am to 11pm daily, dog owners can plan visits around their pup's favorite times to be active. Looking to mix things up? Corbett's Glen Nature Park is a nearby dog park 0.8 miles away that's worth exploring with your pup."
  },
  {
    "name": "‍ Corbett's Glen Nature Park",
    "street": "415 Penfield Rd",
    "city": "Rochester",
    "state": "NY",
    "zip": "14625",
    "latitude": 43.1376736,
    "longitude": -77.52683,
    "description": "Corbett's Glen Nature Park at 415 Penfield Rd in Rochester is a community favorite, with 1,128 dog owners giving it 4.7 stars. Open from 8am to 10pm daily, dog owners have room to work around busy schedules. Dog owners in the area also love bringing their pups to Ellison Park (0.8 miles) and Cobbs Hill Dog Park (2.1 miles)."
  },
  {
    "name": "Brewster Harding Park",
    "street": "65 Brewster Rd",
    "city": "Rochester",
    "state": "NY",
    "zip": "14612",
    "latitude": 43.2226252,
    "longitude": -77.6206676,
    "description": "For dog owners in the Rochester area, Brewster Harding Park (65 Brewster Rd) offers a 4.6-star experience based on 13 reviews. Open from 8am to 7pm daily, the park works well for dog owners with different schedules. Dog owners can also take their pups to nearby St. John's Park (1.5 miles) or La Grange Park (2.7 miles)."
  },
  {
    "name": "‍ Goodwin Park",
    "street": "21 Sibley Pl",
    "city": "Rochester",
    "state": "NY",
    "zip": "14607",
    "latitude": 43.1522985,
    "longitude": -77.5935582,
    "description": "At 21 Sibley Pl in Rochester, Goodwin Park has built a loyal following—4.6 stars from 52 dog owner reviews. Open from 6am to 10pm daily, the park works well for dog owners with different schedules. Other dog parks in the area include Marie Daley Park (1.0 miles) and Ellison Dog Park (1.1 miles)—both great for exploring with your four-legged friend."
  },
  {
    "name": "Greece Canal Park",
    "street": "241 Elmgrove Rd",
    "city": "Rochester",
    "state": "NY",
    "zip": "14626",
    "latitude": 43.1995041,
    "longitude": -77.7379348,
    "description": "Dog owners in Rochester have made Greece Canal Park at 241 Elmgrove Rd a go-to spot, rating it 4.6 stars across 558 reviews. Open from 6am to 11pm daily, dog owners can plan visits around work or their pup's energy level. For a change of scenery, La Grange Park is another dog-friendly destination 4.3 miles from here."
  },
  {
    "name": "Ellison Dog Park",
    "street": "",
    "city": "Rochester",
    "state": "NY",
    "zip": "",
    "latitude": 43.157285,
    "longitude": -77.615214,
    "description": "In Rochester, Ellison Dog Park has built a loyal following—4.5 stars from 311 dog owner reviews. Open from 8am to 7pm daily, the park accommodates early risers and evening visitors alike. Dog owners exploring the neighborhood can also bring their furry friends to Brown Square Park (0.5 miles)."
  },
  {
    "name": "Sweden Dog Park",
    "street": "4752 Redman Rd",
    "city": "Rochester",
    "state": "NY",
    "zip": "14420",
    "latitude": 43.2171601,
    "longitude": -77.967015,
    "description": "At 4752 Redman Rd, Sweden Dog Park has 4.4 stars based on 95 reviews from Rochester dog owners. Open from 8am to 9pm daily, dog owners in the area can work a visit into their day. Reading what other dog owners have experienced here can help with planning a visit."
  },
  {
    "name": "Marie Daley Park",
    "street": "160 Gregory St",
    "city": "Rochester",
    "state": "NY",
    "zip": "14620",
    "latitude": 43.14251,
    "longitude": -77.6081529,
    "description": "Located at 160 Gregory St, Marie Daley Park in Rochester is rated 4.4 stars by 128 dog owners. For dog owners in the neighborhood, this park offers a place to take their pups. For pups who want more adventure, Highland Park is a nearby dog park worth visiting (0.7 miles)."
  },
  {
    "name": "Pittsford Dog Park",
    "street": "34 East St",
    "city": "Rochester",
    "state": "NY",
    "zip": "14534",
    "latitude": 43.0731226,
    "longitude": -77.4945679,
    "description": "Located at 34 East St, Pittsford Dog Park in Rochester is rated 4.3 stars by 54 dog owners. Open from 7am to 9pm daily, dog owners in the area can work a visit into their day. For pups who want more adventure, Corbett's Glen Nature Park is a nearby dog park worth visiting (4.7 miles)."
  },
  {
    "name": "Lookup Park",
    "street": "3850 E Henrietta Rd",
    "city": "Rochester",
    "state": "NY",
    "zip": "14467",
    "latitude": 43.0458711,
    "longitude": -77.6151846,
    "description": "At 3850 E Henrietta Rd, Lookup Park has 4.4 stars based on 265 reviews from Rochester dog owners. Open from 6:30am to 9pm daily, dog owners can stop by when it fits their schedule. Reviews from other dog owners provide perspective on what to expect at this park."
  },
  {
    "name": "Brown Square Park",
    "street": "251 Verona St",
    "city": "Rochester",
    "state": "NY",
    "zip": "14608",
    "latitude": 43.1613173,
    "longitude": -77.6235217,
    "description": "At 251 Verona St, Brown Square Park has 4.3 stars based on 61 reviews from Rochester dog owners. Open from 9am to 10pm daily, local dog owners have time to explore with their furry companions. More dog parks in the area include Ellison Dog Park (0.5 miles) and Marie Daley Park (1.5 miles)—great options for mixing up your pup's routine."
  },
  {
    "name": "Cobbs Hill Dog Park",
    "street": "476 Norris Dr",
    "city": "Rochester",
    "state": "NY",
    "zip": "14610",
    "latitude": 43.1426369,
    "longitude": -77.5685777,
    "description": "Located at 476 Norris Dr, Cobbs Hill Dog Park in Rochester is rated 4.3 stars by 127 dog owners. The park serves as a gathering spot for dog owners and their four-legged friends in the area. Dog owners might also enjoy Cobbs Hill Park, another dog park just 0.4 miles away."
  },
  {
    "name": "St. John's Park",
    "street": "4050 Lake Ave",
    "city": "Rochester",
    "state": "NY",
    "zip": "14612",
    "latitude": 43.2446901,
    "longitude": -77.6177689,
    "description": "Rochester dog owners have access to St. John's Park at 4050 Lake Ave for outings with their four-legged friends. The park serves as a gathering spot for dog owners and their four-legged friends in the area. Looking to explore more? Brewster Harding Park is another dog-friendly park 1.5 miles from here."
  },
  {
    "name": "‍ Central Park",
    "street": "500 Iroquois Way",
    "city": "‍ Schenectady",
    "state": "NY",
    "zip": "12309",
    "latitude": 42.8022782,
    "longitude": -73.9112587,
    "description": "With 4.6 stars across 2,311 reviews, Central Park at 500 Iroquois Way has clearly won over Schenectady dog owners. Open from 10am to 6:30pm daily, dog owners can plan visits around their pup's favorite times to be active. Looking to mix things up? Town of Colonie Dog Park is a nearby dog park 3.4 miles away that's worth exploring with your pup."
  },
  {
    "name": "‍ Conference House Park",
    "street": "298 Satterlee St",
    "city": "Staten Island",
    "state": "NY",
    "zip": "10307",
    "latitude": 40.5022615,
    "longitude": -74.2516809,
    "description": "Located at 298 Satterlee St in Staten Island, Conference House Park earns strong marks from local dog owners—4.7 stars from 907 reviews. Dog owners frequent this park for its consistent quality and welcoming atmosphere. For variety, the neighborhood offers more dog parks to explore: Perth Amboy Fishing Pier (0.6 miles) and Perth Amboy Municipal Marina (0.6 miles)."
  },
  {
    "name": "Mount Loretto Unique Area",
    "street": "20 Kenny Rd",
    "city": "Staten Island",
    "state": "NY",
    "zip": "10309",
    "latitude": 40.5106843,
    "longitude": -74.2188672,
    "description": "Located at 20 Kenny Rd in Staten Island, Mount Loretto Unique Area earns strong marks from local dog owners—4.7 stars from 282 reviews. The park serves dog owners well, providing a destination the community values. Other dog parks in the area include Conference House Park (1.8 miles) and Harbortown Terrace (2.3 miles)—both great for exploring with your four-legged friend."
  },
  {
    "name": "Clark Reservation State Park",
    "street": "6105 E Seneca Turnpike",
    "city": "Syracuse",
    "state": "NY",
    "zip": "13078",
    "latitude": 42.9936694,
    "longitude": -76.0920554,
    "description": "Dog owners in Syracuse have embraced Clark Reservation State Park (6105 E Seneca Turnpike) as a top destination—4.8 stars from 1,035 visits. For dog owners seeking a tried-and-true destination, this park delivers consistently. Want to give your pup even more adventure? Fiddlers Green Park is another beloved dog park just 1.2 miles away."
  },
  {
    "name": "Onondaga Lake Park",
    "street": "106 Lake Dr",
    "city": "Syracuse",
    "state": "NY",
    "zip": "13088",
    "latitude": 43.0997543,
    "longitude": -76.2068988,
    "description": "Onondaga Lake Park at 106 Lake Dr in Syracuse is a community favorite, with 4,056 dog owners giving it 4.7 stars. The park has earned genuine loyalty from dog owners who value what it offers. Keep the adventure going at other nearby dog parks like CNY Regional Market (2.8 miles) or Wegman's Good Dog Park (2.9 miles)."
  },
  {
    "name": "Ormand Spencer Park",
    "street": "1121 E Washington St",
    "city": "Syracuse",
    "state": "NY",
    "zip": "13210",
    "latitude": 43.049633,
    "longitude": -76.1327413,
    "description": "At 1121 E Washington St in Syracuse, Ormand Spencer Park has built a loyal following—4.7 stars from 11 dog owner reviews. Dog owners in the area consistently choose this park as a go-to destination for their pups. Looking for more places to take your pup? Carm's Dog House Park is another popular dog park just 0.0 miles away."
  },
  {
    "name": "Burnet Park",
    "street": "",
    "city": "Syracuse",
    "state": "NY",
    "zip": "",
    "latitude": 43.0481221,
    "longitude": -76.1474244,
    "description": "With 4.6 stars from 707 reviews, Burnet Park has become a favorite among Syracuse dog owners. Open from 8am to 8pm daily, there's room in the day for dog owners to bring their furry friends. Dog owners exploring the neighborhood can also bring their furry friends to Firefighter's Memorial Park (0.0 miles)."
  },
  {
    "name": "Barry Park",
    "street": "Meadowbrook Dr",
    "city": "Syracuse",
    "state": "NY",
    "zip": "13210",
    "latitude": 43.0315361,
    "longitude": -76.1138454,
    "description": "Barry Park is well-regarded by Syracuse dog owners, holding 4.6 stars across 605 reviews. Open from 7am to 7pm daily, dog owners can easily fit a visit into busy schedules. Dog owners can also take their pups to nearby Thornden Park (1.1 miles) or Ormand Spencer Park (1.6 miles)."
  },
  {
    "name": "Rand Tract Park",
    "street": "Valley Dr",
    "city": "Syracuse",
    "state": "NY",
    "zip": "13207",
    "latitude": 43.018303,
    "longitude": -76.1611708,
    "description": "In Syracuse, Rand Tract Park has built a loyal following—4.6 stars from 336 dog owner reviews. Open from 7am to 8pm daily, the park offers flexibility for dog owners with varying routines. More dog-friendly parks nearby include Upper Onondaga Park (0.6 miles) and Elmwood Park (0.6 miles)—perfect for pups who love adventure."
  },
  {
    "name": "Franklin Square Park",
    "street": "101 Solar St",
    "city": "Syracuse",
    "state": "NY",
    "zip": "13204",
    "latitude": 43.0566699,
    "longitude": -76.1578778,
    "description": "Franklin Square Park (4.6 stars from 313 reviews) is a popular destination for Syracuse dog owners, located at 101 Solar St. Open from 7:30am to 9pm daily, dog owners can easily fit a visit into busy schedules. For variety, the neighborhood offers more dog parks to explore: Onondaga Creekwalk at Syracuse (0.3 miles) and Perseverance Park (0.6 miles)."
  },
  {
    "name": "Chapman Park",
    "street": "1530 Bushnell Shore Rd",
    "city": "Syracuse",
    "state": "NY",
    "zip": "13030",
    "latitude": 43.1559786,
    "longitude": -75.8933353,
    "description": "With 4.6 stars from 171 reviews, Chapman Park at 1530 Bushnell Shore Rd has become a favorite among Syracuse dog owners. Open from 6am to 8:30pm daily, dog owners can plan visits around work or their pup's energy level. The consistent ratings suggest dog owners know what to expect here."
  },
  {
    "name": "‍ Fiddlers Green Park",
    "street": "4691 Solvay Rd",
    "city": "Syracuse",
    "state": "NY",
    "zip": "13078",
    "latitude": 42.9927937,
    "longitude": -76.0690647,
    "description": "Syracuse dog owners rate Fiddlers Green Park at 4691 Solvay Rd highly, with 4.6 stars from 123 visits. Dog owners looking for a solid destination will find this park delivers. Other dog parks in the area include Clark Reservation State Park (1.2 miles) and Jamesville Beach Park (1.6 miles)—both great for exploring with your four-legged friend."
  },
  {
    "name": "Onondaga Creekwalk at Syracuse",
    "street": "412 Spencer St",
    "city": "Syracuse",
    "state": "NY",
    "zip": "13204",
    "latitude": 43.0576283,
    "longitude": -76.1644374,
    "description": "With 4.6 stars from 18 reviews, Onondaga Creekwalk at Syracuse at 412 Spencer St has become a favorite among Syracuse dog owners. The steady stream of dog owner visits speaks to the park's appeal. Dog owners can also take their pups to nearby Franklin Square Park (0.3 miles) or Perseverance Park (0.9 miles)."
  },
  {
    "name": "James Pass Arboretum",
    "street": "199-101 Myrtle St",
    "city": "Syracuse",
    "state": "NY",
    "zip": "13204",
    "latitude": 43.048146,
    "longitude": -76.1942425,
    "description": "James Pass Arboretum (4.5 stars from 43 reviews) is a popular destination for Syracuse dog owners, located at 199-101 Myrtle St. Open from 6am to 9pm daily, the park accommodates early risers and evening visitors alike. More dog-friendly parks nearby include Skiddy Park (1.5 miles) and Onondaga Creekwalk at Syracuse (1.6 miles)—perfect for pups who love adventure."
  },
  {
    "name": "Centerville Park",
    "street": "609 S Bay Rd",
    "city": "Syracuse",
    "state": "NY",
    "zip": "13212",
    "latitude": 43.1326182,
    "longitude": -76.1276626,
    "description": "Dog owners in Syracuse have made Centerville Park at 609 S Bay Rd a go-to spot, rating it 4.5 stars across 66 reviews. Dog owners in the area consistently choose this park as a go-to destination for their pups. More dog-friendly parks nearby include Skyway Park (0.9 miles) and Dog Park (1.0 miles)—perfect for pups who love adventure."
  },
  {
    "name": "Forman Park",
    "street": "717 E Genesee St",
    "city": "Syracuse",
    "state": "NY",
    "zip": "13210",
    "latitude": 43.0468692,
    "longitude": -76.1413877,
    "description": "Forman Park (4.5 stars from 68 reviews) is a popular destination for Syracuse dog owners, located at 717 E Genesee St. Dog owners frequent this park for its consistent quality and welcoming atmosphere. For a change of scenery, Firefighter's Memorial Park is another dog-friendly destination 0.3 miles from here."
  },
  {
    "name": "Lakeside Dog Park",
    "street": "6279 W Lake Rd",
    "city": "Syracuse",
    "state": "NY",
    "zip": "13021",
    "latitude": 42.903295,
    "longitude": -76.546235,
    "description": "Dog owners in Syracuse have made Lakeside Dog Park at 6279 W Lake Rd a go-to spot, rating it 4.5 stars across 148 reviews. Open from 6am to 9pm daily, dog owners have plenty of flexibility to plan a visit. Local dog owners have clearly found this to be a worthwhile destination."
  },
  {
    "name": "Elmwood Park",
    "street": "919 Glenwood Ave",
    "city": "Syracuse",
    "state": "NY",
    "zip": "13207",
    "latitude": 43.0180084,
    "longitude": -76.1733602,
    "description": "Elmwood Park at 919 Glenwood Ave is well-regarded by Syracuse dog owners, holding 4.5 stars across 369 reviews. Open from 5am to 9pm daily, the park works well for dog owners with different schedules. Looking for more places to take your pup? Rand Tract Park is another popular dog park just 0.6 miles away."
  },
  {
    "name": "Upper Onondaga Park",
    "street": "655 Onondaga Ave",
    "city": "Syracuse",
    "state": "NY",
    "zip": "13207",
    "latitude": 43.027002,
    "longitude": -76.1620885,
    "description": "Located at 655 Onondaga Ave in Syracuse, Upper Onondaga Park earns strong marks from local dog owners—4.5 stars from 706 reviews. The park serves dog owners well, providing a destination the community values. Dog owners exploring the neighborhood can also bring their furry friends to Rand Tract Park (0.6 miles)."
  },
  {
    "name": "Sage Park",
    "street": "51 Congress St",
    "city": "Troy",
    "state": "NY",
    "zip": "12180",
    "latitude": 42.7290228,
    "longitude": -73.6916637,
    "description": "Located at 51 Congress St in Troy, Sage Park earns strong marks from local dog owners—4.7 stars from 27 reviews. The steady stream of dog owner visits speaks to the park's appeal. For variety, the neighborhood offers more dog parks to explore: Barker Park (0.1 miles) and Kinloch Park (2.0 miles)."
  },
  {
    "name": "Barker Park",
    "street": "64 3rd St",
    "city": "Troy",
    "state": "NY",
    "zip": "12180",
    "latitude": 42.7297008,
    "longitude": -73.6904167,
    "description": "Located at 64 3rd St, Barker Park offers Troy dog owners a neighborhood destination for their four-legged friends. This park provides dog owners in the community with a place to visit with their dogs. For dog owners who like to explore, Sage Park (0.1 miles) and Kinloch Park (2.0 miles) are both nearby parks to try with your dog."
  },
  {
    "name": "Bernard Brown Park",
    "street": "699 Smith St",
    "city": "Uniondale",
    "state": "NY",
    "zip": "11553",
    "latitude": 40.6915311,
    "longitude": -73.586998,
    "description": "For dog owners in Uniondale, Bernard Brown Park at 699 Smith St has a 4.2-star rating (99 reviews). Open from 7am to 9pm daily, the park fits conveniently into different routines. Looking to explore more? Kennedy Memorial Park is another dog-friendly park 1.4 miles from here."
  },
  {
    "name": "F T Proctor Park",
    "street": "",
    "city": "Utica",
    "state": "NY",
    "zip": "",
    "latitude": 43.1009031,
    "longitude": -75.2326641,
    "description": "F T Proctor Park is well-regarded by Utica dog owners, holding 4.6 stars across 472 reviews. Open from 9am to 9pm daily, the park accommodates early risers and evening visitors alike. More dog-friendly parks nearby include Seymour Park (1.7 miles) and Dog Park (2.2 miles)—perfect for pups who love adventure."
  },
  {
    "name": "North Utica Cinderella Park",
    "street": "1327 Eldorado Rd",
    "city": "Utica",
    "state": "NY",
    "zip": "13502",
    "latitude": 43.1162,
    "longitude": -75.1715074,
    "description": "With 4.5 stars from 27 reviews, North Utica Cinderella Park at 1327 Eldorado Rd has become a favorite among Utica dog owners. Open from 6am to 9pm daily, the park accommodates early risers and evening visitors alike. Dog owners exploring the neighborhood can also bring their furry friends to Seymour Park (1.8 miles)."
  },
  {
    "name": "Seymour Park",
    "street": "426 Northern Rd",
    "city": "Utica",
    "state": "NY",
    "zip": "13502",
    "latitude": 43.1178248,
    "longitude": -75.2070927,
    "description": "For dog owners in Utica, Seymour Park at 426 Northern Rd has a 4.2-star rating (39 reviews). Open from 6:30am to 9pm daily, the park is accessible for dog owners in the area. More dog parks in the area include F T Proctor Park (1.7 miles) and North Utica Cinderella Park (1.8 miles)—great options for mixing up your pup's routine."
  },
  {
    "name": "Valley Stream Dog Park",
    "street": "160 Verona Pl",
    "city": "Valley Stream",
    "state": "NY",
    "zip": "11580",
    "latitude": 40.6649407,
    "longitude": -73.7066404,
    "description": "Valley Stream Dog Park at 160 Verona Pl in Valley Stream has 4.1 stars from 118 dog owner reviews. Open from 7am to 9pm daily, local dog owners have time to explore with their furry companions. Looking to explore more? Hempstead Lake State Park is another dog-friendly park 3.1 miles from here."
  },
  {
    "name": "‍ Wantagh Park",
    "street": "1 King Rd",
    "city": "Wantagh",
    "state": "NY",
    "zip": "11793",
    "latitude": 40.6438486,
    "longitude": -73.5142883,
    "description": "Wantagh Park at 1 King Rd in Wantagh is a community favorite, with 2,215 dog owners giving it 4.7 stars. Open from 6:30am to 9pm daily, dog owners have plenty of flexibility to visit when it suits their schedule. Looking to mix things up? Town of Hempstead Dog Park is a nearby dog park 1.1 miles away that's worth exploring with your pup."
  },
  {
    "name": "Park",
    "street": "Lakeside Dr",
    "city": "West Hempstead",
    "state": "NY",
    "zip": "11552",
    "latitude": 40.6833656,
    "longitude": -73.6424816,
    "description": "Park is well-regarded by West Hempstead dog owners, holding 4.7 stars across 77 reviews. For dog owners in the area, this park has become a trusted spot for time with their pups. For a change of scenery, Hempstead Lake State Park is another dog-friendly destination 0.8 miles from here."
  },
  {
    "name": "Hempstead Lake State Park",
    "street": "Eagle Ave",
    "city": "West Hempstead",
    "state": "NY",
    "zip": "11552",
    "latitude": 40.6870759,
    "longitude": -73.655941,
    "description": "Hempstead Lake State Park in West Hempstead is a community favorite, with 1,889 dog owners giving it 4.6 stars. Open from 7am to 8pm daily, dog owners can easily fit a visit into their day, whether morning or evening. For more dog park adventures, explore Park (0.8 miles) or Campbell Park (1.7 miles) with your furry companion."
  },
  {
    "name": "Eisenhower Dog Park",
    "street": "576 Salisbury Park Dr",
    "city": "Westbury",
    "state": "NY",
    "zip": "11590",
    "latitude": 40.7388398,
    "longitude": -73.5746625,
    "description": "Located at 576 Salisbury Park Dr, Eisenhower Dog Park in Westbury is rated 4.3 stars by 404 dog owners. Open from 8am to 5pm daily, dog owners have a window to spend time with their pups. Dog owners looking for variety can also visit Eisenhower Park (1.1 miles) or Brierley Park (2.8 miles) with their four-legged friends."
  },
  {
    "name": "Saxon Woods Park",
    "street": "1800 Mamaroneck Ave",
    "city": "White Plains",
    "state": "NY",
    "zip": "10605",
    "latitude": 40.9865622,
    "longitude": -73.7450183,
    "description": "1,126 dog owners have made Saxon Woods Park (1800 Mamaroneck Ave) one of White Plains's most trusted parks (4.5 stars). Open from 8am to 9pm daily, dog owners have room to work around busy schedules. For variety, many dog owners also bring their furry friends to Harrison Park (1.6 miles)—another great dog park in the area."
  },
  {
    "name": "Chatterton Park",
    "street": "21 Chatterton Ave",
    "city": "White Plains",
    "state": "NY",
    "zip": "10606",
    "latitude": 41.0337764,
    "longitude": -73.7784467,
    "description": "At 21 Chatterton Ave in White Plains, Chatterton Park carries 4.1 stars from 11 dog owner reviews. Open from 7am to 9pm daily, the park gives dog owners in the neighborhood time to bring their pups. Dog owners looking for variety can also visit Battle Hill Park (0.3 miles) or Bark Park (1.2 miles) with their four-legged friends."
  },
  {
    "name": "Pleasantville Dog Park",
    "street": "123 Castleton St",
    "city": "White Plains",
    "state": "NY",
    "zip": "10570",
    "latitude": 41.1264936,
    "longitude": -73.7905131,
    "description": "Pleasantville Dog Park at 123 Castleton St holds a 4.1-star rating from 45 White Plains dog owner visits. Open from 7am to 8pm daily, dog owners in the area can work a visit into their day. Dog owners might also enjoy Elmsford Dog Park, another dog park just 4.7 miles away."
  },
  {
    "name": "Battle Hill Park",
    "street": "115 Battle Ave",
    "city": "White Plains",
    "state": "NY",
    "zip": "10606",
    "latitude": 41.0303937,
    "longitude": -73.7805456,
    "description": "Battle Hill Park at 115 Battle Ave in White Plains has 4.1 stars from 71 dog owner reviews. Open from 8am to 7:30pm daily, dog owners in the area can work a visit into their day. Looking to explore more? Chatterton Park is another dog-friendly park 0.3 miles from here."
  },
  {
    "name": "Harrison Park",
    "street": "Crystal St",
    "city": "White Plains",
    "state": "NY",
    "zip": "10528",
    "latitude": 40.976276,
    "longitude": -73.7179322,
    "description": "Harrison Park serves dog owners in the White Plains neighborhood looking for a place to visit with their pups. Open from 6am to 8pm daily, the park is accessible for dog owners in the area. For dog owners who like to explore, Saxon Woods Park (1.6 miles) and Paws Place Dog Park (3.7 miles) are both nearby parks to try with your dog."
  },
  {
    "name": "Untermyer Gardens",
    "street": "945 N Broadway",
    "city": "Yonkers",
    "state": "NY",
    "zip": "10701",
    "latitude": 40.9659946,
    "longitude": -73.8860174,
    "description": "Local dog owners love Untermyer Gardens at 945 N Broadway in Yonkers—4.8 stars from an impressive 4,911 reviews. Open from 9am to 4pm daily, it's easy for dog owners to stop by whenever works best. For more dog park adventures, explore Otis Park (0.3 miles) or Ravine Park (1.7 miles) with your furry companion."
  },
  {
    "name": "‍ Otis Park",
    "street": "789 Warburton Ave",
    "city": "Yonkers",
    "state": "NY",
    "zip": "10701",
    "latitude": 40.9634238,
    "longitude": -73.8909437,
    "description": "Otis Park at 789 Warburton Ave is well-regarded by Yonkers dog owners, holding 4.6 stars across 36 reviews. Open from 7am to 9:30pm daily, dog owners have plenty of flexibility to plan a visit. Looking for more places to take your pup? Untermyer Gardens is another popular dog park just 0.3 miles away."
  },
  {
    "name": "‍ Paws Place Dog Park",
    "street": "300 Broadfield Rd",
    "city": "Yonkers",
    "state": "NY",
    "zip": "10804",
    "latitude": 40.9575761,
    "longitude": -73.784006,
    "description": "At 300 Broadfield Rd in Yonkers, Paws Place Dog Park has built a loyal following—4.6 stars from 125 dog owner reviews. Open from 8:30am to 4:30pm daily, the park offers flexibility for dog owners with varying routines. Other dog parks in the area include Ward Acres Park (0.0 miles) and Dog park (0.0 miles)—both great for exploring with your four-legged friend."
  },
  {
    "name": "Bronxville Dog Park",
    "street": "28 Grove Ln",
    "city": "Yonkers",
    "state": "NY",
    "zip": "10708",
    "latitude": 40.9405974,
    "longitude": -73.817589,
    "description": "56 dog owners have reviewed Bronxville Dog Park at 28 Grove Ln in Yonkers, averaging 4.3 stars. Dog owners in the area appreciate having a local spot to bring their pups. More dog parks in the area include Scout Field (1.0 miles) and Georgia Avenue Park (1.3 miles)—great options for mixing up your pup's routine."
  },
  {
    "name": "‍ Ravine Park",
    "street": "1 Ravine Ave",
    "city": "Yonkers",
    "state": "NY",
    "zip": "10701",
    "latitude": 40.9434243,
    "longitude": -73.8993695,
    "description": "Located at 1 Ravine Ave, Ravine Park offers Yonkers dog owners a neighborhood destination for their four-legged friends. Open from 7am to 9pm daily, the park fits conveniently into different routines. For dog owners who like to explore, Bronx River Pathway (0.8 miles) and Otis Park (1.5 miles) are both nearby parks to try with your dog."
  }
]