[
  {
    "name": "North Domingo Baca Park",
    "street": "7521 Carmel Ave NE",
    "city": "Albuquerque",
    "state": "NM",
    "zip": "87113",
    "latitude": 35.1771405,
    "longitude": -106.5604822,
    "description": "North Domingo Baca Park at 7521 Carmel Ave NE in Albuquerque is a community favorite, with 2,487 dog owners giving it 4.7 stars. Dog owners in the area know they can count on this park for quality time with their pups. For variety, many dog owners also bring their furry friends to North Domingo Baca Dog Park (0.2 miles)—another great dog park in the area."
  },
  {
    "name": "North Domingo Baca Dog Park",
    "street": "7520 Corona Ave NE",
    "city": "Albuquerque",
    "state": "NM",
    "zip": "87113",
    "latitude": 35.1796519,
    "longitude": -106.5610411,
    "description": "Dog owners in Albuquerque have made North Domingo Baca Dog Park at 7520 Corona Ave NE a go-to spot, rating it 4.7 stars across 984 reviews. Open from 6am to 10pm daily, there's plenty of opportunity for dog owners to find a time that works. For variety, the neighborhood offers more dog parks to explore: North Domingo Baca Park (0.2 miles) and Dog Park (4.1 miles)."
  },
  {
    "name": "Laurel Circle Park",
    "street": "809 Laurel Cir SE",
    "city": "Albuquerque",
    "state": "NM",
    "zip": "87108",
    "latitude": 35.069221,
    "longitude": -106.6003666,
    "description": "Located at 809 Laurel Cir SE in Albuquerque, Laurel Circle Park earns strong marks from local dog owners—4.8 stars from 30 reviews. Local dog owners appreciate what this park offers their four-legged friends. Looking for more places to take your pup? McDuffie Park is another popular dog park just 1.5 miles away."
  },
  {
    "name": "‍ Netherwood Park",
    "street": "2613 Morrow Rd NE",
    "city": "Albuquerque",
    "state": "NM",
    "zip": "87106",
    "latitude": 35.102689,
    "longitude": -106.6181243,
    "description": "Netherwood Park at 2613 Morrow Rd NE is well-regarded by Albuquerque dog owners, holding 4.6 stars across 326 reviews. Open from 6am to 10pm daily, dog owners can easily fit a visit into busy schedules. More dog-friendly parks nearby include McDuffie Park (1.2 miles) and Roosevelt Park (1.9 miles)—perfect for pups who love adventure."
  },
  {
    "name": "McDuffie Park",
    "street": "3708 Mackland Ave NE",
    "city": "Albuquerque",
    "state": "NM",
    "zip": "87110",
    "latitude": 35.0912461,
    "longitude": -106.6028882,
    "description": "McDuffie Park (4.6 stars from 266 reviews) is a popular destination for Albuquerque dog owners, located at 3708 Mackland Ave NE. Open from 6am to 10pm daily, the park offers flexibility for dog owners with varying routines. Other dog parks in the area include Netherwood Park (1.2 miles) and Laurel Circle Park (1.5 miles)—both great for exploring with your four-legged friend."
  },
  {
    "name": "Sawmill Park",
    "street": "991 18th St NW",
    "city": "Albuquerque",
    "state": "NM",
    "zip": "87104",
    "latitude": 35.0977146,
    "longitude": -106.6650835,
    "description": "Sawmill Park at 991 18th St NW is well-regarded by Albuquerque dog owners, holding 4.8 stars across 13 reviews. The park has earned its reputation among dog owners in the neighborhood as a reliable choice. For variety, the neighborhood offers more dog parks to explore: Rio Grande Triangle Park (1.1 miles) and Montessa Dog Park (1.2 miles)."
  },
  {
    "name": "Roosevelt Park",
    "street": "500 Spruce St SE",
    "city": "Albuquerque",
    "state": "NM",
    "zip": "87106",
    "latitude": 35.07805,
    "longitude": -106.633348,
    "description": "With 4.5 stars across 2,234 reviews, Roosevelt Park at 500 Spruce St SE has clearly won over Albuquerque dog owners. Open from 6am to 10pm daily, the park is convenient for before work, after work, or weekend adventures. For variety, many dog owners also bring their furry friends to Montessa Dog Park (1.1 miles)—another great dog park in the area."
  },
  {
    "name": "Skyline Dog Park",
    "street": "12700 Montgomery Blvd NE",
    "city": "Albuquerque",
    "state": "NM",
    "zip": "87111",
    "latitude": 35.1303073,
    "longitude": -106.4959829,
    "description": "For dog owners in the Albuquerque area, Skyline Dog Park (12700 Montgomery Blvd NE) offers a 4.5-star experience based on 471 reviews. Open from 6am to 10pm daily, there's room in the day for dog owners to bring their furry friends. Nearby, Chelwood Park (3.2 miles) offers dog owners another great spot to explore with their pups."
  },
  {
    "name": "Santa Fe Village Dog Park",
    "street": "5700 Bogart St NW",
    "city": "Albuquerque",
    "state": "NM",
    "zip": "87120",
    "latitude": 35.1490964,
    "longitude": -106.7167537,
    "description": "With 4.5 stars from 379 reviews, Santa Fe Village Dog Park at 5700 Bogart St NW has become a favorite among Albuquerque dog owners. Open from 6am to 10pm daily, there's room in the day for dog owners to bring their furry friends. Looking for more places to take your pup? Ouray Dog Park is another popular dog park just 2.1 miles away."
  },
  {
    "name": "Rio Vista Park",
    "street": "1670 Riverside Dr NERio Rancho",
    "city": "Albuquerque",
    "state": "NM",
    "zip": "87144",
    "latitude": 35.2871582,
    "longitude": -106.6035671,
    "description": "Albuquerque dog owners rate Rio Vista Park at 1670 Riverside Dr NE highly, with 4.5 stars from 266 visits. The park serves dog owners well, providing a destination the community values. For variety, the neighborhood offers more dog parks to explore: Rio Rancho Bosque Preserve - (0.4 miles) and Willow Creek Trailhead and (0.8 miles)."
  },
  {
    "name": "Dog Park",
    "street": "3700 San Mateo Blvd NE",
    "city": "Albuquerque",
    "state": "NM",
    "zip": "87110",
    "latitude": 35.124326,
    "longitude": -106.586378,
    "description": "Dog Park at 3700 San Mateo Blvd NE in Albuquerque has 4.4 stars from 9 dog owner reviews. Open from 6am to 10pm daily, dog owners have a window to spend time with their pups. Dog owners in the neighborhood can also take their furry friends to Tom Bolack Dog Park, 1.9 miles away."
  },
  {
    "name": "Abel's Dog Park",
    "street": "99999 Arkansas Rd NW",
    "city": "Albuquerque",
    "state": "NM",
    "zip": "87120",
    "latitude": 35.1030778,
    "longitude": -106.7423362,
    "description": "Located at 99999 Arkansas Rd NW, Abel's Dog Park in Albuquerque is rated 4.4 stars by 22 dog owners. Open from 4:30am to 10:30pm daily, the park is accessible for dog owners in the area. For dog owners who like to explore, Ouray Dog Park (1.6 miles) and Tower Pond Park (2.6 miles) are both nearby parks to try with your dog."
  },
  {
    "name": "Country Meadows Park",
    "street": "Universe Blvd NW",
    "city": "Albuquerque",
    "state": "NM",
    "zip": "87114",
    "latitude": 35.1934184,
    "longitude": -106.727582,
    "description": "In Albuquerque, Country Meadows Park carries 4.4 stars from 46 dog owner reviews. Open from 6am to 10pm daily, dog owners can stop by when it fits their schedule. Dog owners might also enjoy Black Arroyo Park, another dog park just 2.9 miles away."
  },
  {
    "name": "‍ Rio Grande Triangle Park",
    "street": "1451 Kit Carson Ave SW",
    "city": "Albuquerque",
    "state": "NM",
    "zip": "87104",
    "latitude": 35.081995,
    "longitude": -106.667807,
    "description": "Rio Grande Triangle Park at 1451 Kit Carson Ave SW holds a 4.4-star rating from 287 Albuquerque dog owner visits. Open from 6am to 10pm daily, dog owners have a window to spend time with their pups. Dog owners in the neighborhood can also take their furry friends to Montessa Dog Park, 1.0 miles away."
  },
  {
    "name": "Tom Bolack Dog Park",
    "street": "2000 Dakota St NE",
    "city": "Albuquerque",
    "state": "NM",
    "zip": "87110",
    "latitude": 35.0990793,
    "longitude": -106.574096,
    "description": "Dog owners in Albuquerque have rated Tom Bolack Dog Park (2000 Dakota St NE) 4.4 stars across 294 reviews. Open from 6am to 10pm daily, dog owners in the area can work a visit into their day. Dog owners might also enjoy McDuffie Park, another dog park just 1.7 miles away."
  },
  {
    "name": "Mesa del Sol Dog Park",
    "street": "2639 Stryker Road Southeast",
    "city": "Albuquerque",
    "state": "NM",
    "zip": "87106",
    "latitude": 34.9855978,
    "longitude": -106.6142897,
    "description": "At 2639 Stryker Road Southeast in Albuquerque, Mesa del Sol Dog Park welcomes dog owners from the surrounding neighborhood. The neighborhood benefits from having this park as an option for dog owners and their pups. Dog owners might also enjoy Kirtland Dog Park, another dog park just 4.9 miles away."
  },
  {
    "name": "Dripping Springs Natural Area",
    "street": "15000 Dripping Springs Rd",
    "city": "Las Cruces",
    "state": "NM",
    "zip": "88011",
    "latitude": 32.3341514,
    "longitude": -106.5884617,
    "description": "Local dog owners love Dripping Springs Natural Area at 15000 Dripping Springs Rd in Las Cruces—4.8 stars from an impressive 1,400 reviews. Open from 8am to 5pm daily, it's easy for dog owners to stop by whenever works best. The community of dog owners has clearly embraced this as a trusted spot."
  },
  {
    "name": "Mesilla Park",
    "street": "400 Bell Ave",
    "city": "Las Cruces",
    "state": "NM",
    "zip": "88005",
    "latitude": 32.274082,
    "longitude": -106.770744,
    "description": "Located at 400 Bell Ave in Las Cruces, Mesilla Park earns strong marks from local dog owners—4.6 stars from 45 reviews. Open from 6am to 10pm daily, dog owners have plenty of flexibility to plan a visit. Looking for more places to take your pup? La Buena Vida Park is another popular dog park just 2.5 miles away."
  },
  {
    "name": "Sagecrest Park",
    "street": "601 Roadrunner Pkwy",
    "city": "Las Cruces",
    "state": "NM",
    "zip": "88011",
    "latitude": 32.3360512,
    "longitude": -106.7505406,
    "description": "With 4.6 stars from 44 reviews, Sagecrest Park at 601 Roadrunner Pkwy has become a favorite among Las Cruces dog owners. The park serves dog owners well, providing a destination the community values. For variety, the neighborhood offers more dog parks to explore: Las Cruces Dog Park (1.5 miles) and Northridge Park (1.6 miles)."
  },
  {
    "name": "‍ Northridge Park",
    "street": "3245 Westridge Dr",
    "city": "Las Cruces",
    "state": "NM",
    "zip": "88005",
    "latitude": 32.3461433,
    "longitude": -106.7752717,
    "description": "Northridge Park at 3245 Westridge Dr holds a 4.3-star rating from 7 Las Cruces dog owner visits. Open from 5:30am to 11pm daily, the park gives dog owners in the neighborhood time to bring their pups. For dog owners who like to explore, Sagecrest Park (1.6 miles) and Rinconada Dog Park (1.9 miles) are both nearby parks to try with your dog."
  },
  {
    "name": "Pioneer Women's Park",
    "street": "500 W Las Cruces Ave",
    "city": "Las Cruces",
    "state": "NM",
    "zip": "88005",
    "latitude": 32.310075,
    "longitude": -106.783763,
    "description": "Pioneer Women's Park (4.5 stars from 459 reviews) is a popular destination for Las Cruces dog owners, located at 500 W Las Cruces Ave. Open from 5am to 11pm, every day except Friday and Sunday, dog owners can plan visits around work or their pup's energy level. Other dog parks in the area include Hermosa Heights Dog Park (1.3 miles) and Las Cruces Dog Park (1.3 miles)—both great for exploring with your four-legged friend."
  },
  {
    "name": "La Llorona Park",
    "street": "3440 W Picacho Ave",
    "city": "Las Cruces",
    "state": "NM",
    "zip": "88007",
    "latitude": 32.3110579,
    "longitude": -106.8250617,
    "description": "For dog owners in the Las Cruces area, La Llorona Park (3440 W Picacho Ave) offers a 4.5-star experience based on 778 reviews. Open from 5am to 11pm daily, there's plenty of opportunity for dog owners to find a time that works. Dog owners exploring the neighborhood can also bring their furry friends to Pioneer Women's Park (2.4 miles)."
  },
  {
    "name": "Young Park",
    "street": "850 S Walnut St",
    "city": "Las Cruces",
    "state": "NM",
    "zip": "88001",
    "latitude": 32.3091373,
    "longitude": -106.7533148,
    "description": "Local dog owners love Young Park at 850 S Walnut St in Las Cruces—4.5 stars from an impressive 2,374 reviews. Open from 5am to 11pm daily, dog owners have room to work around busy schedules. For variety, many dog owners also bring their furry friends to Hermosa Heights Dog Park (0.5 miles)—another great dog park in the area."
  },
  {
    "name": "La Buena Vida Park",
    "street": "3000 Buena Vida Cir",
    "city": "Las Cruces",
    "state": "NM",
    "zip": "88011",
    "latitude": 32.295199,
    "longitude": -106.735361,
    "description": "21 dog owners have reviewed La Buena Vida Park at 3000 Buena Vida Cir in Las Cruces, averaging 4.2 stars. Open from 6am to 11pm daily, dog owners in the area can work a visit into their day. More dog parks in the area include Young Park (1.4 miles) and Hermosa Heights Dog Park (1.9 miles)—great options for mixing up your pup's routine."
  },
  {
    "name": "Las Cruces Dog Park",
    "street": "430 N Hermosa St",
    "city": "Las Cruces",
    "state": "NM",
    "zip": "88001",
    "latitude": 32.3171307,
    "longitude": -106.7626137,
    "description": "At 430 N Hermosa St in Las Cruces, Las Cruces Dog Park has built a loyal following—4.4 stars from 525 dog owner reviews. Open from 5:30am to 7pm daily, there's plenty of opportunity for dog owners to find a time that works. For a change of scenery, Hermosa Heights Dog Park is another dog-friendly destination 0.5 miles from here."
  },
  {
    "name": "Hermosa Heights Dog Park",
    "street": "1600 E Amador Ave",
    "city": "Las Cruces",
    "state": "NM",
    "zip": "88001",
    "latitude": 32.310596,
    "longitude": -106.761913,
    "description": "At 1600 E Amador Ave in Las Cruces, Hermosa Heights Dog Park welcomes dog owners from the surrounding neighborhood. Dog owners in the area appreciate having a local spot to bring their pups. Dog owners in the neighborhood can also take their furry friends to Las Cruces Dog Park, 0.5 miles away."
  },
  {
    "name": "Rinconada Dog Park",
    "street": "3456 Rinconada Blvd",
    "city": "Las Cruces",
    "state": "NM",
    "zip": "88012",
    "latitude": 32.3649169,
    "longitude": -106.7507902,
    "description": "At 3456 Rinconada Blvd, Rinconada Dog Park has 4.2 stars based on 33 reviews from Las Cruces dog owners. Dog owners looking for a local destination will find this park accessible. Dog owners in the neighborhood can also take their furry friends to Northridge Park, 1.9 miles away."
  },
  {
    "name": "A Park",
    "street": "2441 Westside Ct SE",
    "city": "Rio Rancho",
    "state": "NM",
    "zip": "87124",
    "latitude": 35.220404,
    "longitude": -106.6856176,
    "description": "A Park at 2441 Westside Ct SE is a favorite among Rio Rancho dog owners, earning 4.8 stars from 3,306 reviews. Open from 6am to 10pm daily, dog owners have plenty of flexibility to visit when it suits their schedule. Keep the adventure going at other nearby dog parks like Black Arroyo Park (0.4 miles) or Cabezon Park (0.8 miles)."
  },
  {
    "name": "Willow Creek Trailhead and",
    "street": "Willow Creek Rd NE",
    "city": "Rio Rancho",
    "state": "NM",
    "zip": "87144",
    "latitude": 35.2941749,
    "longitude": -106.591749,
    "description": "Dog owners in Rio Rancho have made Willow Creek Trailhead and a go-to spot, rating it 4.8 stars across 280 reviews. Open from 6am to 8pm daily, there's room in the day for dog owners to bring their furry friends. Dog owners exploring the neighborhood can also bring their furry friends to Rio Rancho Bosque Preserve - (0.7 miles)."
  },
  {
    "name": "Rio Rancho Bosque Preserve -",
    "street": "1740 Black River Dr NE",
    "city": "Rio Rancho",
    "state": "NM",
    "zip": "87144",
    "latitude": 35.2857523,
    "longitude": -106.5972959,
    "description": "Rio Rancho Bosque Preserve - (4.8 stars from 216 reviews) is a popular destination for Rio Rancho dog owners, located at 1740 Black River Dr NE. The steady stream of dog owner visits speaks to the park's appeal. Nearby, Rio Vista Park (0.4 miles) offers dog owners another great spot to explore with their pups."
  },
  {
    "name": "Los Milagros Park",
    "street": "400 Colorado Mountain Rd NE",
    "city": "Rio Rancho",
    "state": "NM",
    "zip": "87124",
    "latitude": 35.262567,
    "longitude": -106.694886,
    "description": "For dog owners in the Rio Rancho area, Los Milagros Park (400 Colorado Mountain Rd NE) offers a 5.0-star experience based on 11 reviews. Dog owners frequent this park for its consistent quality and welcoming atmosphere. Nearby, Vista Sandia Park (1.0 miles) offers dog owners another great spot to explore with their pups."
  },
  {
    "name": "Rio Rancho/Corrales Bosque",
    "street": "",
    "city": "Rio Rancho",
    "state": "NM",
    "zip": "",
    "latitude": 35.2382346,
    "longitude": -106.6069727,
    "description": "In Rio Rancho, Rio Rancho/Corrales Bosque has built a loyal following—4.7 stars from 59 dog owner reviews. The park has earned its reputation among dog owners in the neighborhood as a reliable choice. More dog-friendly parks nearby include Veja Baja Park (2.1 miles) and Olympus Park (2.5 miles)—perfect for pups who love adventure."
  },
  {
    "name": "Black Arroyo Park",
    "street": "10836 Marble Stone Dr NWAlbuquerque",
    "city": "Rio Rancho",
    "state": "NM",
    "zip": "87114",
    "latitude": 35.2142005,
    "longitude": -106.6838291,
    "description": "Black Arroyo Park (4.6 stars from 169 reviews) is a popular destination for Rio Rancho dog owners, located at 10836 Marble Stone Dr NW. Open from 5am to 10pm daily, there's plenty of opportunity for dog owners to find a time that works. For a change of scenery, A Park is another dog-friendly destination 0.4 miles from here."
  },
  {
    "name": "Cabezon Park",
    "street": "2307 Cabezon Blvd SE",
    "city": "Rio Rancho",
    "state": "NM",
    "zip": "87124",
    "latitude": 35.2315522,
    "longitude": -106.6884597,
    "description": "Located at 2307 Cabezon Blvd SE in Rio Rancho, Cabezon Park earns strong marks from local dog owners—4.6 stars from 942 reviews. The steady stream of dog owner visits speaks to the park's appeal. For variety, the neighborhood offers more dog parks to explore: A Park (0.8 miles) and Western Winds Park (1.0 miles)."
  },
  {
    "name": "Olympus Park",
    "street": "500 Quantum Rd NE",
    "city": "Rio Rancho",
    "state": "NM",
    "zip": "87124",
    "latitude": 35.2661866,
    "longitude": -106.633715,
    "description": "For dog owners in Rio Rancho, Olympus Park at 500 Quantum Rd NE has a 4.3-star rating (12 reviews). Open from 6am to 10pm daily, the park fits conveniently into different routines. Dog owners looking for variety can also visit Loma Colorado Park (0.3 miles) or Mountain view Park (0.3 miles) with their four-legged friends."
  },
  {
    "name": "Vista Sandia Park",
    "street": "100 Parkside Rd SE",
    "city": "Rio Rancho",
    "state": "NM",
    "zip": "87124",
    "latitude": 35.257461,
    "longitude": -106.6789662,
    "description": "Dog owners in Rio Rancho have made Vista Sandia Park at 100 Parkside Rd SE a go-to spot, rating it 4.5 stars across 122 reviews. Open from 7am to 10pm daily, dog owners can easily fit a visit into busy schedules. Other dog parks in the area include Rio Rancho Sports Complex (0.4 miles) and Los Milagros Park (1.0 miles)—both great for exploring with your four-legged friend."
  },
  {
    "name": "Mountain view Park",
    "street": "",
    "city": "Rio Rancho",
    "state": "NM",
    "zip": "",
    "latitude": 35.2702448,
    "longitude": -106.6329806,
    "description": "Mountain view Park (4.5 stars from 179 reviews) is a popular destination for Rio Rancho dog owners. Open from 6am to 10pm daily, the park works well for dog owners with different schedules. More dog-friendly parks nearby include Loma Colorado Park (0.0 miles) and Olympus Park (0.3 miles)—perfect for pups who love adventure."
  },
  {
    "name": "Enchanted Hills Park",
    "street": "7201 Enchanted Hills Blvd NE",
    "city": "Rio Rancho",
    "state": "NM",
    "zip": "87144",
    "latitude": 35.3418459,
    "longitude": -106.6069162,
    "description": "Enchanted Hills Park at 7201 Enchanted Hills Blvd NE is well-regarded by Rio Rancho dog owners, holding 4.5 stars across 182 reviews. Open from 6am to 10pm daily, dog owners can easily fit a visit into busy schedules. Dog owners can also take their pups to nearby Dog Park (1.6 miles) or Willow Creek Trailhead and (3.4 miles)."
  },
  {
    "name": "Vista Hills Park",
    "street": "411 Rockaway Blvd NE",
    "city": "Rio Rancho",
    "state": "NM",
    "zip": "87124",
    "latitude": 35.2649672,
    "longitude": -106.6402888,
    "description": "For dog owners in the Rio Rancho area, Vista Hills Park (411 Rockaway Blvd NE) offers a 4.5-star experience based on 278 reviews. Open from 5am to 10pm daily, the park accommodates early risers and evening visitors alike. Looking for more places to take your pup? Olympus Park is another popular dog park just 0.4 miles away."
  },
  {
    "name": "Eagle Ranch Park",
    "street": "3500 Congress Ave NWAlbuquerque",
    "city": "Rio Rancho",
    "state": "NM",
    "zip": "87114",
    "latitude": 35.189136,
    "longitude": -106.667428,
    "description": "Dog owners in Rio Rancho have rated Eagle Ranch Park (3500 Congress Ave NW) 4.4 stars across 81 reviews. Open from 7am to 10pm daily, dog owners can stop by when it fits their schedule. More dog parks in the area include Black Arroyo Park (2.0 miles) and A Park (2.4 miles)—great options for mixing up your pup's routine."
  },
  {
    "name": "Havasu Park",
    "street": "3535 Havasu Falls St NE",
    "city": "Rio Rancho",
    "state": "NM",
    "zip": "87144",
    "latitude": 35.3182684,
    "longitude": -106.7131093,
    "description": "131 dog owners have reviewed Havasu Park at 3535 Havasu Falls St NE in Rio Rancho, averaging 4.4 stars. Open from 8am to 8pm daily, local dog owners have time to explore with their furry companions. Dog owners in the neighborhood can also take their furry friends to King Meadows Park, 1.2 miles away."
  },
  {
    "name": "Western Winds Park",
    "street": "2260 Zaragoza Rd SE",
    "city": "Rio Rancho",
    "state": "NM",
    "zip": "87124",
    "latitude": 35.2451483,
    "longitude": -106.6914109,
    "description": "For dog owners in Rio Rancho, Western Winds Park at 2260 Zaragoza Rd SE has a 4.4-star rating (141 reviews). The neighborhood benefits from having this park as an option for dog owners and their pups. Nearby dog parks worth exploring with your pup include Cabezon Park (1.0 miles) and Vista Sandia Park (1.1 miles)."
  },
  {
    "name": "Frank S Ortiz Dog Park",
    "street": "160 Camino de Las Crucitas",
    "city": "Santa Fe",
    "state": "NM",
    "zip": "87501",
    "latitude": 35.6949029,
    "longitude": -105.9582901,
    "description": "With 4.7 stars from 675 reviews, Frank S Ortiz Dog Park at 160 Camino de Las Crucitas has become a favorite among Santa Fe dog owners. Open from 6am to 10pm daily, the park offers flexibility for dog owners with varying routines. Dog owners can also take their pups to nearby Torreon Park (0.9 miles) or BarnDog (1.1 miles)."
  },
  {
    "name": "Santa Fe Animal Shelter Dog",
    "street": "100 Caja Del Rio Rd",
    "city": "Santa Fe",
    "state": "NM",
    "zip": "87507",
    "latitude": 35.6580067,
    "longitude": -106.0615268,
    "description": "At 100 Caja Del Rio Rd in Santa Fe, Santa Fe Animal Shelter Dog has built a loyal following—4.6 stars from 239 dog owner reviews. Open from 6am to 10pm daily, dog owners can plan visits around work or their pup's energy level. Other dog parks in the area include Villa Linda Dog Park (2.9 miles) and Frenchy's Field/Santa Fe River (4.6 miles)—both great for exploring with your four-legged friend."
  },
  {
    "name": "‍ BarnDog",
    "street": "362 Grant Ave",
    "city": "Santa Fe",
    "state": "NM",
    "zip": "87501",
    "latitude": 35.6908197,
    "longitude": -105.9400468,
    "description": "BarnDog (5.0 stars from 8 reviews) is a popular destination for Santa Fe dog owners, located at 362 Grant Ave. Dog owners frequent this park for its consistent quality and welcoming atmosphere. Dog owners can also take their pups to nearby Villa Linda Park (0.2 miles) or Fort Marcy Dog Park (0.2 miles)."
  },
  {
    "name": "Torreon Park",
    "street": "1515 W Alameda St",
    "city": "Santa Fe",
    "state": "NM",
    "zip": "87501",
    "latitude": 35.6848729,
    "longitude": -105.9682423,
    "description": "At 1515 W Alameda St in Santa Fe, Torreon Park has built a loyal following—4.5 stars from 132 dog owner reviews. Open from 6am to 10pm daily, dog owners can easily fit a visit into busy schedules. Other dog parks in the area include Frank S Ortiz Dog Park (0.9 miles) and Frenchy's Field/Santa Fe River (1.2 miles)—both great for exploring with your four-legged friend."
  },
  {
    "name": "Dog park Ridge Top",
    "street": "856 Calle David",
    "city": "Santa Fe",
    "state": "NM",
    "zip": "87506",
    "latitude": 35.7115788,
    "longitude": -105.9507627,
    "description": "Dog park Ridge Top at 856 Calle David holds a 4.4-star rating from 12 Santa Fe dog owner visits. This park provides dog owners in the community with a place to visit with their dogs. Looking to explore more? Frank S Ortiz Dog Park is another dog-friendly park 1.2 miles from here."
  },
  {
    "name": "Frenchy's Field/Santa Fe River",
    "street": "2001 Agua Fria St",
    "city": "Santa Fe",
    "state": "NM",
    "zip": "87505",
    "latitude": 35.6717344,
    "longitude": -105.9814958,
    "description": "For dog owners in Santa Fe, Frenchy's Field/Santa Fe River at 2001 Agua Fria St has a 4.4-star rating (482 reviews). The park gives neighborhood dog owners a destination for outings with their four-legged friends. Looking to explore more? Ashbaugh Park is another dog-friendly park 0.7 miles from here."
  },
  {
    "name": "Fort Marcy Dog Park",
    "street": "",
    "city": "Santa Fe",
    "state": "NM",
    "zip": "",
    "latitude": 35.6876096,
    "longitude": -105.938456,
    "description": "44 dog owners have reviewed Fort Marcy Dog Park in Santa Fe, averaging 4.2 stars. Open from 6am to 10pm daily, the park is accessible for dog owners in the area. Dog owners might also enjoy Villa Linda Park, another dog park just 0.0 miles away."
  },
  {
    "name": "Ashbaugh Park",
    "street": "1703 Cerrillos Rd",
    "city": "Santa Fe",
    "state": "NM",
    "zip": "87505",
    "latitude": 35.666754,
    "longitude": -105.9697624,
    "description": "At 1703 Cerrillos Rd in Santa Fe, Ashbaugh Park carries 4.2 stars from 209 dog owner reviews. Open from 6am to 10pm daily, dog owners can stop by when it fits their schedule. Dog owners looking for variety can also visit Frenchy's Field/Santa Fe River (0.7 miles) or Torreon Park (1.3 miles) with their four-legged friends."
  },
  {
    "name": "Salvador Perez Dog Park",
    "street": "",
    "city": "Santa Fe",
    "state": "NM",
    "zip": "",
    "latitude": 35.6876096,
    "longitude": -105.938456,
    "description": "Santa Fe dog owners have access to Salvador Perez Dog Park for outings with their four-legged friends. For dog owners in the neighborhood, this park offers a place to take their pups. For pups who want more adventure, Villa Linda Park is a nearby dog park worth visiting (0.0 miles)."
  },
  {
    "name": "Villa Linda Park",
    "street": "",
    "city": "Santa Fe",
    "state": "NM",
    "zip": "",
    "latitude": 35.6876096,
    "longitude": -105.938456,
    "description": "Villa Linda Park provides Santa Fe dog owners with a local spot to visit with their pups. This park provides dog owners in the community with a place to visit with their dogs. Dog owners looking for variety can also visit Fort Marcy Dog Park (0.0 miles) or Salvador Perez Dog Park (0.0 miles) with their four-legged friends."
  },
  {
    "name": "Villa Linda Dog Park",
    "street": "4300 Rodeo Rd",
    "city": "Santa Fe",
    "state": "NM",
    "zip": "87507",
    "latitude": 35.6384079,
    "longitude": -106.0154952,
    "description": "In Santa Fe, dog owners can find Villa Linda Dog Park at 4300 Rodeo Rd—a local park worth exploring with their furry companions. Open from 6am to 10pm daily, dog owners have flexibility to plan a visit with their four-legged friends. Dog owners might also enjoy Santa Fe Animal Shelter Dog, another dog park just 2.9 miles away."
  }
]