[
  {
    "name": "Century Recreation Area Bark",
    "street": "700 E Century Ave",
    "city": "Bismarck",
    "state": "ND",
    "zip": "58503",
    "latitude": 46.8379428,
    "longitude": -100.7795871,
    "description": "Located at 700 E Century Ave, Century Recreation Area Bark in Bismarck is rated 4.3 stars by 215 dog owners. Open from 5am to 11pm daily, dog owners in the area can work a visit into their day. Reviews from other dog owners provide perspective on what to expect at this park."
  },
  {
    "name": "North Fargo Dog Park",
    "street": "",
    "city": "‍ Fargo",
    "state": "ND",
    "zip": "",
    "latitude": 46.877229,
    "longitude": -96.789821,
    "description": "North Fargo Dog Park (4.7 stars from 179 reviews) is a popular destination for Fargo dog owners. Open from 7am to 10pm daily, there's plenty of opportunity for dog owners to find a time that works. Looking for more places to take your pup? Urban Plains Park is another popular dog park just 0.0 miles away."
  },
  {
    "name": "West Village Dog Park",
    "street": "4415 9th Ave SFargo",
    "city": "‍ Fargo",
    "state": "ND",
    "zip": "58103",
    "latitude": 46.8657738,
    "longitude": -96.82214,
    "description": "West Village Dog Park (4.8 stars from 20 reviews) is a popular destination for Fargo dog owners, located at 4415 9th Ave S. Open from 8am to 9pm daily, there's plenty of opportunity for dog owners to find a time that works. Dog owners exploring the neighborhood can also bring their furry friends to Jefferson West Park (0.7 miles)."
  },
  {
    "name": "Meadow Creek Park",
    "street": "4800 Meadow Creek Dr SWFargo",
    "city": "‍ Fargo",
    "state": "ND",
    "zip": "58104",
    "latitude": 46.807281,
    "longitude": -96.820556,
    "description": "Meadow Creek Park (4.9 stars from 10 reviews) is a popular destination for Fargo dog owners, located at 4800 Meadow Creek Dr SW. Open from 5am to 10pm daily, dog owners can easily fit a visit into busy schedules. For variety, the neighborhood offers more dog parks to explore: Brandt Crossing Park (1.6 miles) and Boler Park (2.1 miles)."
  },
  {
    "name": "Dike East Park",
    "street": "100 2nd St SFargo",
    "city": "‍ Fargo",
    "state": "ND",
    "zip": "58103",
    "latitude": 46.872686,
    "longitude": -96.781163,
    "description": "With 4.6 stars from 63 reviews, Dike East Park at 100 2nd St S has become a favorite among Fargo dog owners. Open from 8am to 8pm daily, dog owners can easily fit a visit into busy schedules. For a change of scenery, Urban Plains Park is another dog-friendly destination 0.5 miles from here."
  },
  {
    "name": "Urban Plains Park",
    "street": "",
    "city": "‍ Fargo",
    "state": "ND",
    "zip": "",
    "latitude": 46.877229,
    "longitude": -96.789821,
    "description": "Urban Plains Park is well-regarded by Fargo dog owners, holding 4.7 stars across 19 reviews. Local dog owners appreciate what this park offers their four-legged friends. More dog-friendly parks nearby include North Fargo Dog Park (0.0 miles) and Dike East Park (0.5 miles)—perfect for pups who love adventure."
  },
  {
    "name": "Maple Ridge Park",
    "street": "330 31st Ave EWest Fargo",
    "city": "‍ Fargo",
    "state": "ND",
    "zip": "58078",
    "latitude": 46.8348965,
    "longitude": -96.8950022,
    "description": "With 4.7 stars from 15 reviews, Maple Ridge Park at 330 31st Ave E has become a favorite among Fargo dog owners. Open from 6am to 10pm daily, there's room in the day for dog owners to bring their furry friends. Nearby, Lemke Park (0.3 miles) offers dog owners another great spot to explore with their pups."
  },
  {
    "name": "Woodbury Park",
    "street": "3501 23rd Ave SFargo",
    "city": "‍ Fargo",
    "state": "ND",
    "zip": "58103",
    "latitude": 46.8451865,
    "longitude": -96.80533,
    "description": "For dog owners in the Fargo area, Woodbury Park (3501 23rd Ave S) offers a 4.5-star experience based on 56 reviews. Open from 6am to 10pm daily, the park works well for dog owners with different schedules. Nearby, Southwest Park (0.6 miles) offers dog owners another great spot to explore with their pups."
  },
  {
    "name": "Veterans Park",
    "street": "4951 53rd St SFargo",
    "city": "‍ Fargo",
    "state": "ND",
    "zip": "58104",
    "latitude": 46.811006,
    "longitude": -96.8769275,
    "description": "Veterans Park at 4951 53rd St S is well-regarded by Fargo dog owners, holding 4.5 stars across 11 reviews. Open from 8am to 8pm daily, dog owners have plenty of flexibility to plan a visit. For a change of scenery, Lemke Park is another dog-friendly destination 1.6 miles from here."
  },
  {
    "name": "Lemke Park",
    "street": "1000 32nd Ave SFargo",
    "city": "‍ Fargo",
    "state": "ND",
    "zip": "58103",
    "latitude": 46.8331421,
    "longitude": -96.888524,
    "description": "Dog owners in Fargo have rated Lemke Park (1000 32nd Ave S) 4.4 stars across 95 reviews. Open from 10am to 9pm daily, dog owners can stop by when it fits their schedule. Looking to explore more? Maple Ridge Park is another dog-friendly park 0.3 miles from here."
  },
  {
    "name": "‍ Jefferson West Park",
    "street": "1904 4th Ave SFargo",
    "city": "‍ Fargo",
    "state": "ND",
    "zip": "58103",
    "latitude": 46.8707612,
    "longitude": -96.809376,
    "description": "Jefferson West Park at 1904 4th Ave S holds a 4.4-star rating from 99 Fargo dog owner visits. Open from 6am to 10pm daily, dog owners have a window to spend time with their pups. For pups who want more adventure, West Village Dog Park is a nearby dog park worth visiting (0.7 miles)."
  },
  {
    "name": "Southwest Park",
    "street": "1901-1967 18th Ave SFargo",
    "city": "‍ Fargo",
    "state": "ND",
    "zip": "58103",
    "latitude": 46.8518838,
    "longitude": -96.8121555,
    "description": "13 dog owners have reviewed Southwest Park at 1901-1967 18th Ave S in Fargo, averaging 4.3 stars. Dog owners in the area appreciate having a local spot to bring their pups. Dog owners in the neighborhood can also take their furry friends to Woodbury Park, 0.6 miles away."
  },
  {
    "name": "Brandt Crossing Park",
    "street": "5009 33rd Ave SFargo",
    "city": "‍ Fargo",
    "state": "ND",
    "zip": "58104",
    "latitude": 46.830538,
    "longitude": -96.8217433,
    "description": "Dog owners in Fargo have rated Brandt Crossing Park (5009 33rd Ave S) 4.3 stars across 318 reviews. Open from 7am to 9pm daily, the park gives dog owners in the neighborhood time to bring their pups. Dog owners looking for variety can also visit Boler Park (0.8 miles) or Woodbury Park (1.3 miles) with their four-legged friends."
  },
  {
    "name": "Boler Park",
    "street": "1734 34th St SWFargo",
    "city": "‍ Fargo",
    "state": "ND",
    "zip": "58103",
    "latitude": 46.835992,
    "longitude": -96.8360386,
    "description": "At 1734 34th St SW, Boler Park has 4.1 stars based on 45 reviews from Fargo dog owners. Open from 8am to 8pm daily, local dog owners have time to explore with their furry companions. Dog owners might also enjoy Brandt Crossing Park, another dog park just 0.8 miles away."
  },
  {
    "name": "Veterans Memorial Park",
    "street": "2357 S 34th St",
    "city": "Grand Forks",
    "state": "ND",
    "zip": "58201",
    "latitude": 47.8970954,
    "longitude": -97.0773146,
    "description": "With 5.0 stars from 48 reviews, Veterans Memorial Park at 2357 S 34th St has become a favorite among Grand Forks dog owners. Open from 8am to 6pm daily, there's plenty of opportunity for dog owners to find a time that works. Other dog parks in the area include South Kiwanis Park (0.6 miles) and Bringewatt Park (0.9 miles)—both great for exploring with your four-legged friend."
  },
  {
    "name": "Lincoln Drive Park",
    "street": "120 Euclid Ave",
    "city": "Grand Forks",
    "state": "ND",
    "zip": "58201",
    "latitude": 47.9116731,
    "longitude": -97.0237462,
    "description": "Grand Forks dog owners rate Lincoln Drive Park at 120 Euclid Ave highly, with 4.7 stars from 623 visits. Open from 6am to 11pm daily, there's room in the day for dog owners to bring their furry friends. Dog owners exploring the neighborhood can also bring their furry friends to Gafler Vinterpark (0.3 miles)."
  },
  {
    "name": "Sherlock Park",
    "street": "919 5th Ave NWEast",
    "city": "Grand Forks",
    "state": "ND",
    "zip": "56721",
    "latitude": 47.9332861,
    "longitude": -97.0256924,
    "description": "Located at 919 5th Ave NW in Grand Forks, Sherlock Park earns strong marks from local dog owners—4.7 stars from 392 reviews. For dog owners in the area, this park has become a trusted spot for time with their pups. Nearby, Red River State Recreation (0.3 miles) offers dog owners another great spot to explore with their pups."
  },
  {
    "name": "Stay & Play Pet Resort and Spa",
    "street": "7254 S Washington St",
    "city": "Grand Forks",
    "state": "ND",
    "zip": "58201",
    "latitude": 47.8542705,
    "longitude": -97.0453203,
    "description": "With 4.7 stars from 159 reviews, Stay & Play Pet Resort and Spa at 7254 S Washington St has become a favorite among Grand Forks dog owners. Dog owners in the area consistently choose this park as a go-to destination for their pups. Dog owners exploring the neighborhood can also bring their furry friends to Optimist Park (1.5 miles)."
  },
  {
    "name": "Prime Steel Park",
    "street": "1350 S 40th St",
    "city": "Grand Forks",
    "state": "ND",
    "zip": "58201",
    "latitude": 47.9083291,
    "longitude": -97.0857167,
    "description": "For dog owners in the Grand Forks area, Prime Steel Park (1350 S 40th St) offers a 4.8-star experience based on 25 reviews. Local dog owners appreciate what this park offers their four-legged friends. Dog owners can also take their pups to nearby Veterans Memorial Park (0.9 miles) or Sertoma Park (1.2 miles)."
  },
  {
    "name": "Gafler Vinterpark",
    "street": "1418 Lincoln Dr",
    "city": "Grand Forks",
    "state": "ND",
    "zip": "58201",
    "latitude": 47.9091971,
    "longitude": -97.0277198,
    "description": "Dog owners in Grand Forks have made Gafler Vinterpark at 1418 Lincoln Dr a go-to spot, rating it 4.9 stars across 12 reviews. Open from 6am to 11pm daily, there's room in the day for dog owners to bring their furry friends. Dog owners exploring the neighborhood can also bring their furry friends to Lincoln Drive Park (0.3 miles)."
  },
  {
    "name": "Sertoma Park",
    "street": "3300 11th Ave S",
    "city": "Grand Forks",
    "state": "ND",
    "zip": "58201",
    "latitude": 47.9112322,
    "longitude": -97.0610513,
    "description": "Sertoma Park at 3300 11th Ave S is well-regarded by Grand Forks dog owners, holding 4.6 stars across 453 reviews. Open from 5am to 11pm daily, dog owners can plan visits around work or their pup's energy level. More dog-friendly parks nearby include Ben Franklin Park (0.2 miles) and Ruffing It Doggie Day Care (0.7 miles)—perfect for pups who love adventure."
  },
  {
    "name": "Riverside Park",
    "street": "",
    "city": "Grand Forks",
    "state": "ND",
    "zip": "",
    "latitude": 47.9252104,
    "longitude": -97.0306325,
    "description": "Dog owners in Grand Forks have made Riverside Park a go-to spot, rating it 4.6 stars across 174 reviews. Dog owners in the area consistently choose this park as a go-to destination for their pups. More dog-friendly parks nearby include Kannowski Park (0.1 miles) and Red River State Recreation (0.4 miles)—perfect for pups who love adventure."
  },
  {
    "name": "Exchange Club Park",
    "street": "3702 6th Ave N",
    "city": "Grand Forks",
    "state": "ND",
    "zip": "58203",
    "latitude": 47.9258517,
    "longitude": -97.0831618,
    "description": "For dog owners in the Grand Forks area, Exchange Club Park (3702 6th Ave N) offers a 4.6-star experience based on 51 reviews. For dog owners in the area, this park has become a trusted spot for time with their pups. Dog owners exploring the neighborhood can also bring their furry friends to Richard's West Park (0.6 miles)."
  },
  {
    "name": "Ryan Lake Parking Lot Park",
    "street": "2001 47th Ave S",
    "city": "Grand Forks",
    "state": "ND",
    "zip": "58201",
    "latitude": 47.8749177,
    "longitude": -97.0615665,
    "description": "With 4.6 stars from 34 reviews, Ryan Lake Parking Lot Park at 2001 47th Ave S has become a favorite among Grand Forks dog owners. Dog owners frequent this park for its consistent quality and welcoming atmosphere. Other dog parks in the area include Grand Forks Park (0.0 miles) and Masonic Park (0.5 miles)—both great for exploring with your four-legged friend."
  },
  {
    "name": "Grand Forks Park",
    "street": "1060 47th Ave S",
    "city": "Grand Forks",
    "state": "ND",
    "zip": "58201",
    "latitude": 47.8749177,
    "longitude": -97.0615665,
    "description": "Located at 1060 47th Ave S in Grand Forks, Grand Forks Park earns strong marks from local dog owners—4.6 stars from 21 reviews. Open from 8am to 5pm weekdays, dog owners have plenty of flexibility to plan a visit. More dog-friendly parks nearby include Ryan Lake Parking Lot Park (0.0 miles) and Masonic Park (0.5 miles)—perfect for pups who love adventure."
  },
  {
    "name": "South Kiwanis Park",
    "street": "4100 32nd Ave S",
    "city": "Grand Forks",
    "state": "ND",
    "zip": "58201",
    "latitude": 47.8895327,
    "longitude": -97.0837826,
    "description": "South Kiwanis Park (4.6 stars from 10 reviews) is a popular destination for Grand Forks dog owners, located at 4100 32nd Ave S. Open from 6am to 11pm daily, the park offers flexibility for dog owners with varying routines. Dog owners can also take their pups to nearby Veterans Memorial Park (0.6 miles) or Masonic Park (1.2 miles)."
  },
  {
    "name": "Lafave Park",
    "street": "",
    "city": "Grand Forks",
    "state": "ND",
    "zip": "",
    "latitude": 47.9317013,
    "longitude": -97.0175792,
    "description": "Lafave Park is well-regarded by Grand Forks dog owners, holding 4.5 stars across 13 reviews. Open from 6am to 11pm daily, the park works well for dog owners with different schedules. Dog owners exploring the neighborhood can also bring their furry friends to Stauss Park (0.2 miles)."
  },
  {
    "name": "River Heights Park",
    "street": "819 12th St NWEast",
    "city": "Grand Forks",
    "state": "ND",
    "zip": "56721",
    "latitude": 47.9365172,
    "longitude": -97.0316264,
    "description": "At 819 12th St NW in Grand Forks, River Heights Park has built a loyal following—4.5 stars from 13 dog owner reviews. The park serves dog owners well, providing a destination the community values. For variety, the neighborhood offers more dog parks to explore: Sherlock Park (0.4 miles) and Red River State Recreation (0.4 miles)."
  },
  {
    "name": "Optimist Park",
    "street": "4601 Cherry St",
    "city": "Grand Forks",
    "state": "ND",
    "zip": "58201",
    "latitude": 47.875734,
    "longitude": -97.0374763,
    "description": "Located at 4601 Cherry St in Grand Forks, Optimist Park earns strong marks from local dog owners—4.5 stars from 35 reviews. Open from 6am to 11pm daily, there's room in the day for dog owners to bring their furry friends. Nearby, President's Park (0.9 miles) offers dog owners another great spot to explore with their pups."
  },
  {
    "name": "Masonic Park",
    "street": "1950 40th Ave S",
    "city": "Grand Forks",
    "state": "ND",
    "zip": "58201",
    "latitude": 47.8821684,
    "longitude": -97.0592342,
    "description": "At 1950 40th Ave S in Grand Forks, Masonic Park has built a loyal following—4.5 stars from 68 dog owner reviews. Dog owners looking for a solid destination will find this park delivers. Looking for more places to take your pup? Ryan Lake Parking Lot Park is another popular dog park just 0.5 miles away."
  }
]