[
  {
    "name": "‍ Apex Community Park",
    "street": "1808 Lake Pine Dr",
    "city": "Apex",
    "state": "NC",
    "zip": "27511",
    "latitude": 35.7506568,
    "longitude": -78.8095293,
    "description": "Dog owners in Apex have embraced Apex Community Park (1808 Lake Pine Dr) as a top destination—4.8 stars from 1,015 visits. Open from 6:30am to 10pm daily, the park is convenient for before work, after work, or weekend adventures. Other popular dog parks nearby include Hunter Street Park (2.1 miles) and Barkyard (2.8 miles)—both favorites among local pup parents."
  },
  {
    "name": "Bill Moore Community Park",
    "street": "85 Howard Gap RdFletcher",
    "city": "Asheville",
    "state": "NC",
    "zip": "28732",
    "latitude": 35.4265304,
    "longitude": -82.5003248,
    "description": "Local dog owners love Bill Moore Community Park at 85 Howard Gap Rd in Asheville—4.7 stars from an impressive 1,509 reviews. Open from 8am to 8pm daily, dog owners can easily fit a visit into their day, whether morning or evening. Looking to mix things up? Mills River Dog Park is a nearby dog park 4.1 miles away that's worth exploring with your pup."
  },
  {
    "name": "Lake Louise Park",
    "street": "Lake Louise DrWeaverville",
    "city": "Asheville",
    "state": "NC",
    "zip": "28787",
    "latitude": 35.6902194,
    "longitude": -82.5687217,
    "description": "Dog owners in Asheville have embraced Lake Louise Park as a top destination—4.7 stars from 1,397 visits. Open from 5am to 11pm daily, dog owners have plenty of flexibility to visit when it suits their schedule. Looking to mix things up? Wagbar is a nearby dog park 0.9 miles away that's worth exploring with your pup."
  },
  {
    "name": "Mills River Dog Park",
    "street": "124 Town Center DrMills River",
    "city": "Asheville",
    "state": "NC",
    "zip": "28759",
    "latitude": 35.3839404,
    "longitude": -82.5500009,
    "description": "With 4.7 stars from 547 reviews, Mills River Dog Park at 124 Town Center Dr has become a favorite among Asheville dog owners. The park has earned its reputation among dog owners in the neighborhood as a reliable choice. Looking for more places to take your pup? Bill Moore Community Park is another popular dog park just 4.1 miles away."
  },
  {
    "name": "Caledonia Park",
    "street": "4 Caledonia Rd",
    "city": "Asheville",
    "state": "NC",
    "zip": "28803",
    "latitude": 35.5741627,
    "longitude": -82.5436304,
    "description": "Asheville dog owners rate Caledonia Park at 4 Caledonia Rd highly, with 4.6 stars from 15 visits. Open from 8am to 8pm daily, there's plenty of opportunity for dog owners to find a time that works. Dog owners exploring the neighborhood can also bring their furry friends to Triangle Park (1.4 miles)."
  },
  {
    "name": "‍ Triangle Park",
    "street": "56 S Market St",
    "city": "Asheville",
    "state": "NC",
    "zip": "28801",
    "latitude": 35.5935625,
    "longitude": -82.5502925,
    "description": "For dog owners in the Asheville area, Triangle Park (56 S Market St) offers a 4.6-star experience based on 16 reviews. Open from 6am to 10pm daily, dog owners can easily fit a visit into busy schedules. More dog-friendly parks nearby include Pack Square Park (0.1 miles) and Magnolia Park (0.9 miles)—perfect for pups who love adventure."
  },
  {
    "name": "E.W. Grove Park",
    "street": "338 Charlotte St",
    "city": "Asheville",
    "state": "NC",
    "zip": "28801",
    "latitude": 35.6112644,
    "longitude": -82.545667,
    "description": "Dog owners in Asheville have made E.W. Grove Park at 338 Charlotte St a go-to spot, rating it 4.6 stars across 45 reviews. Dog owners frequent this park for its consistent quality and welcoming atmosphere. Other dog parks in the area include Weaver Park (0.4 miles) and Magnolia Park (1.0 miles)—both great for exploring with your four-legged friend."
  },
  {
    "name": "Wagbar",
    "street": "320 Merrimon AveWeaverville",
    "city": "Asheville",
    "state": "NC",
    "zip": "28787",
    "latitude": 35.6779522,
    "longitude": -82.574574,
    "description": "Wagbar (4.5 stars from 304 reviews) is a popular destination for Asheville dog owners, located at 320 Merrimon Ave. Dog owners frequent this park for its consistent quality and welcoming atmosphere. More dog-friendly parks nearby include Lake Louise Park (0.9 miles) and Weaver Park (4.6 miles)—perfect for pups who love adventure."
  },
  {
    "name": "Pack Square Park",
    "street": "80 Court Plaza",
    "city": "Asheville",
    "state": "NC",
    "zip": "28801",
    "latitude": 35.5952868,
    "longitude": -82.5487928,
    "description": "Local dog owners love Pack Square Park at 80 Court Plaza in Asheville—4.5 stars from an impressive 1,751 reviews. For dog owners seeking a tried-and-true destination, this park delivers consistently. Nearby, Triangle Park (0.1 miles) is another dog park favorite where you can take your four-legged friend."
  },
  {
    "name": "Magnolia Park",
    "street": "51 Magnolia Ave",
    "city": "Asheville",
    "state": "NC",
    "zip": "28801",
    "latitude": 35.6030141,
    "longitude": -82.5609019,
    "description": "Magnolia Park at 51 Magnolia Ave in Asheville has 4.4 stars from 45 dog owner reviews. Open from 6am to 10pm daily, dog owners in the area can work a visit into their day. Dog owners looking for variety can also visit Pack Square Park (0.9 miles) or Weaver Park (0.9 miles) with their four-legged friends."
  },
  {
    "name": "‍ Weaver Park",
    "street": "200 Murdock Ave",
    "city": "Asheville",
    "state": "NC",
    "zip": "28801",
    "latitude": 35.613739,
    "longitude": -82.552869,
    "description": "At 200 Murdock Ave in Asheville, Weaver Park carries 4.4 stars from 331 dog owner reviews. Open from 6am to 10pm daily, the park fits conveniently into different routines. Dog owners might also enjoy E.W. Grove Park, another dog park just 0.4 miles away."
  },
  {
    "name": "Elon Dog Park",
    "street": "522 Cook RdElon",
    "city": "Burlington",
    "state": "NC",
    "zip": "27244",
    "latitude": 36.0960136,
    "longitude": -79.520611,
    "description": "Elon Dog Park (4.5 stars from 322 reviews) is a popular destination for Burlington dog owners, located at 522 Cook Rd. Open from 7am to 7pm daily, there's room in the day for dog owners to bring their furry friends. Looking for more places to take your pup? Jiggs Askew Memorial Park is another popular dog park just 4.0 miles away."
  },
  {
    "name": "Jiggs Askew Memorial Park",
    "street": "1333 Overbrook Rd",
    "city": "Burlington",
    "state": "NC",
    "zip": "27215",
    "latitude": 36.0834194,
    "longitude": -79.450214,
    "description": "At 1333 Overbrook Rd in Burlington, Jiggs Askew Memorial Park carries 4.3 stars from 119 dog owner reviews. Open from 7am to 8pm daily, dog owners can stop by when it fits their schedule. Looking to explore more? Elon Dog Park is another dog-friendly park 4.0 miles from here."
  },
  {
    "name": "Blackwood Farm Park",
    "street": "4215 NC-86",
    "city": "‍ Chapel Hill",
    "state": "NC",
    "zip": "27514",
    "latitude": 35.9097175,
    "longitude": -79.0536297,
    "description": "At 4215 NC-86 in Chapel Hill, Blackwood Farm Park has built a loyal following—4.8 stars from 142 dog owner reviews. Open from 8am to 5pm daily, dog owners have plenty of flexibility to plan a visit. For variety, the neighborhood offers more dog parks to explore: 180 West Complex Dog Park (0.3 miles) and Westwood Park (0.7 miles)."
  },
  {
    "name": "Johnston Mill Nature Preserve",
    "street": "2713 Mt Sinai Rd",
    "city": "‍ Chapel Hill",
    "state": "NC",
    "zip": "27514",
    "latitude": 35.9843003,
    "longitude": -79.0568911,
    "description": "Johnston Mill Nature Preserve at 2713 Mt Sinai Rd is well-regarded by Chapel Hill dog owners, holding 4.7 stars across 286 reviews. The park serves dog owners well, providing a destination the community values. For a change of scenery, Pretty Acres Dog Park is another dog-friendly destination 3.0 miles from here."
  },
  {
    "name": "‍ Merritt's Pasture",
    "street": "Morgan Creek Trail",
    "city": "‍ Chapel Hill",
    "state": "NC",
    "zip": "27517",
    "latitude": 35.8914972,
    "longitude": -79.0578457,
    "description": "Dog owners in Chapel Hill have made Merritt's Pasture a go-to spot, rating it 4.7 stars across 97 reviews. Open from 6am to 9pm daily, the park works well for dog owners with different schedules. For a change of scenery, Westwood Park is another dog-friendly destination 0.7 miles from here."
  },
  {
    "name": "The Park",
    "street": "1015 Andrews Store Rd",
    "city": "‍ Chapel Hill",
    "state": "NC",
    "zip": "27312",
    "latitude": 35.8107884,
    "longitude": -79.1090639,
    "description": "The Park at 1015 Andrews Store Rd is well-regarded by Chapel Hill dog owners, holding 4.7 stars across 53 reviews. Open from 8am to 9pm daily, there's plenty of opportunity for dog owners to find a time that works. For a change of scenery, Briar Chapel Dog Park is another dog-friendly destination 0.9 miles from here."
  },
  {
    "name": "Berkshire Manor Dog Park",
    "street": "106 NC-54",
    "city": "‍ Chapel Hill",
    "state": "NC",
    "zip": "27510",
    "latitude": 35.916404,
    "longitude": -79.0939958,
    "description": "At 106 NC-54 in Chapel Hill, Berkshire Manor Dog Park carries 4.1 stars from 9 dog owner reviews. The park serves as a gathering spot for dog owners and their four-legged friends in the area. For pups who want more adventure, 180 West Complex Dog Park is a nearby dog park worth visiting (2.2 miles)."
  },
  {
    "name": "180 West Complex Dog Park",
    "street": "",
    "city": "‍ Chapel Hill",
    "state": "NC",
    "zip": "",
    "latitude": 35.9131542,
    "longitude": -79.05578,
    "description": "180 West Complex Dog Park provides Chapel Hill dog owners with a local spot to visit with their pups. Open from 6am to 10pm daily, the park fits conveniently into different routines. For pups who want more adventure, Blackwood Farm Park is a nearby dog park worth visiting (0.3 miles)."
  },
  {
    "name": "Westwood Park",
    "street": "530 Dogwood Dr",
    "city": "‍ Chapel Hill",
    "state": "NC",
    "zip": "27516",
    "latitude": 35.900935,
    "longitude": -79.059615,
    "description": "For dog owners near 530 Dogwood Dr in Chapel Hill, Westwood Park provides a convenient spot to take their dogs. For dog owners in the neighborhood, this park offers a place to take their pups. Looking to explore more? Merritt's Pasture is another dog-friendly park 0.7 miles from here."
  },
  {
    "name": "Briar Chapel Dog Park",
    "street": "1690 Great Ridge Pkwy",
    "city": "‍ Chapel Hill",
    "state": "NC",
    "zip": "27516",
    "latitude": 35.823494,
    "longitude": -79.104615,
    "description": "In Chapel Hill, dog owners can find Briar Chapel Dog Park at 1690 Great Ridge Pkwy—a local park worth exploring with their furry companions. Open from 7am to 7pm daily, dog owners have a window to spend time with their pups. Dog owners might also enjoy The Park, another dog park just 0.9 miles away."
  },
  {
    "name": "‍ Reedy Creek Park",
    "street": "2900 Rocky River Rd",
    "city": "‍ Charlotte",
    "state": "NC",
    "zip": "28215",
    "latitude": 35.2759592,
    "longitude": -80.7180641,
    "description": "Local dog owners love Reedy Creek Park at 2900 Rocky River Rd in Charlotte—4.8 stars from an impressive 1,275 reviews. The community of dog owners here is welcoming and the atmosphere consistently positive. Other popular dog parks nearby include Reedy Creek Nature Center (0.1 miles) and Heather Ridge Dog Park (1.6 miles)—both favorites among local pup parents."
  },
  {
    "name": "Crooked Creek Park",
    "street": "5900 Oakwood LnIndian Trail",
    "city": "‍ Charlotte",
    "state": "NC",
    "zip": "28079",
    "latitude": 35.065505,
    "longitude": -80.616725,
    "description": "Crooked Creek Park at 5900 Oakwood Ln is well-regarded by Charlotte dog owners, holding 4.8 stars across 724 reviews. Open from 7am to 7pm daily, dog owners can easily fit a visit into busy schedules. The consistent ratings suggest dog owners know what to expect here."
  },
  {
    "name": "Freedom Park",
    "street": "1415 Princeton Ave",
    "city": "‍ Charlotte",
    "state": "NC",
    "zip": "28209",
    "latitude": 35.1880233,
    "longitude": -80.8478894,
    "description": "With 4.8 stars from 225 reviews, Freedom Park at 1415 Princeton Ave has become a favorite among Charlotte dog owners. Open from 7am to 8pm daily, there's plenty of opportunity for dog owners to find a time that works. More dog-friendly parks nearby include Collins Park (1.4 miles) and Latta Park (1.5 miles)—perfect for pups who love adventure."
  },
  {
    "name": "Romare Bearden Park",
    "street": "300 S Church St",
    "city": "‍ Charlotte",
    "state": "NC",
    "zip": "28202",
    "latitude": 35.226557,
    "longitude": -80.846582,
    "description": "Dog owners have made Romare Bearden Park at 300 S Church St one of Charlotte's most popular destinations—4.7 stars from 5,741 visits. The park has achieved landmark status among dog owners for good reason. Dog owners in the area also frequent Dog Park (0.2 miles)—another top dog park worth visiting with your pup."
  },
  {
    "name": "McAlpine Creek Park",
    "street": "8711 Monroe Rd",
    "city": "‍ Charlotte",
    "state": "NC",
    "zip": "28212",
    "latitude": 35.1508628,
    "longitude": -80.7449589,
    "description": "McAlpine Creek Park at 8711 Monroe Rd is a favorite among Charlotte dog owners, earning 4.7 stars from 2,094 reviews. Open from 7am to 8pm daily, there's always time for dog owners to bring their pup for some quality time. Looking to mix things up? McAlpine Creek Dog Park is a nearby dog park 0.1 miles away that's worth exploring with your pup."
  },
  {
    "name": "Town of Cramerton Goat Island",
    "street": "141 8th AveCramerton",
    "city": "‍ Charlotte",
    "state": "NC",
    "zip": "28032",
    "latitude": 35.2369101,
    "longitude": -81.0718212,
    "description": "Located at 141 8th Ave in Charlotte, Town of Cramerton Goat Island earns strong marks from local dog owners—4.7 stars from 838 reviews. Open from 7am to 9pm daily, dog owners have plenty of flexibility to plan a visit. Other dog parks in the area include Centralville Dog Park (2.3 miles) and Tuckaseege Park (4.4 miles)—both great for exploring with your four-legged friend."
  },
  {
    "name": "Reedy Creek Nature Center",
    "street": "2986 ROCKY RIVER RD",
    "city": "‍ Charlotte",
    "state": "NC",
    "zip": "28215",
    "latitude": 35.2764587,
    "longitude": -80.7171311,
    "description": "With 4.7 stars from 795 reviews, Reedy Creek Nature Center at 2986 ROCKY RIVER RD has become a favorite among Charlotte dog owners. Local dog owners appreciate what this park offers their four-legged friends. Dog owners exploring the neighborhood can also bring their furry friends to Reedy Creek Park (0.1 miles)."
  },
  {
    "name": "‍ Lucky Dog Bark - Steele Creek",
    "street": "13835 S Lakes Dr",
    "city": "‍ Charlotte",
    "state": "NC",
    "zip": "28273",
    "latitude": 35.1066568,
    "longitude": -80.9591641,
    "description": "For dog owners in the Charlotte area, Lucky Dog Bark - Steele Creek (13835 S Lakes Dr) offers a 4.7-star experience based on 593 reviews. The park has earned its reputation among dog owners in the neighborhood as a reliable choice. Nearby, Canine Commons Dog Park (4.3 miles) offers dog owners another great spot to explore with their pups."
  },
  {
    "name": "Evergreen Nature Preserve",
    "street": "1336 Norland Rd",
    "city": "‍ Charlotte",
    "state": "NC",
    "zip": "28205",
    "latitude": 35.2078195,
    "longitude": -80.7787602,
    "description": "Located at 1336 Norland Rd in Charlotte, Evergreen Nature Preserve earns strong marks from local dog owners—4.7 stars from 395 reviews. Open from 7am to 7pm daily, the park offers flexibility for dog owners with varying routines. Other dog parks in the area include Chantilly Park (1.8 miles) and Plaza Midwood Neighborhood (2.2 miles)—both great for exploring with your four-legged friend."
  },
  {
    "name": "Clarks Creek Community Park",
    "street": "5435 Hucks Rd",
    "city": "‍ Charlotte",
    "state": "NC",
    "zip": "28269",
    "latitude": 35.3517539,
    "longitude": -80.8112577,
    "description": "At 5435 Hucks Rd in Charlotte, Clarks Creek Community Park has built a loyal following—4.7 stars from 375 dog owner reviews. Open from 7am to 7pm daily, there's room in the day for dog owners to bring their furry friends. For variety, the neighborhood offers more dog parks to explore: Clarks Creek Nature Preserve (0.0 miles) and University Center Dog Park (4.3 miles)."
  },
  {
    "name": "Midtown Park",
    "street": "510 S Kings Dr",
    "city": "‍ Charlotte",
    "state": "NC",
    "zip": "28204",
    "latitude": 35.2111947,
    "longitude": -80.8356783,
    "description": "For dog owners in the Charlotte area, Midtown Park (510 S Kings Dr) offers a 4.7-star experience based on 191 reviews. Open from 7am to 7pm daily, the park accommodates early risers and evening visitors alike. For variety, the neighborhood offers more dog parks to explore: Latta Park (0.9 miles) and Dog Park (1.2 miles)."
  },
  {
    "name": "‍ Lake Loop Trailhead",
    "street": "5000 Whitewater Center Pkwy",
    "city": "‍ Charlotte",
    "state": "NC",
    "zip": "28214",
    "latitude": 35.291958,
    "longitude": -80.9846794,
    "description": "At 5000 Whitewater Center Pkwy in Charlotte, Lake Loop Trailhead has built a loyal following—4.6 stars from 35 dog owner reviews. Open from 9am to 8pm daily, the park accommodates early risers and evening visitors alike. For variety, the neighborhood offers more dog parks to explore: Tuckaseege Park (1.9 miles) and Shuffletown Dog Park (2.8 miles)."
  },
  {
    "name": "McAlpine Creek Dog Park",
    "street": "8617 Monroe Rd",
    "city": "‍ Charlotte",
    "state": "NC",
    "zip": "28212",
    "latitude": 35.1525195,
    "longitude": -80.7449955,
    "description": "At 8617 Monroe Rd in Charlotte, McAlpine Creek Dog Park has built a loyal following—4.6 stars from 72 dog owner reviews. The park serves dog owners well, providing a destination the community values. Other dog parks in the area include McAlpine Creek Park (0.1 miles) and Evergreen Nature Preserve (4.3 miles)—both great for exploring with your four-legged friend."
  },
  {
    "name": "The Preserve Dog Park",
    "street": "330 O'Henry AveDavidson",
    "city": "‍ Charlotte",
    "state": "NC",
    "zip": "28036",
    "latitude": 35.4966141,
    "longitude": -80.8295743,
    "description": "Dog owners in Charlotte have made The Preserve Dog Park at 330 O'Henry Ave a go-to spot, rating it 4.6 stars across 96 reviews. Open from 7am to 8pm daily, there's room in the day for dog owners to bring their furry friends. Dog owners can also take their pups to nearby Legacy Dog Park (3.7 miles) or K9 Park (4.4 miles)."
  },
  {
    "name": "Clarks Creek Nature Preserve",
    "street": "5542 Hucks Rd",
    "city": "‍ Charlotte",
    "state": "NC",
    "zip": "28269",
    "latitude": 35.3517822,
    "longitude": -80.8110004,
    "description": "Located at 5542 Hucks Rd in Charlotte, Clarks Creek Nature Preserve earns strong marks from local dog owners—4.6 stars from 237 reviews. Open from 7am to 7pm daily, the park offers flexibility for dog owners with varying routines. Other dog parks in the area include Clarks Creek Community Park (0.0 miles) and University Center Dog Park (4.3 miles)—both great for exploring with your four-legged friend."
  },
  {
    "name": "‍ Canine Commons Dog Park",
    "street": "181 Lake DrPineville",
    "city": "‍ Charlotte",
    "state": "NC",
    "zip": "28134",
    "latitude": 35.0761854,
    "longitude": -80.8929283,
    "description": "Charlotte dog owners rate Canine Commons Dog Park at 181 Lake Dr highly, with 4.6 stars from 430 visits. Open from 6am to 8pm daily, the park accommodates early risers and evening visitors alike. Other dog parks in the area include Mary Warner Mack Dog Park (3.1 miles) and Lucky Dog Bark - Steele Creek (4.3 miles)—both great for exploring with your four-legged friend."
  },
  {
    "name": "Eno River State Park",
    "street": "6101 Cole Mill Rd",
    "city": "‍ Durham",
    "state": "NC",
    "zip": "27705",
    "latitude": 35.996653,
    "longitude": -78.9018053,
    "description": "Dog owners in Durham have embraced Eno River State Park (6101 Cole Mill Rd) as a top destination—4.8 stars from 2,556 visits. Dog owners appreciate the reliable experience this park provides for their four-legged companions. Nearby, Artisan at Brightleaf Dog Park (0.0 miles) is another dog park favorite where you can take your four-legged friend."
  },
  {
    "name": "Southern Community Park",
    "street": "1300 US-15",
    "city": "‍ Durham",
    "state": "NC",
    "zip": "27516",
    "latitude": 35.932637,
    "longitude": -79.024097,
    "description": "Durham dog owners rate Southern Community Park at 1300 US-15 highly, with 4.8 stars from 135 visits. Open from 7am to 8pm daily, the park offers flexibility for dog owners with varying routines. For a change of scenery, Pretty Acres Dog Park is another dog-friendly destination 1.5 miles from here."
  },
  {
    "name": "Gold Park",
    "street": "415 Dimmocks Mill Rd",
    "city": "‍ Durham",
    "state": "NC",
    "zip": "27278",
    "latitude": 36.0707385,
    "longitude": -79.1104672,
    "description": "Durham dog owners rate Gold Park at 415 Dimmocks Mill Rd highly, with 4.7 stars from 648 visits. Open from 7am to 9pm daily, there's plenty of opportunity for dog owners to find a time that works. Based on the reviews, dog owners can expect a reliable spot for spending time with their pup."
  },
  {
    "name": "Hollow Rock Nature Park",
    "street": "692 Erwin Rd",
    "city": "‍ Durham",
    "state": "NC",
    "zip": "27707",
    "latitude": 35.9803453,
    "longitude": -78.998885,
    "description": "Hollow Rock Nature Park at 692 Erwin Rd is well-regarded by Durham dog owners, holding 4.7 stars across 197 reviews. Open from 6am to 10pm daily, there's plenty of opportunity for dog owners to find a time that works. For a change of scenery, Pretty Acres Dog Park is another dog-friendly destination 2.1 miles from here."
  },
  {
    "name": "Meridian Park",
    "street": "2539 Meridian Pkwy",
    "city": "‍ Durham",
    "state": "NC",
    "zip": "27713",
    "latitude": 35.9107736,
    "longitude": -78.8992424,
    "description": "At 2539 Meridian Pkwy in Durham, Meridian Park has built a loyal following—4.6 stars from 60 dog owner reviews. Open from 6:30am to 9pm daily, the park accommodates early risers and evening visitors alike. For variety, the neighborhood offers more dog parks to explore: Piney Wood Park (1.4 miles) and Barkyard Dog Park (1.8 miles)."
  },
  {
    "name": "Sandy Creek Park",
    "street": "3510 Sandy Creek Dr",
    "city": "‍ Durham",
    "state": "NC",
    "zip": "27707",
    "latitude": 35.9698983,
    "longitude": -78.9629822,
    "description": "With 4.6 stars from 239 reviews, Sandy Creek Park at 3510 Sandy Creek Dr has become a favorite among Durham dog owners. Open from 7am to 8pm daily, the park accommodates early risers and evening visitors alike. For variety, the neighborhood offers more dog parks to explore: Cornwallis Road Park (0.8 miles) and Hollow Rock Nature Park (2.1 miles)."
  },
  {
    "name": "West Point on the Eno Park",
    "street": "5101 N Roxboro St",
    "city": "‍ Durham",
    "state": "NC",
    "zip": "27704",
    "latitude": 36.0690892,
    "longitude": -78.9094713,
    "description": "With 4.6 stars across 1,179 reviews, West Point on the Eno Park at 5101 N Roxboro St has clearly won over Durham dog owners. Open from 8am to 8pm daily, dog owners have plenty of flexibility to visit when it suits their schedule. Dog owners in the area also love bringing their pups to Rock Quarry Park (2.6 miles) and Westover Park (3.2 miles)."
  },
  {
    "name": "Durham Central Park",
    "street": "501 Foster St",
    "city": "‍ Durham",
    "state": "NC",
    "zip": "27701",
    "latitude": 36.000744,
    "longitude": -78.9018663,
    "description": "For Durham dog owners, Durham Central Park at 501 Foster St has become a reliable favorite—4.6 stars from 1,566 reviews. Dog owners have embraced this park as a top choice for spending time with their pups. Keep the adventure going at other nearby dog parks like Eno River State Park (0.3 miles) or Artisan at Brightleaf Dog Park (0.3 miles)."
  },
  {
    "name": "Bay-Hargrove Park",
    "street": "208 Hargrove St",
    "city": "‍ Durham",
    "state": "NC",
    "zip": "27701",
    "latitude": 36.0043832,
    "longitude": -78.8965183,
    "description": "Bay-Hargrove Park (4.5 stars from 22 reviews) is a popular destination for Durham dog owners, located at 208 Hargrove St. Open from 6am to 9:30pm daily, dog owners can easily fit a visit into busy schedules. Looking for more places to take your pup? Rocky Creek Park is another popular dog park just 0.4 miles away."
  },
  {
    "name": "‍ Artisan at Brightleaf Dog Park",
    "street": "",
    "city": "‍ Durham",
    "state": "NC",
    "zip": "",
    "latitude": 35.996653,
    "longitude": -78.9018053,
    "description": "For dog owners in Durham, Artisan at Brightleaf Dog Park has a 4.2-star rating (6 reviews). This park provides dog owners in the community with a place to visit with their dogs. For pups who want more adventure, Eno River State Park is a nearby dog park worth visiting (0.0 miles)."
  },
  {
    "name": "Cornwallis Road Park",
    "street": "2830 Wade Rd",
    "city": "‍ Durham",
    "state": "NC",
    "zip": "27705",
    "latitude": 35.9786954,
    "longitude": -78.9525247,
    "description": "Dog owners in Durham have made Cornwallis Road Park at 2830 Wade Rd a go-to spot, rating it 4.5 stars across 235 reviews. Open from 7am to 8pm daily, dog owners can easily fit a visit into busy schedules. Dog owners exploring the neighborhood can also bring their furry friends to Sandy Creek Park (0.8 miles)."
  },
  {
    "name": "Northgate Park",
    "street": "300 W Club Blvd",
    "city": "‍ Durham",
    "state": "NC",
    "zip": "27704",
    "latitude": 36.019421,
    "longitude": -78.895036,
    "description": "Northgate Park (4.5 stars from 370 reviews) is a popular destination for Durham dog owners, located at 300 W Club Blvd. Open from 6am to 9pm daily, dog owners can plan visits around work or their pup's energy level. For variety, the neighborhood offers more dog parks to explore: PetSafe Dog Park (0.3 miles) and Duke Park (0.5 miles)."
  },
  {
    "name": "Duke Park",
    "street": "106 W Knox St",
    "city": "‍ Durham",
    "state": "NC",
    "zip": "27701",
    "latitude": 36.0122776,
    "longitude": -78.8926722,
    "description": "Dog owners in Durham have made Duke Park at 106 W Knox St a go-to spot, rating it 4.5 stars across 637 reviews. Open from 7am to 9pm daily, dog owners have plenty of flexibility to plan a visit. More dog-friendly parks nearby include PetSafe Dog Park (0.2 miles) and Northgate Park (0.5 miles)—perfect for pups who love adventure."
  },
  {
    "name": "American Village Park",
    "street": "4703 American Dr",
    "city": "‍ Durham",
    "state": "NC",
    "zip": "27705",
    "latitude": 36.0232045,
    "longitude": -78.9716969,
    "description": "Located at 4703 American Dr, American Village Park in Durham is rated 4.4 stars by 55 dog owners. Open from 6am to 9pm daily, dog owners in the area can work a visit into their day. For dog owners who like to explore, Westover Park (2.8 miles) and Cornwallis Road Park (3.3 miles) are both nearby parks to try with your dog."
  },
  {
    "name": "PetSafe Dog Park",
    "street": "1608 Acadia St",
    "city": "‍ Durham",
    "state": "NC",
    "zip": "27701",
    "latitude": 36.0147091,
    "longitude": -78.8942894,
    "description": "At 1608 Acadia St, PetSafe Dog Park has 4.1 stars based on 17 reviews from Durham dog owners. The neighborhood benefits from having this park as an option for dog owners and their pups. More dog parks in the area include Duke Park (0.2 miles) and Northgate Park (0.3 miles)—great options for mixing up your pup's routine."
  },
  {
    "name": "Riverside Dog Park",
    "street": "555 N Eastern Blvd",
    "city": "Fayetteville",
    "state": "NC",
    "zip": "28301",
    "latitude": 35.0556583,
    "longitude": -78.8617339,
    "description": "Riverside Dog Park at 555 N Eastern Blvd is well-regarded by Fayetteville dog owners, holding 4.5 stars across 449 reviews. Open from 8am to 8pm daily, the park works well for dog owners with different schedules. The consistent ratings suggest dog owners know what to expect here."
  },
  {
    "name": "‍ Bailey Lake Dog Park",
    "street": "6723 Bailey Lake Rd",
    "city": "Fayetteville",
    "state": "NC",
    "zip": "28304",
    "latitude": 35.0238816,
    "longitude": -78.9957475,
    "description": "At 6723 Bailey Lake Rd in Fayetteville, Bailey Lake Dog Park has built a loyal following—4.5 stars from 30 dog owner reviews. Dog owners looking for a solid destination will find this park delivers. The reviews indicate this is a trusted destination for dog owners in the area."
  },
  {
    "name": "City of Greensboro - Country",
    "street": "3905 Nathanael Green Dr",
    "city": "Greensboro",
    "state": "NC",
    "zip": "27455",
    "latitude": 36.1293831,
    "longitude": -79.8362312,
    "description": "Local dog owners love City of Greensboro - Country at 3905 Nathanael Green Dr in Greensboro—4.7 stars from an impressive 3,812 reviews. Open from 8am to 8pm daily, dog owners can easily fit a visit into their day, whether morning or evening. Want to give your pup even more adventure? Three Meadows Park is another beloved dog park just 1.2 miles away."
  },
  {
    "name": "‍ LeBauer Park",
    "street": "208 N Davie St",
    "city": "Greensboro",
    "state": "NC",
    "zip": "27401",
    "latitude": 36.0745615,
    "longitude": -79.7879433,
    "description": "LeBauer Park at 208 N Davie St is a favorite among Greensboro dog owners, earning 4.7 stars from 2,805 reviews. Open from 7am to 10pm daily, the park is convenient for before work, after work, or weekend adventures. Want to give your pup even more adventure? Downtown Greensboro Animal is another beloved dog park just 0.0 miles away."
  },
  {
    "name": "Oak Ridge Town Park",
    "street": "6231 Lisa DrOak Ridge",
    "city": "Greensboro",
    "state": "NC",
    "zip": "27310",
    "latitude": 36.1718544,
    "longitude": -79.9956986,
    "description": "With 4.7 stars from 722 reviews, Oak Ridge Town Park at 6231 Lisa Dr has become a favorite among Greensboro dog owners. Open from 6:30am to 8pm daily, dog owners have plenty of flexibility to plan a visit. Local dog owners have clearly found this to be a worthwhile destination."
  },
  {
    "name": "Lindley Park",
    "street": "3299 Starmount Dr",
    "city": "Greensboro",
    "state": "NC",
    "zip": "27403",
    "latitude": 36.0732469,
    "longitude": -79.8375334,
    "description": "Greensboro dog owners rate Lindley Park at 3299 Starmount Dr highly, with 4.7 stars from 439 visits. Open from 7:30am to 8:30pm daily, the park offers flexibility for dog owners with varying routines. Nearby, Doggos Dog Park (2.0 miles) offers dog owners another great spot to explore with their pups."
  },
  {
    "name": "Doggos Dog Park",
    "street": "1214 Battleground Ave",
    "city": "Greensboro",
    "state": "NC",
    "zip": "27408",
    "latitude": 36.0836021,
    "longitude": -79.8045455,
    "description": "With 4.7 stars from 387 reviews, Doggos Dog Park at 1214 Battleground Ave has become a favorite among Greensboro dog owners. The park serves dog owners well, providing a destination the community values. Other dog parks in the area include Dog Park (1.0 miles) and Brown Bark Park (1.0 miles)—both great for exploring with your four-legged friend."
  },
  {
    "name": "Barkdale Dog Park",
    "street": "5932 Mose DrArchdale",
    "city": "Greensboro",
    "state": "NC",
    "zip": "27263",
    "latitude": 35.8918453,
    "longitude": -79.934486,
    "description": "Greensboro dog owners rate Barkdale Dog Park at 5932 Mose Dr highly, with 4.7 stars from 116 visits. The park has earned its reputation among dog owners in the neighborhood as a reliable choice. Other dog parks in the area include Archdale Recreation Center at (0.1 miles) and Allen Jay Park (3.3 miles)—both great for exploring with your four-legged friend."
  },
  {
    "name": "Southwest Park",
    "street": "6309 SW Park Dr",
    "city": "Greensboro",
    "state": "NC",
    "zip": "27407",
    "latitude": 35.9466047,
    "longitude": -79.8745601,
    "description": "For dog owners in the Greensboro area, Southwest Park (6309 SW Park Dr) offers a 4.6-star experience based on 279 reviews. Open from 7am to 6pm, every day except Monday and Tuesday, dog owners have plenty of flexibility to plan a visit. A solid track record makes this a reliable choice for dog owners."
  },
  {
    "name": "Dog Park",
    "street": "",
    "city": "Greensboro",
    "state": "NC",
    "zip": "",
    "latitude": 36.0726355,
    "longitude": -79.7919754,
    "description": "In Greensboro, Dog Park carries 4.4 stars from 15 dog owner reviews. Dog owners looking for a local destination will find this park accessible. For dog owners who like to explore, Brown Bark Park (0.0 miles) and Griffin Dog Park (0.0 miles) are both nearby parks to try with your dog."
  },
  {
    "name": "Three Meadows Park",
    "street": "Natchez Trce",
    "city": "Greensboro",
    "state": "NC",
    "zip": "27455",
    "latitude": 36.1273535,
    "longitude": -79.8151157,
    "description": "Dog owners in Greensboro have rated Three Meadows Park 4.2 stars across 11 reviews. Open from 7am to 8pm daily, local dog owners have time to explore with their furry companions. Dog owners in the neighborhood can also take their furry friends to City of Greensboro - Country, 1.2 miles away."
  },
  {
    "name": "Downtown Greensboro Animal",
    "street": "LeBauer Park208 N Davie St",
    "city": "Greensboro",
    "state": "NC",
    "zip": "27401",
    "latitude": 36.0745615,
    "longitude": -79.7879433,
    "description": "Dog owners in the Greensboro area will find Downtown Greensboro Animal—a local option for spending time with their pups. Local dog owners use this park as a spot to spend time with their furry companions. Dog owners in the neighborhood can also take their furry friends to LeBauer Park, 0.0 miles away."
  },
  {
    "name": "Pleasant Garden K-9 Dog Park",
    "street": "4920 Alliance Church RdPleasant Garden",
    "city": "Greensboro",
    "state": "NC",
    "zip": "27313",
    "latitude": 35.9755844,
    "longitude": -79.7534032,
    "description": "In Greensboro, dog owners can find Pleasant Garden K-9 Dog Park at 4920 Alliance Church Rd—a local park worth exploring with their furry companions. The park gives neighborhood dog owners a destination for outings with their four-legged friends. For dog owners considering a visit, the reviews offer firsthand accounts from other visitors."
  },
  {
    "name": "Griffin Dog Park",
    "street": "",
    "city": "Greensboro",
    "state": "NC",
    "zip": "",
    "latitude": 36.0726355,
    "longitude": -79.7919754,
    "description": "For dog owners in Greensboro, Griffin Dog Park provides a convenient spot to take their dogs. The park gives neighborhood dog owners a destination for outings with their four-legged friends. Dog owners might also enjoy Dog Park, another dog park just 0.0 miles away."
  },
  {
    "name": "Brown Bark Park",
    "street": "",
    "city": "Greensboro",
    "state": "NC",
    "zip": "",
    "latitude": 36.0726355,
    "longitude": -79.7919754,
    "description": "Brown Bark Park serves dog owners in the Greensboro neighborhood looking for a place to visit with their pups. This park provides dog owners in the community with a place to visit with their dogs. More dog parks in the area include Dog Park (0.0 miles) and Griffin Dog Park (0.0 miles)—great options for mixing up your pup's routine."
  },
  {
    "name": "Greenville Offleash Dog Park",
    "street": "200 N Ash St",
    "city": "Greenville",
    "state": "NC",
    "zip": "27858",
    "latitude": 35.612877,
    "longitude": -77.355173,
    "description": "Located at 200 N Ash St in Greenville, Greenville Offleash Dog Park earns strong marks from local dog owners—4.5 stars from 374 reviews. The park serves dog owners well, providing a destination the community values. Based on the reviews, dog owners can expect a reliable spot for spending time with their pup."
  },
  {
    "name": "Archdale Recreation Center at",
    "street": "214 Park DrArchdale",
    "city": "High Point",
    "state": "NC",
    "zip": "27263",
    "latitude": 35.8937776,
    "longitude": -79.9351922,
    "description": "With 4.8 stars across 1,721 reviews, Archdale Recreation Center at at 214 Park Dr has clearly won over High Point dog owners. Dog owners have embraced this park as a top choice for spending time with their pups. Other popular dog parks nearby include Barkdale Dog Park (0.1 miles) and Allen Jay Park (3.1 miles)—both favorites among local pup parents."
  },
  {
    "name": "Rich Fork Preserve",
    "street": "407 W Parris Ave",
    "city": "High Point",
    "state": "NC",
    "zip": "27262",
    "latitude": 35.9856558,
    "longitude": -80.036265,
    "description": "Rich Fork Preserve at 407 W Parris Ave is well-regarded by High Point dog owners, holding 4.8 stars across 105 reviews. The steady stream of dog owner visits speaks to the park's appeal. More dog-friendly parks nearby include High Point Athletic Complex (1.2 miles) and Council St. Park (1.8 miles)—perfect for pups who love adventure."
  },
  {
    "name": "University Park",
    "street": "1800 Deep River Rd",
    "city": "High Point",
    "state": "NC",
    "zip": "27265",
    "latitude": 35.995859,
    "longitude": -79.975028,
    "description": "Located at 1800 Deep River Rd in High Point, University Park earns strong marks from local dog owners—4.8 stars from 88 reviews. Open from 7am to 8:30pm daily, dog owners can easily fit a visit into busy schedules. Other dog parks in the area include High Point City Lake (1.1 miles) and High Point Greenway (1.2 miles)—both great for exploring with your four-legged friend."
  },
  {
    "name": "‍ High Point Greenway",
    "street": "1209 Penny Rd",
    "city": "High Point",
    "state": "NC",
    "zip": "27265",
    "latitude": 36.000398,
    "longitude": -79.955116,
    "description": "High Point Greenway (4.9 stars from 16 reviews) is a popular destination for High Point dog owners, located at 1209 Penny Rd. Local dog owners appreciate what this park offers their four-legged friends. More dog-friendly parks nearby include High Point City Lake (0.2 miles) and High Point City Lake Park (0.6 miles)—perfect for pups who love adventure."
  },
  {
    "name": "‍ High Point City Lake",
    "street": "1102 Penny Rd",
    "city": "High Point",
    "state": "NC",
    "zip": "27265",
    "latitude": 35.998148,
    "longitude": -79.955146,
    "description": "For dog owners in the High Point area, High Point City Lake (1102 Penny Rd) offers a 4.6-star experience based on 48 reviews. Dog owners in the area consistently choose this park as a go-to destination for their pups. For a change of scenery, High Point Greenway is another dog-friendly destination 0.2 miles from here."
  },
  {
    "name": "High Point City Lake Park",
    "street": "602 W Main St",
    "city": "High Point",
    "state": "NC",
    "zip": "27282",
    "latitude": 35.993023,
    "longitude": -79.94918,
    "description": "Dog owners in High Point have embraced High Point City Lake Park (602 W Main St) as a top destination—4.6 stars from 2,237 visits. Open from 8am to 5pm daily, there's always time for dog owners to bring their pup for some quality time. Looking to mix things up? High Point City Lake is a nearby dog park 0.5 miles away that's worth exploring with your pup."
  },
  {
    "name": "‍ Council St. Park",
    "street": "1013 Council St",
    "city": "High Point",
    "state": "NC",
    "zip": "27262",
    "latitude": 35.9630465,
    "longitude": -80.0194161,
    "description": "Dog owners in High Point have rated Council St. Park (1013 Council St) 4.4 stars across 8 reviews. Dog owners looking for a local destination will find this park accessible. More dog parks in the area include Five Points Park (0.9 miles) and Harvell Park (1.7 miles)—great options for mixing up your pup's routine."
  },
  {
    "name": "High Point Athletic Complex",
    "street": "2920 School Park Rd",
    "city": "High Point",
    "state": "NC",
    "zip": "27265",
    "latitude": 36.0024177,
    "longitude": -80.0288131,
    "description": "At 2920 School Park Rd in High Point, High Point Athletic Complex has built a loyal following—4.5 stars from 350 dog owner reviews. Open from 5am to 11pm daily, the park offers flexibility for dog owners with varying routines. Dog owners exploring the neighborhood can also bring their furry friends to Rich Fork Preserve (1.2 miles)."
  },
  {
    "name": "Harvell Park",
    "street": "1211 Lincoln Dr",
    "city": "High Point",
    "state": "NC",
    "zip": "27260",
    "latitude": 35.9386363,
    "longitude": -80.0173746,
    "description": "At 1211 Lincoln Dr, Harvell Park has 4.4 stars based on 126 reviews from High Point dog owners. Open from 7am to 9pm daily, dog owners can stop by when it fits their schedule. More dog parks in the area include Five Points Park (1.4 miles) and Council St. Park (1.7 miles)—great options for mixing up your pup's routine."
  },
  {
    "name": "Allen Jay Park",
    "street": "1073 E Springfield Rd",
    "city": "High Point",
    "state": "NC",
    "zip": "27263",
    "latitude": 35.9327879,
    "longitude": -79.9637767,
    "description": "Allen Jay Park at 1073 E Springfield Rd in High Point has 4.4 stars from 271 dog owner reviews. This park provides dog owners in the community with a place to visit with their dogs. Nearby dog parks worth exploring with your pup include Brentwood Park (1.5 miles) and Five Points Park (2.8 miles)."
  },
  {
    "name": "Brentwood Park",
    "street": "1401 Brentwood St",
    "city": "High Point",
    "state": "NC",
    "zip": "27260",
    "latitude": 35.950733,
    "longitude": -79.979645,
    "description": "Dog owners in High Point have rated Brentwood Park (1401 Brentwood St) 4.2 stars across 75 reviews. Open from 7:30am to 9pm daily, the park gives dog owners in the neighborhood time to bring their pups. Dog owners looking for variety can also visit Five Points Park (1.5 miles) or Allen Jay Park (1.5 miles) with their four-legged friends."
  },
  {
    "name": "Myers Park",
    "street": "401 Mason WayThomasville",
    "city": "High Point",
    "state": "NC",
    "zip": "27360",
    "latitude": 35.882204,
    "longitude": -80.0603149,
    "description": "At 401 Mason Way, Myers Park has 4.2 stars based on 77 reviews from High Point dog owners. The park gives neighborhood dog owners a destination for outings with their four-legged friends. Dog owners might also enjoy Harvell Park, another dog park just 4.6 miles away."
  },
  {
    "name": "Cedrow Park",
    "street": "1712 Cedrow Dr",
    "city": "High Point",
    "state": "NC",
    "zip": "27260",
    "latitude": 35.9743695,
    "longitude": -79.9610978,
    "description": "For dog owners in High Point, Cedrow Park at 1712 Cedrow Dr has a 4.2-star rating (133 reviews). Open from 7am to 5pm daily, the park fits conveniently into different routines. For dog owners who like to explore, High Point City Lake Park (1.5 miles) and High Point City Lake (1.7 miles) are both nearby parks to try with your dog."
  },
  {
    "name": "Five Points Park",
    "street": "",
    "city": "High Point",
    "state": "NC",
    "zip": "",
    "latitude": 35.9556924,
    "longitude": -80.0053176,
    "description": "In High Point, dog owners can find Five Points Park—a local park worth exploring with their furry companions. Open from 7am to 9pm daily, dog owners have flexibility to plan a visit with their four-legged friends. Dog owners in the neighborhood can also take their furry friends to Council St. Park, 0.9 miles away."
  },
  {
    "name": "Rosedale Nature Park",
    "street": "9519 Rosewood Meadow Ln",
    "city": "Huntersville",
    "state": "NC",
    "zip": "28078",
    "latitude": 35.4091372,
    "longitude": -80.8638272,
    "description": "Dog owners in Huntersville have made Rosedale Nature Park at 9519 Rosewood Meadow Ln a go-to spot, rating it 4.8 stars across 104 reviews. For dog owners in the area, this park has become a trusted spot for time with their pups. Dog owners can also take their pups to nearby Rosedale Dog Park (0.0 miles) or Ramsey Creek Park (4.2 miles)."
  },
  {
    "name": "Fort Macon State Park",
    "street": "2303 E Fort Macon RdAtlantic Beach",
    "city": "Jacksonville",
    "state": "NC",
    "zip": "28512",
    "latitude": 34.6995901,
    "longitude": -76.719522,
    "description": "Dog owners have made Fort Macon State Park at 2303 E Fort Macon Rd one of Jacksonville's most popular destinations—4.8 stars from 6,309 visits. Open from 8am to 5:30pm daily, dog owners have maximum flexibility to plan their visit. With tens of thousands of dog owner visits, this park has proven itself time and again."
  },
  {
    "name": "Onslow County Parks: Onslow",
    "street": "1244 Onslow Pines Rd",
    "city": "Jacksonville",
    "state": "NC",
    "zip": "28540",
    "latitude": 34.727008,
    "longitude": -77.487328,
    "description": "1,034 dog owners have made Onslow County Parks: Onslow (1244 Onslow Pines Rd) one of Jacksonville's most trusted parks (4.7 stars). Open from 10am to 5pm daily, dog owners have room to work around busy schedules. For more dog park adventures, explore Georgetown Park (2.6 miles) or Riverwalk Park (3.5 miles) with your furry companion."
  },
  {
    "name": "Michael J. Stokes",
    "street": "",
    "city": "Jacksonville",
    "state": "NC",
    "zip": "",
    "latitude": 34.7494749,
    "longitude": -77.4208221,
    "description": "Dog owners in Jacksonville have rated Michael J. Stokes 4.4 stars across 14 reviews. Open from 6am to 9pm daily, the park is accessible for dog owners in the area. For dog owners who like to explore, Wilson Bay Park (0.4 miles) and Riverwalk Park (0.6 miles) are both nearby parks to try with your dog."
  },
  {
    "name": "‍ Riverwalk Park",
    "street": "421 Court St",
    "city": "Jacksonville",
    "state": "NC",
    "zip": "28540",
    "latitude": 34.7483594,
    "longitude": -77.4318953,
    "description": "With 4.6 stars from 352 reviews, Riverwalk Park at 421 Court St has become a favorite among Jacksonville dog owners. Open from 7am to 8:30pm daily, dog owners can easily fit a visit into busy schedules. For variety, the neighborhood offers more dog parks to explore: Wilson Bay Park (0.4 miles) and Michael J. Stokes (0.6 miles)."
  },
  {
    "name": "‍ Wilson Bay Park",
    "street": "5 W Bayshore Blvd",
    "city": "Jacksonville",
    "state": "NC",
    "zip": "28540",
    "latitude": 34.7455847,
    "longitude": -77.4254327,
    "description": "Wilson Bay Park at 5 W Bayshore Blvd is well-regarded by Jacksonville dog owners, holding 4.6 stars across 777 reviews. Open from 7am to 9pm daily, dog owners can easily fit a visit into busy schedules. Dog owners can also take their pups to nearby Michael J. Stokes (0.4 miles) or Riverwalk Park (0.4 miles)."
  },
  {
    "name": "Northeast Creek Park",
    "street": "910 Corbin St",
    "city": "Jacksonville",
    "state": "NC",
    "zip": "28546",
    "latitude": 34.7481816,
    "longitude": -77.3597471,
    "description": "Northeast Creek Park (4.6 stars from 955 reviews) is a popular destination for Jacksonville dog owners, located at 910 Corbin St. Open from 7am to 9pm daily, the park works well for dog owners with different schedules. For variety, the neighborhood offers more dog parks to explore: Midway Dog Park (2.5 miles) and Liberty Pointe Dog Park (3.1 miles)."
  },
  {
    "name": "Williamsburg Plantation Park",
    "street": "421 Williamsburg Pkwy",
    "city": "Jacksonville",
    "state": "NC",
    "zip": "28540",
    "latitude": 34.7932715,
    "longitude": -77.4419486,
    "description": "At 421 Williamsburg Pkwy, Williamsburg Plantation Park has 4.3 stars based on 26 reviews from Jacksonville dog owners. The neighborhood benefits from having this park as an option for dog owners and their pups. For dog owners who like to explore, Sherwood Forest Park (2.2 miles) and Riverwalk Park (3.2 miles) are both nearby parks to try with your dog."
  },
  {
    "name": "‍ Georgetown Park",
    "street": "260 Georgetown Rd",
    "city": "Jacksonville",
    "state": "NC",
    "zip": "28540",
    "latitude": 34.7466359,
    "longitude": -77.4475433,
    "description": "65 dog owners have reviewed Georgetown Park at 260 Georgetown Rd in Jacksonville, averaging 4.4 stars. Open from 7am to 9pm daily, the park gives dog owners in the neighborhood time to bring their pups. For pups who want more adventure, Riverwalk Park is a nearby dog park worth visiting (0.9 miles)."
  },
  {
    "name": "‍ Liberty Pointe Dog Park",
    "street": "Prince Edward DrMidway Park",
    "city": "Jacksonville",
    "state": "NC",
    "zip": "28544",
    "latitude": 34.7193648,
    "longitude": -77.3167863,
    "description": "Liberty Pointe Dog Park holds a 4.2-star rating from 35 Jacksonville dog owner visits. Dog owners in the area appreciate having a local spot to bring their pups. For pups who want more adventure, Midway Dog Park is a nearby dog park worth visiting (0.8 miles)."
  },
  {
    "name": "Sherwood Forest Park",
    "street": "212 A Nottingham Rd",
    "city": "Jacksonville",
    "state": "NC",
    "zip": "28546",
    "latitude": 34.7786313,
    "longitude": -77.4067654,
    "description": "Sherwood Forest Park at 212 A Nottingham Rd holds a 4.2-star rating from 100 Jacksonville dog owner visits. Open from 7am to 9pm daily, the park gives dog owners in the neighborhood time to bring their pups. Dog owners might also enjoy Michael J. Stokes, another dog park just 2.2 miles away."
  },
  {
    "name": "Berkeley Manor Woof Spot",
    "street": "",
    "city": "Jacksonville",
    "state": "NC",
    "zip": "",
    "latitude": 34.6397338,
    "longitude": -77.3418348,
    "description": "For dog owners in Jacksonville, Berkeley Manor Woof Spot provides a convenient spot to take their dogs. This park provides dog owners in the community with a place to visit with their dogs. Dog owners can find more details about this park in the reviews from other visitors."
  },
  {
    "name": "Midway Dog Park",
    "street": "Butler Dr N",
    "city": "Jacksonville",
    "state": "NC",
    "zip": "28544",
    "latitude": 34.7199501,
    "longitude": -77.3315419,
    "description": "Midway Dog Park serves dog owners in the Jacksonville neighborhood looking for a place to visit with their pups. For dog owners in the neighborhood, this park offers a place to take their pups. Dog owners in the neighborhood can also take their furry friends to Liberty Pointe Dog Park, 0.8 miles away."
  },
  {
    "name": "Cornelius Road Park",
    "street": "247 Cornelius Rd",
    "city": "Mooresville",
    "state": "NC",
    "zip": "28115",
    "latitude": 35.6143486,
    "longitude": -80.8451676,
    "description": "Cornelius Road Park at 247 Cornelius Rd is well-regarded by Mooresville dog owners, holding 4.7 stars across 696 reviews. Open from 7am to 10pm daily, dog owners have plenty of flexibility to plan a visit. Nearby, Academy Street Park (2.9 miles) offers dog owners another great spot to explore with their pups."
  },
  {
    "name": "Academy Street Park",
    "street": "601 S Academy St",
    "city": "Mooresville",
    "state": "NC",
    "zip": "28115",
    "latitude": 35.5757747,
    "longitude": -80.8239605,
    "description": "At 601 S Academy St in Mooresville, Academy Street Park has built a loyal following—4.5 stars from 172 dog owner reviews. Open from 7am to 8pm daily, the park accommodates early risers and evening visitors alike. Other dog parks in the area include Legacy Dog Park (2.5 miles) and Cornelius Road Park (2.9 miles)—both great for exploring with your four-legged friend."
  },
  {
    "name": "‍ Legacy Dog Park",
    "street": "122 Village Green Ln",
    "city": "Mooresville",
    "state": "NC",
    "zip": "28117",
    "latitude": 35.5465091,
    "longitude": -80.8510689,
    "description": "Located at 122 Village Green Ln, Legacy Dog Park offers Mooresville dog owners a neighborhood destination for their four-legged friends. The neighborhood benefits from having this park as an option for dog owners and their pups. Dog owners might also enjoy Academy Street Park, another dog park just 2.5 miles away."
  },
  {
    "name": "Downtown Cary Park",
    "street": "327 S Academy St",
    "city": "Raleigh",
    "state": "NC",
    "zip": "27511",
    "latitude": 35.7843779,
    "longitude": -78.7811346,
    "description": "Downtown Cary Park at 327 S Academy St is a favorite among Raleigh dog owners, earning 4.8 stars from 2,764 reviews. Open from 7am to 11pm daily, dog owners can plan visits around their pup's favorite times to be active. Keep the adventure going at other nearby dog parks like Barkyard (0.0 miles) or Robert V Godbold Park (1.3 miles)."
  },
  {
    "name": "Lake Lynn Park",
    "street": "Lynn Rd",
    "city": "Raleigh",
    "state": "NC",
    "zip": "27613",
    "latitude": 35.8733259,
    "longitude": -78.7140525,
    "description": "Lake Lynn Park is well-regarded by Raleigh dog owners, holding 4.8 stars across 738 reviews. Dog owners looking for a solid destination will find this park delivers. For variety, the neighborhood offers more dog parks to explore: Leesville Community Park (0.8 miles) and Brookhaven Nature Park (2.2 miles)."
  },
  {
    "name": "Sasquatch House",
    "street": "3320 Edgemont Dr",
    "city": "Raleigh",
    "state": "NC",
    "zip": "27612",
    "latitude": 35.8273731,
    "longitude": -78.6972394,
    "description": "Located at 3320 Edgemont Dr in Raleigh, Sasquatch House earns strong marks from local dog owners—4.9 stars from 14 reviews. The park serves dog owners well, providing a destination the community values. Dog owners exploring the neighborhood can also bring their furry friends to Brookhaven Nature Park (1.7 miles)."
  },
  {
    "name": "‍ Pullen Park",
    "street": "520 Ashe Ave",
    "city": "Raleigh",
    "state": "NC",
    "zip": "27606",
    "latitude": 35.7790861,
    "longitude": -78.6623523,
    "description": "At 520 Ashe Ave in Raleigh, Pullen Park draws dog owners from across the area—4.7 stars from 8,713 reviews. Open from 7am to 9pm daily, dog owners can find the perfect time for their furry friend. The neighborhood offers dog owners more places to bring their pups: Dog Park (0.6 miles) and Dorothea Dix Park (0.6 miles)."
  },
  {
    "name": "‍ Lake Johnson Park",
    "street": "4601 Avent Ferry Rd",
    "city": "Raleigh",
    "state": "NC",
    "zip": "27606",
    "latitude": 35.76371,
    "longitude": -78.714048,
    "description": "Dog owners in Raleigh have embraced Lake Johnson Park (4601 Avent Ferry Rd) as a top destination—4.7 stars from 4,554 visits. Open from 7am to 9pm daily, the park is convenient for before work, after work, or weekend adventures. For more dog park adventures, explore Kaplan Drive Park (0.8 miles) or Carolina Pines Dog Park (2.6 miles) with your furry companion."
  },
  {
    "name": "‍ Lake Benson Park",
    "street": "921 Buffaloe Rd",
    "city": "Raleigh",
    "state": "NC",
    "zip": "27529",
    "latitude": 35.6745612,
    "longitude": -78.6291703,
    "description": "Lake Benson Park at 921 Buffaloe Rd in Raleigh is a community favorite, with 1,638 dog owners giving it 4.7 stars. The community of dog owners here is welcoming and the atmosphere consistently positive. Want to give your pup even more adventure? Lake Benson Dog Park is another beloved dog park just 0.7 miles away."
  },
  {
    "name": "Shelley Lake Park",
    "street": "1400 W Millbrook Rd",
    "city": "Raleigh",
    "state": "NC",
    "zip": "27612",
    "latitude": 35.85778,
    "longitude": -78.666341,
    "description": "Shelley Lake Park at 1400 W Millbrook Rd is a favorite among Raleigh dog owners, earning 4.7 stars from 1,547 reviews. Open from 7am to 8pm daily, dog owners can easily fit a visit into their day, whether morning or evening. For more dog park adventures, explore Brookhaven Nature Park (1.2 miles) or Sasquatch House (2.7 miles) with your furry companion."
  },
  {
    "name": "Dorothea Dix Park",
    "street": "1030 Richardson Dr",
    "city": "Raleigh",
    "state": "NC",
    "zip": "27603",
    "latitude": 35.7721679,
    "longitude": -78.6564457,
    "description": "Dog owners in Raleigh have embraced Dorothea Dix Park (1030 Richardson Dr) as a top destination—4.7 stars from 1,306 visits. The strong community of dog owners here reflects how much the park is valued. For variety, many dog owners also bring their furry friends to Dog Park (0.3 miles)—another great dog park in the area."
  },
  {
    "name": "‍ Durant Nature Preserve",
    "street": "8305 Camp Durant Rd",
    "city": "Raleigh",
    "state": "NC",
    "zip": "27614",
    "latitude": 35.8946534,
    "longitude": -78.5785327,
    "description": "With 4.7 stars across 1,197 reviews, Durant Nature Preserve at 8305 Camp Durant Rd has clearly won over Raleigh dog owners. Open from 7am to 8:30pm daily, dog owners can easily fit a visit into their day, whether morning or evening. For variety, many dog owners also bring their furry friends to Oakboro Park (1.3 miles)—another great dog park in the area."
  },
  {
    "name": "Fred Fletcher Park",
    "street": "820 Clay St",
    "city": "Raleigh",
    "state": "NC",
    "zip": "27605",
    "latitude": 35.7917077,
    "longitude": -78.6503623,
    "description": "With 4.7 stars from 733 reviews, Fred Fletcher Park at 820 Clay St has become a favorite among Raleigh dog owners. Open from 6am to 11pm daily, the park offers flexibility for dog owners with varying routines. Dog owners exploring the neighborhood can also bring their furry friends to Jaycee Park (1.0 miles)."
  },
  {
    "name": "Apex Nature Park",
    "street": "2600 Evans Rd",
    "city": "Raleigh",
    "state": "NC",
    "zip": "27502",
    "latitude": 35.713175,
    "longitude": -78.905777,
    "description": "Raleigh dog owners rate Apex Nature Park at 2600 Evans Rd highly, with 4.7 stars from 714 visits. Open from 6:30am to 10pm daily, dog owners can easily fit a visit into busy schedules. Nearby, Hunter Street Park (4.0 miles) offers dog owners another great spot to explore with their pups."
  },
  {
    "name": "‍ Southern Community Dog Park",
    "street": "1000 Dogwood Acres Dr",
    "city": "Raleigh",
    "state": "NC",
    "zip": "27516",
    "latitude": 35.8736798,
    "longitude": -79.068476,
    "description": "Southern Community Dog Park (4.7 stars from 211 reviews) is a popular destination for Raleigh dog owners, located at 1000 Dogwood Acres Dr. Dog owners frequent this park for its consistent quality and welcoming atmosphere. For variety, the neighborhood offers more dog parks to explore: Southern Community Park (0.4 miles) and Merritt's Pasture (1.4 miles)."
  },
  {
    "name": "Lake Benson Dog Park",
    "street": "961 Buffaloe Rd",
    "city": "Raleigh",
    "state": "NC",
    "zip": "27529",
    "latitude": 35.678721,
    "longitude": -78.6399263,
    "description": "With 4.7 stars from 110 reviews, Lake Benson Dog Park at 961 Buffaloe Rd has become a favorite among Raleigh dog owners. The park has earned its reputation among dog owners in the neighborhood as a reliable choice. Other dog parks in the area include Lake Benson Park (0.7 miles) and North Garner Dog Park (2.8 miles)—both great for exploring with your four-legged friend."
  },
  {
    "name": "Wendell Paws Dog Park",
    "street": "1441 Big Falls DrWendell",
    "city": "Raleigh",
    "state": "NC",
    "zip": "27591",
    "latitude": 35.7619345,
    "longitude": -78.4256871,
    "description": "For dog owners in the Raleigh area, Wendell Paws Dog Park (1441 Big Falls Dr) offers a 4.6-star experience based on 8 reviews. Local dog owners appreciate what this park offers their four-legged friends. For a change of scenery, Ashley Wilder Dog Park is another dog-friendly destination 3.6 miles from here."
  },
  {
    "name": "Barkyard Dog Park",
    "street": "700 Park Offices DrResearch Triangle Park",
    "city": "Raleigh",
    "state": "NC",
    "zip": "27709",
    "latitude": 35.8978342,
    "longitude": -78.8717791,
    "description": "Dog owners in Raleigh have made Barkyard Dog Park at 700 Park Offices Dr a go-to spot, rating it 4.6 stars across 28 reviews. Open from 7am to 8pm daily, the park offers flexibility for dog owners with varying routines. For a change of scenery, Meridian Park is another dog-friendly destination 1.8 miles from here."
  },
  {
    "name": "Barkyard",
    "street": "310 S Academy St",
    "city": "Raleigh",
    "state": "NC",
    "zip": "27511",
    "latitude": 35.783997,
    "longitude": -78.781339,
    "description": "Barkyard (4.6 stars from 31 reviews) is a popular destination for Raleigh dog owners, located at 310 S Academy St. Open from 7am to 11pm daily, the park offers flexibility for dog owners with varying routines. For variety, the neighborhood offers more dog parks to explore: Downtown Cary Park (0.0 miles) and Robert V Godbold Park (1.3 miles)."
  },
  {
    "name": "Best Friend's Dog Park",
    "street": "480 N Lee St",
    "city": "Rocky Mount",
    "state": "NC",
    "zip": "27804",
    "latitude": 35.9508387,
    "longitude": -77.8120686,
    "description": "At 480 N Lee St in Rocky Mount, Best Friend's Dog Park has built a loyal following—4.8 stars from 298 dog owner reviews. Open from 6am to 8pm daily, the park accommodates early risers and evening visitors alike. The consistent ratings suggest dog owners know what to expect here."
  },
  {
    "name": "The Belville Riverwalk Park",
    "street": "580 River Rd SEBelville",
    "city": "Wilmington",
    "state": "NC",
    "zip": "28451",
    "latitude": 34.2300446,
    "longitude": -77.9910639,
    "description": "At 580 River Rd SE in Wilmington, The Belville Riverwalk Park has built a loyal following—4.8 stars from 718 dog owner reviews. Dog owners frequent this park for its consistent quality and welcoming atmosphere. Nearby, Marstella Park (2.7 miles) offers dog owners another great spot to explore with their pups."
  },
  {
    "name": "Long Leaf Dog Park",
    "street": "1701 College Rd",
    "city": "Wilmington",
    "state": "NC",
    "zip": "28403",
    "latitude": 34.2065007,
    "longitude": -77.8874942,
    "description": "For dog owners in the Wilmington area, Long Leaf Dog Park (1701 College Rd) offers a 4.8-star experience based on 33 reviews. Open from 8am to 10pm daily, dog owners can easily fit a visit into busy schedules. Dog owners exploring the neighborhood can also bring their furry friends to Long Leaf Park (0.5 miles)."
  },
  {
    "name": "Long Leaf Park",
    "street": "314 Pine Grove Dr",
    "city": "Wilmington",
    "state": "NC",
    "zip": "28409",
    "latitude": 34.2085203,
    "longitude": -77.879822,
    "description": "Local dog owners love Long Leaf Park at 314 Pine Grove Dr in Wilmington—4.7 stars from an impressive 3,227 reviews. Open from 8am to 10pm daily, it's easy for dog owners to stop by whenever works best. Keep the adventure going at other nearby dog parks like Long Leaf Dog Park (0.5 miles) or Empie Park (1.6 miles)."
  },
  {
    "name": "Halyburton Park",
    "street": "4099 S 17th St",
    "city": "Wilmington",
    "state": "NC",
    "zip": "28412",
    "latitude": 34.1756127,
    "longitude": -77.9068176,
    "description": "Dog owners in Wilmington have made Halyburton Park at 4099 S 17th St a go-to spot, rating it 4.7 stars across 932 reviews. Open from 9am to 5pm daily, dog owners can easily fit a visit into busy schedules. Nearby, Long Leaf Dog Park (2.4 miles) offers dog owners another great spot to explore with their pups."
  },
  {
    "name": "Empie Park",
    "street": "3405 Park Ave",
    "city": "Wilmington",
    "state": "NC",
    "zip": "28403",
    "latitude": 34.2198599,
    "longitude": -77.9044445,
    "description": "Wilmington dog owners rate Empie Park at 3405 Park Ave highly, with 4.6 stars from 715 visits. Open from 6am to 11pm daily, dog owners can plan visits around work or their pup's energy level. Other dog parks in the area include Anne McCrary Park (1.2 miles) and Long Leaf Dog Park (1.3 miles)—both great for exploring with your four-legged friend."
  },
  {
    "name": "Bicentennial Park",
    "street": "206 N 5th Ave",
    "city": "Wilmington",
    "state": "NC",
    "zip": "28401",
    "latitude": 34.2386269,
    "longitude": -77.9437266,
    "description": "Dog owners in Wilmington have made Bicentennial Park at 206 N 5th Ave a go-to spot, rating it 4.5 stars across 32 reviews. Open from 6am to 9pm daily, dog owners can plan visits around work or their pup's energy level. More dog-friendly parks nearby include Tower Park (1.0 miles) and Marstella Park (1.3 miles)—perfect for pups who love adventure."
  },
  {
    "name": "Tower Park",
    "street": "910 Wooster St",
    "city": "Wilmington",
    "state": "NC",
    "zip": "28401",
    "latitude": 34.2260535,
    "longitude": -77.9365976,
    "description": "Tower Park at 910 Wooster St in Wilmington has 4.4 stars from 22 dog owner reviews. This park provides dog owners in the community with a place to visit with their dogs. For dog owners who like to explore, Marstella Park (0.6 miles) and Bicentennial Park (1.0 miles) are both nearby parks to try with your dog."
  },
  {
    "name": "Marstella Park",
    "street": "202 Marstellar St",
    "city": "Wilmington",
    "state": "NC",
    "zip": "28401",
    "latitude": 34.2202304,
    "longitude": -77.9454071,
    "description": "Located at 202 Marstellar St, Marstella Park in Wilmington is rated 4.1 stars by 8 dog owners. Dog owners looking for a local destination will find this park accessible. Dog owners might also enjoy Tower Park, another dog park just 0.6 miles away."
  },
  {
    "name": "Cameron Park",
    "street": "245 Southern Blvd",
    "city": "Wilmington",
    "state": "NC",
    "zip": "28401",
    "latitude": 34.1996039,
    "longitude": -77.9426691,
    "description": "At 245 Southern Blvd in Wilmington, Cameron Park carries 4.4 stars from 48 dog owner reviews. Open from 8am to 8pm daily, dog owners in the area can work a visit into their day. Looking to explore more? Marstella Park is another dog-friendly park 1.4 miles from here."
  },
  {
    "name": "Anne McCrary Park",
    "street": "4000 Randall Pkwy",
    "city": "Wilmington",
    "state": "NC",
    "zip": "28403",
    "latitude": 34.2315939,
    "longitude": -77.8897915,
    "description": "171 dog owners have reviewed Anne McCrary Park at 4000 Randall Pkwy in Wilmington, averaging 4.4 stars. This park provides dog owners in the community with a place to visit with their dogs. Dog owners looking for variety can also visit Empie Park (1.2 miles) or Long Leaf Park (1.7 miles) with their four-legged friends."
  },
  {
    "name": "Tucker's Tap Yard",
    "street": "1010 N Liberty St",
    "city": "Winston-Salem",
    "state": "NC",
    "zip": "27101",
    "latitude": 36.1078502,
    "longitude": -80.237949,
    "description": "With 4.9 stars from 157 reviews, Tucker's Tap Yard at 1010 N Liberty St has become a favorite among Winston-Salem dog owners. Dog owners frequent this park for its consistent quality and welcoming atmosphere. Nearby, Bailey Park (0.6 miles) offers dog owners another great spot to explore with their pups."
  },
  {
    "name": "Tanglewood Park",
    "street": "4061 Clemmons Rd",
    "city": "Winston-Salem",
    "state": "NC",
    "zip": "27012",
    "latitude": 36.019344,
    "longitude": -80.4031367,
    "description": "Dog owners in Winston-Salem have embraced Tanglewood Park (4061 Clemmons Rd) as a top destination—4.7 stars from 4,079 visits. Open from 7am to 6pm daily, dog owners have room to work around busy schedules. Thousands of dog owners have found this to be a reliable destination for their pups."
  },
  {
    "name": "Bailey Park",
    "street": "445 Patterson Ave",
    "city": "Winston-Salem",
    "state": "NC",
    "zip": "27101",
    "latitude": 36.0995676,
    "longitude": -80.2409377,
    "description": "At 445 Patterson Ave in Winston-Salem, Bailey Park stands out with 4.7 stars from 1,170 happy dog owners. Open from 7am to 8pm daily, dog owners can plan visits around their pup's favorite times to be active. Nearby, Winston Square Park (0.4 miles) is another dog park favorite where you can take your four-legged friend."
  },
  {
    "name": "Jamison Park",
    "street": "285 Meadowlark Dr",
    "city": "Winston-Salem",
    "state": "NC",
    "zip": "27106",
    "latitude": 36.1008917,
    "longitude": -80.3658155,
    "description": "Winston-Salem dog owners rate Jamison Park at 285 Meadowlark Dr highly, with 4.6 stars from 183 visits. Open from 6am to 10:30pm daily, dog owners can plan visits around work or their pup's energy level. Looking for more places to take your pup? Hanestown Park is another popular dog park just 3.9 miles away."
  },
  {
    "name": "Fourth of July Park",
    "street": "702 W Mountain St",
    "city": "Winston-Salem",
    "state": "NC",
    "zip": "27284",
    "latitude": 36.1268219,
    "longitude": -80.0837462,
    "description": "1,319 dog owners have made Fourth of July Park (702 W Mountain St) one of Winston-Salem's most trusted parks (4.6 stars). Open from 7am to 9pm daily, the park is convenient for before work, after work, or weekend adventures. With this many positive experiences, dog owners can visit with confidence."
  },
  {
    "name": "Winston Square Park",
    "street": "310 Marshall St N",
    "city": "Winston-Salem",
    "state": "NC",
    "zip": "27101",
    "latitude": 36.0970578,
    "longitude": -80.2478263,
    "description": "Dog owners in Winston-Salem have made Winston Square Park at 310 Marshall St N a go-to spot, rating it 4.5 stars across 344 reviews. Open from 6am to 10:30pm daily, the park offers flexibility for dog owners with varying routines. Dog owners exploring the neighborhood can also bring their furry friends to Bailey Park (0.4 miles)."
  },
  {
    "name": "Washington Park",
    "street": "1490 S Broad St",
    "city": "Winston-Salem",
    "state": "NC",
    "zip": "27127",
    "latitude": 36.0777806,
    "longitude": -80.2439249,
    "description": "Winston-Salem dog owners rate Washington Park at 1490 S Broad St highly, with 4.5 stars from 922 visits. Open from 6am to 10:30pm daily, the park offers flexibility for dog owners with varying routines. Nearby, Dog Park (0.6 miles) offers dog owners another great spot to explore with their pups."
  },
  {
    "name": "Griffith Park",
    "street": "1471 W Clemmonsville Rd",
    "city": "Winston-Salem",
    "state": "NC",
    "zip": "27127",
    "latitude": 36.0391352,
    "longitude": -80.2672842,
    "description": "At 1471 W Clemmonsville Rd in Winston-Salem, Griffith Park carries 4.3 stars from 31 dog owner reviews. Open from 6am to 10:30pm daily, local dog owners have time to explore with their furry companions. For dog owners who like to explore, Dog Park (2.7 miles) and Washington Park (3.0 miles) are both nearby parks to try with your dog."
  },
  {
    "name": "Hanestown Park",
    "street": "411 Olive St",
    "city": "Winston-Salem",
    "state": "NC",
    "zip": "27103",
    "latitude": 36.0833526,
    "longitude": -80.2998285,
    "description": "Located at 411 Olive St, Hanestown Park in Winston-Salem is rated 4.1 stars by 15 dog owners. Open from 6am to 10:30pm daily, the park fits conveniently into different routines. For dog owners who like to explore, Lockland Park (1.9 miles) and Dog Park (2.6 miles) are both nearby parks to try with your dog."
  },
  {
    "name": "Reynolds Park",
    "street": "2450 Reynolds Park Rd",
    "city": "Winston-Salem",
    "state": "NC",
    "zip": "27107",
    "latitude": 36.0870823,
    "longitude": -80.2047247,
    "description": "255 dog owners have reviewed Reynolds Park at 2450 Reynolds Park Rd in Winston-Salem, averaging 4.4 stars. Open from 6am to 10:30pm daily, dog owners can stop by when it fits their schedule. More dog parks in the area include Bailey Park (2.2 miles) and Washington Park (2.3 miles)—great options for mixing up your pup's routine."
  },
  {
    "name": "Lockland Park",
    "street": "401 Lockland Ave",
    "city": "Winston-Salem",
    "state": "NC",
    "zip": "27103",
    "latitude": 36.087561,
    "longitude": -80.265722,
    "description": "Located at 401 Lockland Ave, Lockland Park in Winston-Salem is rated 4.2 stars by 59 dog owners. Open from 6am to 10:30pm daily, dog owners have a window to spend time with their pups. For pups who want more adventure, Dog Park is a nearby dog park worth visiting (1.0 miles)."
  },
  {
    "name": "Crawford Park",
    "street": "4226 Oak Ridge Dr",
    "city": "Winston-Salem",
    "state": "NC",
    "zip": "27105",
    "latitude": 36.1450453,
    "longitude": -80.2022367,
    "description": "In Winston-Salem, dog owners can find Crawford Park at 4226 Oak Ridge Dr—a local park worth exploring with their furry companions. Open from 6am to 10:30pm daily, dog owners have flexibility to plan a visit with their four-legged friends. Dog owners in the neighborhood can also take their furry friends to Tucker's Tap Yard, 3.3 miles away."
  }
]