[
  {
    "name": "Timber Linn Memorial Park",
    "street": "900 Price Rd SE",
    "city": "Albany",
    "state": "OR",
    "zip": "97322",
    "latitude": 44.6334464,
    "longitude": -123.0571478,
    "description": "Albany dog owners rate Timber Linn Memorial Park at 900 Price Rd SE highly, with 4.5 stars from 908 visits. Open from 7am to 8pm daily, the park accommodates early risers and evening visitors alike. More dog-friendly parks nearby include Albany Dog Park (0.0 miles) and Lehigh Park (0.8 miles)—perfect for pups who love adventure."
  },
  {
    "name": "Grand Prairie Park",
    "street": "2530 Grand Prairie Rd SE",
    "city": "Albany",
    "state": "OR",
    "zip": "97322",
    "latitude": 44.6142672,
    "longitude": -123.0740361,
    "description": "For dog owners in the Albany area, Grand Prairie Park (2530 Grand Prairie Rd SE) offers a 4.5-star experience based on 501 reviews. Open from 6am to 10pm daily, dog owners have plenty of flexibility to plan a visit. Dog owners can also take their pups to nearby Lexington Park (0.5 miles) or Lehigh Park (0.8 miles)."
  },
  {
    "name": "Lexington Park",
    "street": "3000 21st Ave SE",
    "city": "Albany",
    "state": "OR",
    "zip": "97322",
    "latitude": 44.6203607,
    "longitude": -123.0679616,
    "description": "At 3000 21st Ave SE in Albany, Lexington Park has built a loyal following—4.5 stars from 259 dog owner reviews. Open from 6am to 10pm daily, dog owners have plenty of flexibility to plan a visit. Dog owners can also take their pups to nearby Lehigh Park (0.4 miles) or Grand Prairie Park (0.5 miles)."
  },
  {
    "name": "Henderson Park",
    "street": "833 Calapooia St SW",
    "city": "Albany",
    "state": "OR",
    "zip": "97321",
    "latitude": 44.6310415,
    "longitude": -123.1096359,
    "description": "Henderson Park (4.5 stars from 73 reviews) is a popular destination for Albany dog owners, located at 833 Calapooia St SW. Open from 7am to 9pm daily, dog owners have plenty of flexibility to plan a visit. Nearby, North Albany Park (0.4 miles) offers dog owners another great spot to explore with their pups."
  },
  {
    "name": "Teloh Calapooia Park",
    "street": "5950 Looney Ln SW",
    "city": "Albany",
    "state": "OR",
    "zip": "97321",
    "latitude": 44.5919928,
    "longitude": -123.1209575,
    "description": "Teloh Calapooia Park at 5950 Looney Ln SW is well-regarded by Albany dog owners, holding 4.5 stars across 59 reviews. Dog owners frequent this park for its consistent quality and welcoming atmosphere. Nearby, Deerfield Park (2.5 miles) offers dog owners another great spot to explore with their pups."
  },
  {
    "name": "North Albany Park",
    "street": "",
    "city": "Albany",
    "state": "OR",
    "zip": "",
    "latitude": 44.6365071,
    "longitude": -123.1059324,
    "description": "North Albany Park in Albany has 4.4 stars from 161 dog owner reviews. Dog owners in the area appreciate having a local spot to bring their pups. More dog parks in the area include Henderson Park (0.4 miles) and Eads Park (1.3 miles)—great options for mixing up your pup's routine."
  },
  {
    "name": "‍ Albany Dog Park",
    "street": "Price Rd SE",
    "city": "Albany",
    "state": "OR",
    "zip": "97322",
    "latitude": 44.6336941,
    "longitude": -123.0570539,
    "description": "Albany Dog Park in Albany has 4.4 stars based on 498 reviews from dog owners. Open from 5am to 11pm daily, dog owners can stop by when it fits their schedule. Looking to explore more? Timber Linn Memorial Park is another dog-friendly park 0.0 miles from here."
  },
  {
    "name": "Deerfield Park",
    "street": "2627 Del Rio Ave SE",
    "city": "Albany",
    "state": "OR",
    "zip": "97322",
    "latitude": 44.6010469,
    "longitude": -123.0726756,
    "description": "Deerfield Park at 2627 Del Rio Ave SE in Albany has 4.3 stars from 124 dog owner reviews. Open from 7am to 10pm daily, dog owners can stop by when it fits their schedule. More dog parks in the area include Grand Prairie Park (0.9 miles) and Lexington Park (1.4 miles)—great options for mixing up your pup's routine."
  },
  {
    "name": "Lehigh Park",
    "street": "3100 17th Ave SE",
    "city": "Albany",
    "state": "OR",
    "zip": "97322",
    "latitude": 44.6253607,
    "longitude": -123.0696626,
    "description": "Dog owners in Albany have rated Lehigh Park (3100 17th Ave SE) 4.1 stars across 27 reviews. Open from 5am to 11pm daily, the park fits conveniently into different routines. For pups who want more adventure, Lexington Park is a nearby dog park worth visiting (0.4 miles)."
  },
  {
    "name": "Eads Park",
    "street": "501 Alco St NE",
    "city": "Albany",
    "state": "OR",
    "zip": "97321",
    "latitude": 44.643116,
    "longitude": -123.081193,
    "description": "Eads Park at 501 Alco St NE provides Albany dog owners with a local spot to visit with their pups. Open from 8am to 8pm daily, the park is accessible for dog owners in the area. Dog owners looking for variety can also visit North Albany Park (1.3 miles) or Lehigh Park (1.4 miles) with their four-legged friends."
  },
  {
    "name": "Hazeldale Park",
    "street": "19330 SW Farmington Rd",
    "city": "Aloha",
    "state": "OR",
    "zip": "97007",
    "latitude": 45.471211,
    "longitude": -122.8758409,
    "description": "With 4.5 stars from 982 reviews, Hazeldale Park at 19330 SW Farmington Rd has become a favorite among Aloha dog owners. Open from 5am to 9pm daily, the park offers flexibility for dog owners with varying routines. For variety, the neighborhood offers more dog parks to explore: Reed’s Crossing Park (1.7 miles) and Paul and Verna Winkelman Park (1.8 miles)."
  },
  {
    "name": "Tualatin Hills Nature Park",
    "street": "15655 SW Millikan Way",
    "city": "Beaverton",
    "state": "OR",
    "zip": "97006",
    "latitude": 45.4997463,
    "longitude": -122.844888,
    "description": "For Beaverton dog owners, Tualatin Hills Nature Park at 15655 SW Millikan Way has become a reliable favorite—4.7 stars from 2,548 reviews. Open from 6:30am to 7:45pm daily, the park accommodates a variety of dog owner schedules and routines. For more dog park adventures, explore Wanda L. Peck Memorial Park (1.4 miles) or Evelyn M. Schiffler Memorial (2.1 miles) with your furry companion."
  },
  {
    "name": "‍ Foege Park",
    "street": "11320 NW Cornell Rd",
    "city": "Beaverton",
    "state": "OR",
    "zip": "97006",
    "latitude": 45.5263663,
    "longitude": -122.7932251,
    "description": "With 4.6 stars from 14 reviews, Foege Park at 11320 NW Cornell Rd has become a favorite among Beaverton dog owners. Open from 6am to 9:30pm daily, dog owners can plan visits around work or their pup's energy level. Dog owners exploring the neighborhood can also bring their furry friends to Wanda L. Peck Memorial Park (2.3 miles)."
  },
  {
    "name": "Wanda L. Peck Memorial Park",
    "street": "15707 Walker Rd",
    "city": "Beaverton",
    "state": "OR",
    "zip": "97006",
    "latitude": 45.5190904,
    "longitude": -122.8392567,
    "description": "With 4.6 stars from 54 reviews, Wanda L. Peck Memorial Park at 15707 Walker Rd has become a favorite among Beaverton dog owners. For dog owners in the area, this park has become a trusted spot for time with their pups. Dog owners can also take their pups to nearby Tualatin Hills Nature Park (1.4 miles) or Foege Park (2.3 miles)."
  },
  {
    "name": "‍ Evelyn M. Schiffler Memorial",
    "street": "5495 SW Erickson Ave",
    "city": "Beaverton",
    "state": "OR",
    "zip": "97005",
    "latitude": 45.4797996,
    "longitude": -122.8120457,
    "description": "Beaverton dog owners rate Evelyn M. Schiffler Memorial at 5495 SW Erickson Ave highly, with 4.6 stars from 501 visits. Open from 6:30am to 9pm daily, the park accommodates early risers and evening visitors alike. Dog owners exploring the neighborhood can also bring their furry friends to Meadow Waye Park (1.4 miles)."
  },
  {
    "name": "Meadow Waye Park",
    "street": "13275 SW Davies Rd",
    "city": "Beaverton",
    "state": "OR",
    "zip": "97008",
    "latitude": 45.4603148,
    "longitude": -122.8143436,
    "description": "Dog owners in Beaverton have made Meadow Waye Park at 13275 SW Davies Rd a go-to spot, rating it 4.5 stars across 39 reviews. Open from 6am to 6pm daily, the park offers flexibility for dog owners with varying routines. Other dog parks in the area include Steeplechase Park (1.0 miles) and Evelyn M. Schiffler Memorial (1.4 miles)—both great for exploring with your four-legged friend."
  },
  {
    "name": "Paul and Verna Winkelman Park",
    "street": "9955 SW 175th Ave",
    "city": "Beaverton",
    "state": "OR",
    "zip": "97007",
    "latitude": 45.4481133,
    "longitude": -122.8580352,
    "description": "Located at 9955 SW 175th Ave, Paul and Verna Winkelman Park in Beaverton is rated 4.4 stars by 19 dog owners. The park serves as a gathering spot for dog owners and their four-legged friends in the area. For pups who want more adventure, Steeplechase Park is a nearby dog park worth visiting (1.6 miles)."
  },
  {
    "name": "Steeplechase Park",
    "street": "14300 SW Weir Rd",
    "city": "Beaverton",
    "state": "OR",
    "zip": "97008",
    "latitude": 45.4476804,
    "longitude": -122.8247984,
    "description": "13 dog owners have reviewed Steeplechase Park at 14300 SW Weir Rd in Beaverton, averaging 4.3 stars. Open from 6am to 8:45pm daily, local dog owners have time to explore with their furry companions. Dog owners in the neighborhood can also take their furry friends to Meadow Waye Park, 1.0 miles away."
  },
  {
    "name": "‍ McMillan Park",
    "street": "4900 SW Chestnut Pl",
    "city": "Beaverton",
    "state": "OR",
    "zip": "97005",
    "latitude": 45.4849131,
    "longitude": -122.7784637,
    "description": "McMillan Park at 4900 SW Chestnut Pl is well-regarded by Beaverton dog owners, holding 4.5 stars across 67 reviews. Open from 6:30am to 8pm daily, there's room in the day for dog owners to bring their furry friends. Dog owners can also take their pups to nearby Evelyn M. Schiffler Memorial (1.7 miles) or Meadow Waye Park (2.4 miles)."
  },
  {
    "name": "Deschutes River Trail",
    "street": "Deschutes River Trail",
    "city": "Bend",
    "state": "OR",
    "zip": "97702",
    "latitude": 44.0332062,
    "longitude": -121.3303655,
    "description": "For dog owners in the Bend area, Deschutes River Trail offers a 4.9-star experience based on 365 reviews. Open from 5am to 10pm daily, the park works well for dog owners with different schedules. Looking for more places to take your pup? Farewell Bend Park is another popular dog park just 0.4 miles away."
  },
  {
    "name": "Shevlin Park",
    "street": "18920 NW Shevlin Park Rd",
    "city": "Bend",
    "state": "OR",
    "zip": "97701",
    "latitude": 44.0623232,
    "longitude": -121.3386895,
    "description": "For dog owners in the Bend area, Shevlin Park (18920 NW Shevlin Park Rd) offers a 4.8-star experience based on 839 reviews. Open from 5am to 10pm daily, the park offers flexibility for dog owners with varying routines. For a change of scenery, Sunset View Park is another dog-friendly destination 0.2 miles from here."
  },
  {
    "name": "Pine Nursery Dog Park",
    "street": "21210 Yeoman Rd",
    "city": "Bend",
    "state": "OR",
    "zip": "97701",
    "latitude": 44.094727,
    "longitude": -121.2715295,
    "description": "Dog owners in Bend have made Pine Nursery Dog Park at 21210 Yeoman Rd a go-to spot, rating it 4.8 stars across 492 reviews. Open from 5am to 10pm daily, dog owners can easily fit a visit into busy schedules. Looking for more places to take your pup? Pine Nursery Park is another popular dog park just 0.2 miles away."
  },
  {
    "name": "Mt. Bachelor Dog Park",
    "street": "13000 SW Century Dr",
    "city": "Bend",
    "state": "OR",
    "zip": "97702",
    "latitude": 44.0474832,
    "longitude": -121.3317094,
    "description": "Bend dog owners rate Mt. Bachelor Dog Park at 13000 SW Century Dr highly, with 4.9 stars from 26 visits. The park has earned its reputation among dog owners in the neighborhood as a reliable choice. Dog owners exploring the neighborhood can also bring their furry friends to Riverbend Park (0.4 miles)."
  },
  {
    "name": "Riley Ranch Nature Reserve",
    "street": "19975 Glen Vista Rd",
    "city": "Bend",
    "state": "OR",
    "zip": "97701",
    "latitude": 44.0994679,
    "longitude": -121.3255781,
    "description": "With 4.8 stars from 184 reviews, Riley Ranch Nature Reserve at 19975 Glen Vista Rd has become a favorite among Bend dog owners. Open from 7am to 7pm daily, the park accommodates early risers and evening visitors alike. For a change of scenery, Harvest Park is another dog-friendly destination 0.8 miles from here."
  },
  {
    "name": "Cinder Cone Natural Area",
    "street": "19428 Goldenwood Ct",
    "city": "Bend",
    "state": "OR",
    "zip": "97702",
    "latitude": 44.008882,
    "longitude": -121.3547685,
    "description": "For dog owners in the Bend area, Cinder Cone Natural Area (19428 Goldenwood Ct) offers a 4.8-star experience based on 14 reviews. Open from 5am to 10pm daily, there's room in the day for dog owners to bring their furry friends. For variety, the neighborhood offers more dog parks to explore: River Canyon Park (0.6 miles) and Hollygrape Park (1.1 miles)."
  },
  {
    "name": "Drake Park",
    "street": "777 NW Riverside Blvd",
    "city": "Bend",
    "state": "OR",
    "zip": "97701",
    "latitude": 44.0587629,
    "longitude": -121.3210891,
    "description": "2,938 dog owners have made Drake Park (777 NW Riverside Blvd) one of Bend's most trusted parks (4.7 stars). Open from 5am to 10pm daily, the park is convenient for before work, after work, or weekend adventures. Nearby, Harmon Park (0.1 miles) is another dog park favorite where you can take your four-legged friend."
  },
  {
    "name": "‍ Riverbend Park",
    "street": "799 SW Columbia St",
    "city": "Bend",
    "state": "OR",
    "zip": "97702",
    "latitude": 44.0437731,
    "longitude": -121.3252902,
    "description": "1,370 dog owners have made Riverbend Park (799 SW Columbia St) one of Bend's most trusted parks (4.7 stars). Open from 5am to 10pm daily, there's always time for dog owners to bring their pup for some quality time. Dog owners in the area also love bringing their pups to Mt. Bachelor Dog Park (0.4 miles) and Bend Whitewater Park (0.5 miles)."
  },
  {
    "name": "Pilot Butte Neighborhood Park",
    "street": "1310 NE Hwy 20",
    "city": "Bend",
    "state": "OR",
    "zip": "97701",
    "latitude": 44.0550835,
    "longitude": -121.2746282,
    "description": "At 1310 NE Hwy 20 in Bend, Pilot Butte Neighborhood Park has built a loyal following—4.7 stars from 928 dog owner reviews. Open from 5am to 10pm daily, the park works well for dog owners with different schedules. Other dog parks in the area include Ponderosa Park (0.7 miles) and Providence Park (0.9 miles)—both great for exploring with your four-legged friend."
  },
  {
    "name": "Sawyer Park",
    "street": "62999 O. B. Riley Rd",
    "city": "Bend",
    "state": "OR",
    "zip": "97701",
    "latitude": 44.088403,
    "longitude": -121.308825,
    "description": "Bend dog owners rate Sawyer Park at 62999 O. B. Riley Rd highly, with 4.7 stars from 740 visits. Open from 5am to 10pm daily, the park works well for dog owners with different schedules. Looking for more places to take your pup? Harvest Park is another popular dog park just 0.6 miles away."
  },
  {
    "name": "Farewell Bend Park",
    "street": "1000 SW Reed Market Rd",
    "city": "Bend",
    "state": "OR",
    "zip": "97702",
    "latitude": 44.0380932,
    "longitude": -121.3348273,
    "description": "Dog owners in Bend have made Farewell Bend Park at 1000 SW Reed Market Rd a go-to spot, rating it 4.7 stars across 659 reviews. Open from 5am to 10pm daily, there's plenty of opportunity for dog owners to find a time that works. Other dog parks in the area include Wanoga Snow Play Area (0.1 miles) and Deschutes River Trail (0.4 miles)—both great for exploring with your four-legged friend."
  },
  {
    "name": "Pioneer Park",
    "street": "1525 NW Wall St",
    "city": "Bend",
    "state": "OR",
    "zip": "97701",
    "latitude": 44.0658847,
    "longitude": -121.3088638,
    "description": "For dog owners in the Bend area, Pioneer Park (1525 NW Wall St) offers a 4.7-star experience based on 612 reviews. Open from 5am to 10pm daily, the park accommodates early risers and evening visitors alike. Dog owners can also take their pups to nearby Pacific Park (0.2 miles) or Brooks Park (0.5 miles)."
  },
  {
    "name": "Pine Nursery Park",
    "street": "3750 NE Purcell Blvd",
    "city": "Bend",
    "state": "OR",
    "zip": "97701",
    "latitude": 44.0922408,
    "longitude": -121.2737507,
    "description": "At 3750 NE Purcell Blvd in Bend, Pine Nursery Park has built a loyal following—4.7 stars from 607 dog owner reviews. Open from 5am to 10pm daily, there's plenty of opportunity for dog owners to find a time that works. Dog owners can also take their pups to nearby Pine Nursery Dog Park (0.2 miles) or Stover Park (1.4 miles)."
  },
  {
    "name": "Bend Whitewater Park",
    "street": "166 SW Shevlin Hixon Dr",
    "city": "Bend",
    "state": "OR",
    "zip": "97702",
    "latitude": 44.0505544,
    "longitude": -121.322572,
    "description": "Bend dog owners rate Bend Whitewater Park at 166 SW Shevlin Hixon Dr highly, with 4.7 stars from 524 visits. Open from 5am to 10pm daily, dog owners can easily fit a visit into busy schedules. Dog owners can also take their pups to nearby Miller's Landing Park (0.1 miles) or Riverbend Park (0.5 miles)."
  },
  {
    "name": "Hollinshead Park",
    "street": "1235 NE Jones Rd",
    "city": "Bend",
    "state": "OR",
    "zip": "97701",
    "latitude": 44.0706704,
    "longitude": -121.2886328,
    "description": "With 4.7 stars from 494 reviews, Hollinshead Park at 1235 NE Jones Rd has become a favorite among Bend dog owners. Open from 5am to 10pm daily, dog owners can easily fit a visit into busy schedules. Dog owners exploring the neighborhood can also bring their furry friends to Stover Park (0.4 miles)."
  },
  {
    "name": "Larkspur Park",
    "street": "1700 SE Reed Market Rd",
    "city": "Bend",
    "state": "OR",
    "zip": "97702",
    "latitude": 44.0370117,
    "longitude": -121.2842719,
    "description": "With 4.7 stars from 441 reviews, Larkspur Park at 1700 SE Reed Market Rd has become a favorite among Bend dog owners. Open from 5am to 10pm daily, the park offers flexibility for dog owners with varying routines. Dog owners can also take their pups to nearby Ponderosa Park (0.8 miles) or Jaycee Park (1.1 miles)."
  },
  {
    "name": "Off-Leash Dog Area",
    "street": "6460 NW Oak Creek Dr",
    "city": "Corvallis",
    "state": "OR",
    "zip": "97330",
    "latitude": 44.5687743,
    "longitude": -123.3335923,
    "description": "Dog owners in Corvallis have made Off-Leash Dog Area at 6460 NW Oak Creek Dr a go-to spot, rating it 4.5 stars across 12 reviews. Open from 6am to 10pm daily, the park accommodates early risers and evening visitors alike. Nearby, Corvallis Dog Park (3.5 miles) offers dog owners another great spot to explore with their pups."
  },
  {
    "name": "Corvallis Dog Park",
    "street": "205 SW B Ave",
    "city": "Corvallis",
    "state": "OR",
    "zip": "97333",
    "latitude": 44.5582968,
    "longitude": -123.2630377,
    "description": "Dog owners in Corvallis have rated Corvallis Dog Park (205 SW B Ave) 4.1 stars across 306 reviews. Open from 7am to 8pm daily, local dog owners have time to explore with their furry companions. Dog owners in the neighborhood can also take their furry friends to Off-Leash Dog Area, 3.5 miles away."
  },
  {
    "name": "Mount Pisgah Arboretum",
    "street": "34901 Frank Parrish Rd",
    "city": "Eugene",
    "state": "OR",
    "zip": "97405",
    "latitude": 44.0063368,
    "longitude": -122.9814001,
    "description": "Local dog owners love Mount Pisgah Arboretum at 34901 Frank Parrish Rd in Eugene—4.7 stars from an impressive 1,800 reviews. Open from 9am to 3pm weekdays, dog owners can easily fit a visit into their day, whether morning or evening. Want to give your pup even more adventure? Douglas Gardens Park is another beloved dog park just 2.2 miles away."
  },
  {
    "name": "Wayne Morse Family Farm",
    "street": "595 Crest Dr",
    "city": "Eugene",
    "state": "OR",
    "zip": "97405",
    "latitude": 44.0217178,
    "longitude": -123.1011095,
    "description": "Eugene dog owners rate Wayne Morse Family Farm at 595 Crest Dr highly, with 4.7 stars from 311 visits. Local dog owners appreciate what this park offers their four-legged friends. For variety, the neighborhood offers more dog parks to explore: Friendly Park (0.5 miles) and Tugman Park (1.0 miles)."
  },
  {
    "name": "‍ Alton Baker Park",
    "street": "200 Day Island Rd",
    "city": "Eugene",
    "state": "OR",
    "zip": "97401",
    "latitude": 44.0563977,
    "longitude": -123.0812395,
    "description": "At 200 Day Island Rd in Eugene, Alton Baker Park stands out with 4.6 stars from 3,816 happy dog owners. Open from 6am to 11pm daily, dog owners have plenty of flexibility to visit when it suits their schedule. Other popular dog parks nearby include Alton Baker Dog Park (0.8 miles) and Skinner Butte Park (0.8 miles)—both favorites among local pup parents."
  },
  {
    "name": "Skinner Butte Park",
    "street": "248 Cheshire Ave",
    "city": "Eugene",
    "state": "OR",
    "zip": "97401",
    "latitude": 44.0604834,
    "longitude": -123.0962961,
    "description": "For Eugene dog owners, Skinner Butte Park at 248 Cheshire Ave has become a reliable favorite—4.6 stars from 2,902 reviews. Open from 6am to 11pm daily, dog owners can plan visits around their pup's favorite times to be active. Other popular dog parks nearby include Washington Jefferson Dog Park (0.3 miles) and Alton Baker Dog Park (0.7 miles)—both favorites among local pup parents."
  },
  {
    "name": "Off leash dog area Jefferson",
    "street": "1540 Jefferson St",
    "city": "Eugene",
    "state": "OR",
    "zip": "97402",
    "latitude": 44.0428546,
    "longitude": -123.1018768,
    "description": "Off leash dog area Jefferson at 1540 Jefferson St is well-regarded by Eugene dog owners, holding 4.5 stars across 8 reviews. Local dog owners appreciate what this park offers their four-legged friends. Dog owners can also take their pups to nearby Alton Baker Dog Park (0.6 miles) or Friendly Park (1.0 miles)."
  },
  {
    "name": "‍ Friendly Park",
    "street": "2745 Monroe St",
    "city": "Eugene",
    "state": "OR",
    "zip": "97405",
    "latitude": 44.0281463,
    "longitude": -123.1040086,
    "description": "Located at 2745 Monroe St in Eugene, Friendly Park earns strong marks from local dog owners—4.5 stars from 86 reviews. Open from 6am to 10pm daily, the park works well for dog owners with different schedules. For variety, the neighborhood offers more dog parks to explore: Wayne Morse Family Farm (0.5 miles) and Off leash dog area Jefferson (1.0 miles)."
  },
  {
    "name": "‍ Willakenzie Park",
    "street": "1725 Best Ln",
    "city": "Eugene",
    "state": "OR",
    "zip": "97401",
    "latitude": 44.0830492,
    "longitude": -123.0639018,
    "description": "For dog owners in the Eugene area, Willakenzie Park (1725 Best Ln) offers a 4.5-star experience based on 168 reviews. Open from 6am to 9pm daily, there's room in the day for dog owners to bring their furry friends. Dog owners exploring the neighborhood can also bring their furry friends to Armitage Dog Park (0.9 miles)."
  },
  {
    "name": "‍ Alton Baker Dog Park",
    "street": "",
    "city": "Eugene",
    "state": "OR",
    "zip": "",
    "latitude": 44.0505054,
    "longitude": -123.0950506,
    "description": "Alton Baker Dog Park (4.5 stars from 383 reviews) is a popular destination for Eugene dog owners. Open from 6am to 10pm daily, the park accommodates early risers and evening visitors alike. For variety, the neighborhood offers more dog parks to explore: Washington Jefferson Dog Park (0.6 miles) and Off leash dog area Jefferson (0.6 miles)."
  },
  {
    "name": "Tugman Park",
    "street": "3666 Hilyard St",
    "city": "Eugene",
    "state": "OR",
    "zip": "97405",
    "latitude": 44.0160968,
    "longitude": -123.082037,
    "description": "Located at 3666 Hilyard St in Eugene, Tugman Park earns strong marks from local dog owners—4.5 stars from 407 reviews. Open from 6am to 11pm daily, there's plenty of opportunity for dog owners to find a time that works. Dog owners exploring the neighborhood can also bring their furry friends to University Park (0.5 miles)."
  },
  {
    "name": "Laurel Hill Park",
    "street": "2645 Augusta St",
    "city": "Eugene",
    "state": "OR",
    "zip": "97403",
    "latitude": 44.0304992,
    "longitude": -123.0504452,
    "description": "Laurel Hill Park at 2645 Augusta St holds a 4.4-star rating from 74 Eugene dog owner visits. Open from 6am to 11pm daily, the park fits conveniently into different routines. More dog parks in the area include University Park (1.4 miles) and Heron Playground (1.5 miles)—great options for mixing up your pup's routine."
  },
  {
    "name": "‍ University Park",
    "street": "2300 University St",
    "city": "Eugene",
    "state": "OR",
    "zip": "97405",
    "latitude": 44.0209412,
    "longitude": -123.0750233,
    "description": "136 dog owners have reviewed University Park at 2300 University St in Eugene, averaging 4.4 stars. Open from 6am to 10pm daily, the park is accessible for dog owners in the area. More dog parks in the area include Tugman Park (0.5 miles) and Wayne Morse Family Farm (1.3 miles)—great options for mixing up your pup's routine."
  },
  {
    "name": "Armitage Dog Park",
    "street": "89800 Coburg Rd",
    "city": "Eugene",
    "state": "OR",
    "zip": "97408",
    "latitude": 44.0963451,
    "longitude": -123.0673275,
    "description": "At 89800 Coburg Rd in Eugene, Armitage Dog Park carries 4.4 stars from 347 dog owner reviews. Open from 5am to 8pm daily, dog owners can stop by when it fits their schedule. More dog parks in the area include Crescent Park (0.7 miles) and Willakenzie Park (0.9 miles)—great options for mixing up your pup's routine."
  },
  {
    "name": "Candlelight Park",
    "street": "1165 Welcome Way",
    "city": "Eugene",
    "state": "OR",
    "zip": "97402",
    "latitude": 44.0727581,
    "longitude": -123.1832964,
    "description": "For dog owners in Eugene, Candlelight Park at 1165 Welcome Way has a 4.4-star rating (428 reviews). This park provides dog owners in the community with a place to visit with their dogs. Looking to explore more? Ruby Park is another dog-friendly park 2.9 miles from here."
  },
  {
    "name": "Awbrey Park",
    "street": "4291 River Rd",
    "city": "Eugene",
    "state": "OR",
    "zip": "97404",
    "latitude": 44.0677768,
    "longitude": -123.1178235,
    "description": "Awbrey Park at 4291 River Rd holds a 4.4-star rating from 480 Eugene dog owner visits. Open from 6am to 11pm daily, dog owners can stop by when it fits their schedule. For pups who want more adventure, Washington Jefferson Dog Park is a nearby dog park worth visiting (1.0 miles)."
  },
  {
    "name": "Washington Jefferson Dog Park",
    "street": "150 Jefferson St",
    "city": "Eugene",
    "state": "OR",
    "zip": "97402",
    "latitude": 44.058059,
    "longitude": -123.101935,
    "description": "Washington Jefferson Dog Park at 150 Jefferson St provides Eugene dog owners with a local spot to visit with their pups. Open from 6am to 11pm daily, the park gives dog owners in the neighborhood time to bring their pups. More dog parks in the area include Skinner Butte Park (0.3 miles) and Alton Baker Dog Park (0.6 miles)—great options for mixing up your pup's routine."
  },
  {
    "name": "Crescent Park",
    "street": "2725 Martinique Ave",
    "city": "Eugene",
    "state": "OR",
    "zip": "97408",
    "latitude": 44.0947212,
    "longitude": -123.052615,
    "description": "For dog owners in Eugene, Crescent Park at 2725 Martinique Ave has a 4.3-star rating (66 reviews). Open from 8am to 8pm daily, dog owners in the area can work a visit into their day. Dog owners might also enjoy Armitage Dog Park, another dog park just 0.7 miles away."
  },
  {
    "name": "Main City Park",
    "street": "219 S Main Ave",
    "city": "Gresham",
    "state": "OR",
    "zip": "97080",
    "latitude": 45.4956257,
    "longitude": -122.430965,
    "description": "Main City Park (4.4 stars from 1,276 reviews) is a popular destination for Gresham dog owners, located at 219 S Main Ave. Open from 5am to 10pm daily, the park accommodates early risers and evening visitors alike. More dog-friendly parks nearby include East Gresham Park (2.1 miles) and Lynchwood Park (2.8 miles)—perfect for pups who love adventure."
  },
  {
    "name": "East Gresham Park",
    "street": "237 SE Williams Rd",
    "city": "Gresham",
    "state": "OR",
    "zip": "97080",
    "latitude": 45.4947441,
    "longitude": -122.3871099,
    "description": "Dog owners in the Gresham area will find East Gresham Park at 237 SE Williams Rd—a local option for spending time with their pups. Open from 5am to 10pm daily, dog owners have flexibility to plan a visit with their four-legged friends. Dog owners in the neighborhood can also take their furry friends to Main City Park, 2.1 miles away."
  },
  {
    "name": "Happy Valley Park",
    "street": "13770 SE Ridgecrest Rd",
    "city": "Happy Valley",
    "state": "OR",
    "zip": "97086",
    "latitude": 45.4532974,
    "longitude": -122.5212855,
    "description": "Happy Valley Park at 13770 SE Ridgecrest Rd in Happy Valley is a community favorite, with 1,759 dog owners giving it 4.7 stars. Dog owners appreciate the reliable experience this park provides for their four-legged companions. For variety, many dog owners also bring their furry friends to Happy Valley Off Leash Dog (2.1 miles)—another great dog park in the area."
  },
  {
    "name": "Happy Valley Off Leash Dog",
    "street": "",
    "city": "Happy Valley",
    "state": "OR",
    "zip": "",
    "latitude": 45.428679,
    "longitude": -122.497174,
    "description": "Happy Valley dog owners rate Happy Valley Off Leash Dog highly, with 4.5 stars from 47 visits. The steady stream of dog owner visits speaks to the park's appeal. Looking for more places to take your pup? Happy Valley Park is another popular dog park just 2.1 miles away."
  },
  {
    "name": "Reed’s Crossing Park",
    "street": "4065 SE 83rd Ave",
    "city": "Hillsboro",
    "state": "OR",
    "zip": "97123",
    "latitude": 45.4904417,
    "longitude": -122.8973037,
    "description": "Dog owners in Hillsboro have made Reed’s Crossing Park at 4065 SE 83rd Ave a go-to spot, rating it 4.9 stars across 17 reviews. The park has earned its reputation among dog owners in the neighborhood as a reliable choice. Nearby, Hazeldale Park (1.7 miles) offers dog owners another great spot to explore with their pups."
  },
  {
    "name": "Hondo Dog Park",
    "street": "4499 NE Century Blvd",
    "city": "Hillsboro",
    "state": "OR",
    "zip": "97124",
    "latitude": 45.553759,
    "longitude": -122.910106,
    "description": "Hondo Dog Park (4.6 stars from 948 reviews) is a popular destination for Hillsboro dog owners, located at 4499 NE Century Blvd. Open from 6am to 9pm daily, the park works well for dog owners with different schedules. Dog owners can also take their pups to nearby Wanda L. Peck Memorial Park (4.2 miles) or Reed’s Crossing Dog Park (4.4 miles)."
  },
  {
    "name": "Reed’s Crossing Dog Park",
    "street": "",
    "city": "Hillsboro",
    "state": "OR",
    "zip": "",
    "latitude": 45.5228939,
    "longitude": -122.989827,
    "description": "Reed’s Crossing Dog Park holds a 4.1-star rating from 7 Hillsboro dog owner visits. For dog owners in the neighborhood, this park offers a place to take their pups. Dog owners might also enjoy Hondo Dog Park, another dog park just 4.4 miles away."
  },
  {
    "name": "Keizer Rapids Park",
    "street": "1900 Chemawa Rd N",
    "city": "Keizer",
    "state": "OR",
    "zip": "97303",
    "latitude": 44.9932109,
    "longitude": -123.0543748,
    "description": "Keizer Rapids Park at 1900 Chemawa Rd N is a favorite among Keizer dog owners, earning 4.6 stars from 2,066 reviews. This park has clearly won over local dog owners who return again and again with their furry friends. Nearby, Claggett Creek Park (1.9 miles) is another dog park favorite where you can take your four-legged friend."
  },
  {
    "name": "Claggett Creek Park",
    "street": "1400 Chemawa Rd NE",
    "city": "Keizer",
    "state": "OR",
    "zip": "97303",
    "latitude": 44.9967977,
    "longitude": -123.0153334,
    "description": "At 1400 Chemawa Rd NE, Claggett Creek Park has 4.2 stars based on 406 reviews from Keizer dog owners. The neighborhood benefits from having this park as an option for dog owners and their pups. Dog owners looking for variety can also visit Keizer Rapids Park (1.9 miles) or Northgate Park (2.0 miles) with their four-legged friends."
  },
  {
    "name": "Hazelia Dog Park",
    "street": "17800 SW Stafford Rd",
    "city": "Lake Oswego",
    "state": "OR",
    "zip": "97034",
    "latitude": 45.396692,
    "longitude": -122.688123,
    "description": "Located at 17800 SW Stafford Rd in Lake Oswego, Hazelia Dog Park earns strong marks from local dog owners—4.8 stars from 94 reviews. Open from 6am to 10pm daily, there's room in the day for dog owners to bring their furry friends. Dog owners can also take their pups to nearby Waluga Dog Park (2.2 miles) or Pilkington Park (2.3 miles)."
  },
  {
    "name": "Pilkington Park",
    "street": "19043 Pilkington Rd",
    "city": "Lake Oswego",
    "state": "OR",
    "zip": "97035",
    "latitude": 45.3881424,
    "longitude": -122.733511,
    "description": "Located at 19043 Pilkington Rd in Lake Oswego, Pilkington Park earns strong marks from local dog owners—4.5 stars from 22 reviews. The park has earned its reputation among dog owners in the neighborhood as a reliable choice. Nearby, Tualatin Dog Park (1.5 miles) offers dog owners another great spot to explore with their pups."
  },
  {
    "name": "Waluga Dog Park",
    "street": "15775 Waluga Dr",
    "city": "Lake Oswego",
    "state": "OR",
    "zip": "97035",
    "latitude": 45.4114095,
    "longitude": -122.7291725,
    "description": "Lake Oswego dog owners rate Waluga Dog Park at 15775 Waluga Dr highly, with 4.5 stars from 57 visits. Dog owners in the area consistently choose this park as a go-to destination for their pups. Dog owners can also take their pups to nearby Pilkington Park (1.6 miles) or Potso Dog Park (1.8 miles)."
  },
  {
    "name": "Riverside Dog Park",
    "street": "1900 NE Riverside DrMcMinnville",
    "city": "Mcminnville",
    "state": "OR",
    "zip": "97128",
    "latitude": 45.2163918,
    "longitude": -123.179581,
    "description": "Riverside Dog Park at 1900 NE Riverside Dr holds a 4.4-star rating from 296 McMinnville dog owner visits. Open from 7am to 8pm daily, the park fits conveniently into different routines. Dog owners visiting for the first time may want to read recent reviews to learn what to expect."
  },
  {
    "name": "‍ Bear Creek Park",
    "street": "1520 Siskiyou Blvd",
    "city": "Medford",
    "state": "OR",
    "zip": "97504",
    "latitude": 42.3229632,
    "longitude": -122.8625239,
    "description": "Bear Creek Park at 1520 Siskiyou Blvd is a favorite among Medford dog owners, earning 4.6 stars from 1,326 reviews. Open from 6am to 10:30pm daily, dog owners can easily fit a visit into their day, whether morning or evening. For variety, many dog owners also bring their furry friends to Hawthorne Park (0.4 miles)—another great dog park in the area."
  },
  {
    "name": "Village Center Park",
    "street": "3950 Shamrock Dr",
    "city": "Medford",
    "state": "OR",
    "zip": "97504",
    "latitude": 42.3207862,
    "longitude": -122.8152673,
    "description": "With 4.8 stars from 44 reviews, Village Center Park at 3950 Shamrock Dr has become a favorite among Medford dog owners. Open from 6am to 10:30pm daily, dog owners have plenty of flexibility to plan a visit. More dog-friendly parks nearby include Summerfield Park (0.3 miles) and Donahue Frohnmayer Park (2.0 miles)—perfect for pups who love adventure."
  },
  {
    "name": "Cedar Links Park",
    "street": "3101 Cedar Links Dr",
    "city": "Medford",
    "state": "OR",
    "zip": "97504",
    "latitude": 42.35295,
    "longitude": -122.831899,
    "description": "At 3101 Cedar Links Dr, Cedar Links Park has 4.4 stars based on 115 reviews from Medford dog owners. Open from 6:30am to 9pm daily, dog owners have a window to spend time with their pups. For dog owners who like to explore, Kennedy Park (1.0 miles) and Donahue Frohnmayer Park (1.2 miles) are both nearby parks to try with your dog."
  },
  {
    "name": "‍ Donahue Frohnmayer Park",
    "street": "1687 Spring St",
    "city": "Medford",
    "state": "OR",
    "zip": "97504",
    "latitude": 42.3383064,
    "longitude": -122.8462244,
    "description": "Located at 1687 Spring St, Donahue Frohnmayer Park in Medford is rated 4.4 stars by 72 dog owners. Open from 6am to 10:30pm daily, the park is accessible for dog owners in the area. Dog owners looking for variety can also visit Cedar Links Park (1.2 miles) or Hawthorne Park (1.3 miles) with their four-legged friends."
  },
  {
    "name": "Kennedy Park",
    "street": "2911 Springbrook Rd",
    "city": "Medford",
    "state": "OR",
    "zip": "97504",
    "latitude": 42.3602208,
    "longitude": -122.8490969,
    "description": "At 2911 Springbrook Rd, Kennedy Park has 4.4 stars based on 68 reviews from Medford dog owners. Open from 6am to 10:30pm daily, dog owners have a window to spend time with their pups. For dog owners who like to explore, Cedar Links Park (1.0 miles) and Donahue Frohnmayer Park (1.5 miles) are both nearby parks to try with your dog."
  },
  {
    "name": "Summerfield Park",
    "street": "3586 Cherry Ln",
    "city": "Medford",
    "state": "OR",
    "zip": "97504",
    "latitude": 42.3255978,
    "longitude": -122.8132575,
    "description": "For dog owners in Medford, Summerfield Park at 3586 Cherry Ln has a 4.3-star rating (90 reviews). Open from 6am to 10:30pm daily, the park gives dog owners in the neighborhood time to bring their pups. Dog owners in the neighborhood can also take their furry friends to Village Center Park, 0.3 miles away."
  },
  {
    "name": "Hawthorne Park",
    "street": "41 Hawthorne St",
    "city": "Medford",
    "state": "OR",
    "zip": "97504",
    "latitude": 42.3288754,
    "longitude": -122.8673878,
    "description": "Located at 41 Hawthorne St, Hawthorne Park in Medford is rated 4.1 stars by 278 dog owners. Open from 6am to 9pm daily, the park is accessible for dog owners in the area. Looking to explore more? Hawthorne Park is another dog-friendly park 0.1 miles from here."
  },
  {
    "name": "‍ Union Park",
    "street": "501 Plum St",
    "city": "Medford",
    "state": "OR",
    "zip": "97501",
    "latitude": 42.318478,
    "longitude": -122.887457,
    "description": "Union Park at 501 Plum St provides Medford dog owners with a local spot to visit with their pups. Open from 6am to 10pm daily, the park is accessible for dog owners in the area. For dog owners who like to explore, Hawthorne Park (1.2 miles) and Hawthorne Park (1.3 miles) are both nearby parks to try with your dog."
  },
  {
    "name": "Monmouth Dog Park",
    "street": "401 N Hogan Rd",
    "city": "Monmouth",
    "state": "OR",
    "zip": "97361",
    "latitude": 44.8511575,
    "longitude": -123.2196181,
    "description": "At 401 N Hogan Rd in Monmouth, Monmouth Dog Park carries 4.4 stars from 105 dog owner reviews. Open from 7am to 9pm daily, the park is accessible for dog owners in the area. Dog owners can find more details about this park in the reviews from other visitors."
  },
  {
    "name": "Blitz's Phoenix dog park",
    "street": "",
    "city": "Phoenix",
    "state": "OR",
    "zip": "",
    "latitude": 42.2740364,
    "longitude": -122.8153283,
    "description": "For dog owners in the Phoenix area, Blitz's Phoenix dog park offers a 4.8-star experience based on 57 reviews. Dog owners in the area consistently choose this park as a go-to destination for their pups. For variety, the neighborhood offers more dog parks to explore: Bark Park (2.5 miles) and Village Center Park (3.2 miles)."
  },
  {
    "name": "Washington Park",
    "street": "4033 SW Canyon Rd",
    "city": "Portland",
    "state": "OR",
    "zip": "97221",
    "latitude": 45.5191628,
    "longitude": -122.700016,
    "description": "With 15,865 reviews and a 4.7-star rating, Washington Park (4033 SW Canyon Rd) has become a landmark for Portland dog owners. Open from 5am to 10pm daily, dog owners have maximum flexibility to plan their visit. The neighborhood offers dog owners more places to bring their pups: The Fields Park (1.0 miles) and Cycle Dog - Earth Friendly (1.0 miles)."
  },
  {
    "name": "Cathedral City Park",
    "street": "6635 N Baltimore Ave",
    "city": "Portland",
    "state": "OR",
    "zip": "97203",
    "latitude": 45.5890095,
    "longitude": -122.7617028,
    "description": "With 4.7 stars across 2,657 reviews, Cathedral City Park at 6635 N Baltimore Ave has clearly won over Portland dog owners. Open from 5am to 12am daily, dog owners have room to work around busy schedules. Dog owners in the area also love bringing their pups to Chimney Park (1.3 miles) and Dog Bowl (3.5 miles)."
  },
  {
    "name": "Council Crest Park",
    "street": "1120 SW Council Crest Dr",
    "city": "Portland",
    "state": "OR",
    "zip": "97239",
    "latitude": 45.4933495,
    "longitude": -122.6993998,
    "description": "Dog owners in Portland have embraced Council Crest Park (1120 SW Council Crest Dr) as a top destination—4.7 stars from 1,988 visits. Open from 5am to 12am daily, dog owners can easily fit a visit into their day, whether morning or evening. Want to give your pup even more adventure? Willamette Park is another beloved dog park just 1.8 miles away."
  },
  {
    "name": "Fenced Off-Leash Dog Park",
    "street": "12999 NE Holladay St",
    "city": "Portland",
    "state": "OR",
    "zip": "97230",
    "latitude": 45.530034,
    "longitude": -122.529739,
    "description": "Portland dog owners rate Fenced Off-Leash Dog Park at 12999 NE Holladay St highly, with 4.8 stars from 14 visits. Open from 5am to 12am daily, there's plenty of opportunity for dog owners to find a time that works. Nearby, Luuwit View Dog Park (1.3 miles) offers dog owners another great spot to explore with their pups."
  },
  {
    "name": "Good Dog Park",
    "street": "1411 SE Stark St",
    "city": "Portland",
    "state": "OR",
    "zip": "97214",
    "latitude": 45.5194118,
    "longitude": -122.6513563,
    "description": "Good Dog Park (4.7 stars from 12 reviews) is a popular destination for Portland dog owners, located at 1411 SE Stark St. Open from 10am to 6pm daily, dog owners can easily fit a visit into busy schedules. Dog owners can also take their pups to nearby Rock Creek Dog Park (1.1 miles) or Argay Dog Park (1.1 miles)."
  },
  {
    "name": "Alberta Unfenced Off-Leash",
    "street": "5520 NE 19th Ave",
    "city": "Portland",
    "state": "OR",
    "zip": "97211",
    "latitude": 45.5629486,
    "longitude": -122.6459137,
    "description": "At 5520 NE 19th Ave in Portland, Alberta Unfenced Off-Leash has built a loyal following—4.6 stars from 8 dog owner reviews. Open from 5am to 12am daily, the park accommodates early risers and evening visitors alike. Nearby, Alberta Park (0.0 miles) offers dog owners another great spot to explore with their pups."
  },
  {
    "name": "Luuwit View Dog Park",
    "street": "12641 NE Fremont St",
    "city": "Portland",
    "state": "OR",
    "zip": "97230",
    "latitude": 45.5482901,
    "longitude": -122.5327209,
    "description": "With 4.6 stars from 151 reviews, Luuwit View Dog Park at 12641 NE Fremont St has become a favorite among Portland dog owners. Open from 5am to 12am daily, the park works well for dog owners with different schedules. Dog owners exploring the neighborhood can also bring their furry friends to Fenced Off-Leash Dog Park (1.3 miles)."
  },
  {
    "name": "Rock Creek Dog Park",
    "street": "",
    "city": "Portland",
    "state": "OR",
    "zip": "",
    "latitude": 45.5202471,
    "longitude": -122.674194,
    "description": "For dog owners in the Portland area, Rock Creek Dog Park offers a 4.6-star experience based on 214 reviews. Open from 7am to 7pm daily, dog owners have plenty of flexibility to plan a visit. Dog owners exploring the neighborhood can also bring their furry friends to Argay Dog Park (0.0 miles)."
  },
  {
    "name": "Creston Park",
    "street": "4454 SE Powell Blvd",
    "city": "Portland",
    "state": "OR",
    "zip": "97206",
    "latitude": 45.4965687,
    "longitude": -122.6163696,
    "description": "For dog owners in the Portland area, Creston Park (4454 SE Powell Blvd) offers a 4.6-star experience based on 215 reviews. Open from 5am to 10pm daily, the park works well for dog owners with different schedules. For variety, the neighborhood offers more dog parks to explore: Mt Tabor Park (1.3 miles) and Brentwood City Park (1.6 miles)."
  },
  {
    "name": "Off-Leash Dog Park",
    "street": "4050 NE Holman St",
    "city": "Portland",
    "state": "OR",
    "zip": "97211",
    "latitude": 45.5684797,
    "longitude": -122.6222382,
    "description": "Portland dog owners rate Off-Leash Dog Park at 4050 NE Holman St highly, with 4.6 stars from 260 visits. Open from 5am to 12am daily, the park offers flexibility for dog owners with varying routines. More dog-friendly parks nearby include Fernhill Park (0.2 miles) and Off-Leash Dog Area (1.1 miles)—perfect for pups who love adventure."
  },
  {
    "name": "Durham City Park",
    "street": "17095 SW Arkenstone Dr",
    "city": "Portland",
    "state": "OR",
    "zip": "97224",
    "latitude": 45.3958966,
    "longitude": -122.7636375,
    "description": "Durham City Park (4.6 stars from 303 reviews) is a popular destination for Portland dog owners, located at 17095 SW Arkenstone Dr. Local dog owners appreciate what this park offers their four-legged friends. Looking for more places to take your pup? Cook Family Park is another popular dog park just 0.4 miles away."
  },
  {
    "name": "Chimney Park",
    "street": "9360 N Columbia Blvd",
    "city": "Portland",
    "state": "OR",
    "zip": "97203",
    "latitude": 45.6073112,
    "longitude": -122.7604281,
    "description": "Located at 9360 N Columbia Blvd in Portland, Chimney Park earns strong marks from local dog owners—4.6 stars from 506 reviews. Open from 5am to 12am daily, dog owners can easily fit a visit into busy schedules. Nearby, Cathedral City Park (1.3 miles) offers dog owners another great spot to explore with their pups."
  },
  {
    "name": "Mt Tabor Park",
    "street": "2219 SE 68th Ave",
    "city": "Portland",
    "state": "OR",
    "zip": "97215",
    "latitude": 45.5062805,
    "longitude": -122.5933849,
    "description": "At 2219 SE 68th Ave in Portland, Mt Tabor Park has built a loyal following—4.6 stars from 742 dog owner reviews. Open from 7am to 9pm daily, the park works well for dog owners with different schedules. For variety, the neighborhood offers more dog parks to explore: Creston Park (1.3 miles) and Lents Park (1.6 miles)."
  },
  {
    "name": "Fernhill Park",
    "street": "6010 NE 37th Ave",
    "city": "Portland",
    "state": "OR",
    "zip": "97211",
    "latitude": 45.5665657,
    "longitude": -122.6254211,
    "description": "Fernhill Park (4.6 stars from 921 reviews) is a popular destination for Portland dog owners, located at 6010 NE 37th Ave. Open from 5am to 12am daily, dog owners can plan visits around work or their pup's energy level. Dog owners can also take their pups to nearby Off-Leash Dog Park (0.2 miles) or Off-Leash Dog Area (1.0 miles)."
  },
  {
    "name": "Alberta Park",
    "street": "1905 NE Killingsworth St",
    "city": "Portland",
    "state": "OR",
    "zip": "97211",
    "latitude": 45.5630625,
    "longitude": -122.6457339,
    "description": "Local dog owners love Alberta Park at 1905 NE Killingsworth St in Portland—4.6 stars from an impressive 1,120 reviews. Open from 5am to 12am daily, dog owners have room to work around busy schedules. Looking to mix things up? Alberta Unfenced Off-Leash is a nearby dog park 0.0 miles away that's worth exploring with your pup."
  },
  {
    "name": "Willamette Park",
    "street": "6500 S Macadam Ave",
    "city": "Portland",
    "state": "OR",
    "zip": "97219",
    "latitude": 45.4766822,
    "longitude": -122.6714786,
    "description": "With 4.6 stars across 1,172 reviews, Willamette Park at 6500 S Macadam Ave has clearly won over Portland dog owners. Open from 5am to 10pm daily, the park accommodates a variety of dog owner schedules and routines. For variety, many dog owners also bring their furry friends to Sellwood Riverfront Park (0.6 miles)—another great dog park in the area."
  },
  {
    "name": "Dry Canyon trail Dog park",
    "street": "1429 W Antler Ave",
    "city": "Redmond",
    "state": "OR",
    "zip": "97756",
    "latitude": 44.2765225,
    "longitude": -121.1849224,
    "description": "Redmond dog owners rate Dry Canyon trail Dog park at 1429 W Antler Ave highly, with 4.5 stars from 61 visits. The park serves dog owners well, providing a destination the community values. The positive feedback from local dog owners speaks to the park's consistent quality."
  },
  {
    "name": "Riverfront City Park",
    "street": "200 Water St NE",
    "city": "Salem",
    "state": "OR",
    "zip": "97301",
    "latitude": 44.943312,
    "longitude": -123.042158,
    "description": "5,091 dog owners can't be wrong: Riverfront City Park (200 Water St NE) is a Salem institution with 4.7 stars. Open from 7am to 9pm daily, dog owners rarely have to rush—there's time to let pups fully enjoy the space. For dog owners wanting to explore more with their furry friends, Marion Square Park is another great dog park just 0.2 miles away."
  },
  {
    "name": "Bush's Pasture Park",
    "street": "890 Mission St SE",
    "city": "Salem",
    "state": "OR",
    "zip": "97302",
    "latitude": 44.9311219,
    "longitude": -123.0345001,
    "description": "For Salem dog owners, Bush's Pasture Park at 890 Mission St SE has become a reliable favorite—4.7 stars from 3,476 reviews. Open from 5am to 9pm daily, dog owners have plenty of flexibility to visit when it suits their schedule. Other popular dog parks nearby include Let's All Play Park (0.3 miles) and Aldrich Park (0.5 miles)—both favorites among local pup parents."
  },
  {
    "name": "Riverfront Park",
    "street": "230 Front St SE",
    "city": "Salem",
    "state": "OR",
    "zip": "97301",
    "latitude": 44.9396812,
    "longitude": -123.0421519,
    "description": "Salem dog owners rate Riverfront Park at 230 Front St SE highly, with 4.7 stars from 482 visits. Open from 7:30am to 4:30pm weekdays, the park offers flexibility for dog owners with varying routines. For a change of scenery, Salem city park is another dog-friendly destination 0.2 miles from here."
  },
  {
    "name": "‍ Let's All Play Park",
    "street": "650 Church St SE",
    "city": "Salem",
    "state": "OR",
    "zip": "97301",
    "latitude": 44.9339913,
    "longitude": -123.0380687,
    "description": "At 650 Church St SE in Salem, Let's All Play Park has built a loyal following—4.6 stars from 116 dog owner reviews. For dog owners in the area, this park has become a trusted spot for time with their pups. More dog-friendly parks nearby include Salem city park (0.2 miles) and Bush's Pasture Park (0.3 miles)—perfect for pups who love adventure."
  },
  {
    "name": "Bryan Johnston Park",
    "street": "400 Mildred Ln SE",
    "city": "Salem",
    "state": "OR",
    "zip": "97306",
    "latitude": 44.8699681,
    "longitude": -123.0540345,
    "description": "Bryan Johnston Park (4.5 stars from 348 reviews) is a popular destination for Salem dog owners, located at 400 Mildred Ln SE. Open from 5am to 8pm daily, dog owners have plenty of flexibility to plan a visit. Dog owners can also take their pups to nearby Wendy Kroger Park (1.3 miles) or Woodmansee Park (1.5 miles)."
  },
  {
    "name": "Hilfiker park",
    "street": "1350 Hilfiker Ln SE",
    "city": "Salem",
    "state": "OR",
    "zip": "97302",
    "latitude": 44.8897135,
    "longitude": -123.0268805,
    "description": "Hilfiker park at 1350 Hilfiker Ln SE is well-regarded by Salem dog owners, holding 4.6 stars across 12 reviews. Open from 6am to 7pm daily, dog owners have plenty of flexibility to plan a visit. Dog owners exploring the neighborhood can also bring their furry friends to Woodmansee Park (0.6 miles)."
  },
  {
    "name": "Fairmount City Park",
    "street": "650 Rural Ave S",
    "city": "Salem",
    "state": "OR",
    "zip": "97302",
    "latitude": 44.9214222,
    "longitude": -123.053456,
    "description": "For dog owners in the Salem area, Fairmount City Park (650 Rural Ave S) offers a 4.5-star experience based on 169 reviews. Open from 6am to 10pm daily, the park works well for dog owners with different schedules. For a change of scenery, Clark Creek Park is another dog-friendly destination 1.0 miles from here."
  },
  {
    "name": "Wendy Kroger Park",
    "street": "200 Arlene Ave SE",
    "city": "Salem",
    "state": "OR",
    "zip": "97302",
    "latitude": 44.887978,
    "longitude": -123.0566963,
    "description": "Wendy Kroger Park at 200 Arlene Ave SE holds a 4.4-star rating from 153 Salem dog owner visits. Open from 7:30am to 4:30pm weekdays, dog owners have flexibility to plan a visit with their four-legged friends. Dog owners looking for variety can also visit Woodmansee Park (0.8 miles) or Bryan Johnston Park (1.3 miles) with their four-legged friends."
  },
  {
    "name": "McRae Park",
    "street": "2051 Chemeketa St NE",
    "city": "Salem",
    "state": "OR",
    "zip": "97301",
    "latitude": 44.9367922,
    "longitude": -123.0146107,
    "description": "160 dog owners have reviewed McRae Park at 2051 Chemeketa St NE in Salem, averaging 4.4 stars. Open from 5am to 10pm daily, the park fits conveniently into different routines. Dog owners might also enjoy Aldrich Park, another dog park just 0.6 miles away."
  },
  {
    "name": "Orchard Heights Park",
    "street": "1165 Orchard Heights Rd NW",
    "city": "Salem",
    "state": "OR",
    "zip": "97304",
    "latitude": 44.9584284,
    "longitude": -123.0612684,
    "description": "Located at 1165 Orchard Heights Rd NW, Orchard Heights Park in Salem is rated 4.4 stars by 433 dog owners. Open from 5am to 12am daily, the park gives dog owners in the neighborhood time to bring their pups. Nearby dog parks worth exploring with your pup include Riverfront City Park (1.4 miles) and Marion Square Park (1.4 miles)."
  },
  {
    "name": "Geer Park",
    "street": "241 Geer Dr NE",
    "city": "Salem",
    "state": "OR",
    "zip": "97301",
    "latitude": 44.9305227,
    "longitude": -122.9984116,
    "description": "Geer Park (4.4 stars from 511 reviews) is a popular destination for Salem dog owners, located at 241 Geer Dr NE. The park has earned its reputation among dog owners in the neighborhood as a reliable choice. For a change of scenery, McRae Park is another dog-friendly destination 0.9 miles from here."
  },
  {
    "name": "Salem city park",
    "street": "555 Liberty St SE",
    "city": "Salem",
    "state": "OR",
    "zip": "97301",
    "latitude": 44.936269,
    "longitude": -123.0418936,
    "description": "Salem dog owners have access to Salem city park at 555 Liberty St SE for outings with their four-legged friends. Dog owners looking for a local destination will find this park accessible. More dog parks in the area include Riverfront Park (0.2 miles) and Let's All Play Park (0.2 miles)—great options for mixing up your pup's routine."
  },
  {
    "name": "Eola Ridge Park",
    "street": "2546 Dan Ave NW",
    "city": "Salem",
    "state": "OR",
    "zip": "97304",
    "latitude": 44.9440254,
    "longitude": -123.0837349,
    "description": "At 2546 Dan Ave NW, Eola Ridge Park has 4.3 stars based on 67 reviews from Salem dog owners. Open from 6am to 9pm daily, the park gives dog owners in the neighborhood time to bring their pups. For dog owners who like to explore, Orchard Heights Park (1.5 miles) and Riverfront City Park (2.0 miles) are both nearby parks to try with your dog."
  },
  {
    "name": "Straub Nature Park",
    "street": "",
    "city": "Salem",
    "state": "OR",
    "zip": "",
    "latitude": 44.9391565,
    "longitude": -123.033121,
    "description": "Straub Nature Park in Salem has 4.3 stars from 68 dog owner reviews. Open from 5am to 10pm daily, dog owners can stop by when it fits their schedule. Nearby dog parks worth exploring with your pup include Let's All Play Park (0.4 miles) and Riverfront Park (0.4 miles)."
  },
  {
    "name": "Woodmansee Park",
    "street": "4629 Sunnyside Rd SE",
    "city": "Salem",
    "state": "OR",
    "zip": "97302",
    "latitude": 44.8886772,
    "longitude": -123.0398543,
    "description": "At 4629 Sunnyside Rd SE in Salem, Woodmansee Park has built a loyal following—4.3 stars from 955 dog owner reviews. Open from 5am to 9pm daily, the park accommodates early risers and evening visitors alike. Dog owners can also take their pups to nearby Hilfiker park (0.6 miles) or Wendy Kroger Park (0.8 miles)."
  },
  {
    "name": "Grant School Park",
    "street": "1390 Cottage St NE",
    "city": "Salem",
    "state": "OR",
    "zip": "97301",
    "latitude": 44.9516106,
    "longitude": -123.0267757,
    "description": "Grant School Park at 1390 Cottage St NE in Salem has 4.2 stars from 93 dog owner reviews. Open from 7:30am to 4:30pm weekdays, the park is accessible for dog owners in the area. Looking to explore more? Marion Square Park is another dog-friendly park 0.7 miles from here."
  },
  {
    "name": "Eastgate Woodlands",
    "street": "",
    "city": "Springfield",
    "state": "OR",
    "zip": "",
    "latitude": 44.0462362,
    "longitude": -123.0220289,
    "description": "In Springfield, Eastgate Woodlands has built a loyal following—4.7 stars from 21 dog owner reviews. Local dog owners appreciate what this park offers their four-legged friends. For a change of scenery, Millrace Park is another dog-friendly destination 0.2 miles from here."
  },
  {
    "name": "Jack B Lively Memorial Park",
    "street": "6100 Thurston Rd",
    "city": "Springfield",
    "state": "OR",
    "zip": "97478",
    "latitude": 44.0574542,
    "longitude": -122.9174988,
    "description": "Springfield dog owners rate Jack B Lively Memorial Park at 6100 Thurston Rd highly, with 4.5 stars from 851 visits. For dog owners in the area, this park has become a trusted spot for time with their pups. Nearby, Thurston Park (0.4 miles) offers dog owners another great spot to explore with their pups."
  },
  {
    "name": "Meadow Park",
    "street": "851 Mill St",
    "city": "Springfield",
    "state": "OR",
    "zip": "97477",
    "latitude": 44.0527349,
    "longitude": -123.0249529,
    "description": "Dog owners in Springfield have made Meadow Park at 851 Mill St a go-to spot, rating it 4.5 stars across 426 reviews. The park serves dog owners well, providing a destination the community values. Dog owners exploring the neighborhood can also bring their furry friends to Kelly Butte Park (0.3 miles)."
  },
  {
    "name": "Kelly Butte Park",
    "street": "937 Summit Blvd",
    "city": "Springfield",
    "state": "OR",
    "zip": "97477",
    "latitude": 44.0542423,
    "longitude": -123.0313591,
    "description": "Kelly Butte Park at 937 Summit Blvd is well-regarded by Springfield dog owners, holding 4.5 stars across 204 reviews. Dog owners frequent this park for its consistent quality and welcoming atmosphere. Nearby, Meadow Park (0.3 miles) offers dog owners another great spot to explore with their pups."
  },
  {
    "name": "Thurston Park",
    "street": "747 64th St",
    "city": "Springfield",
    "state": "OR",
    "zip": "97478",
    "latitude": 44.0519231,
    "longitude": -122.9157365,
    "description": "For dog owners in Springfield, Thurston Park at 747 64th St has a 4.4-star rating (126 reviews). For dog owners in the neighborhood, this park offers a place to take their pups. For dog owners who like to explore, Jack B Lively Memorial Park (0.4 miles) and Rob Adams Park (1.0 miles) are both nearby parks to try with your dog."
  },
  {
    "name": "Millrace Park",
    "street": "200 S Mill St",
    "city": "Springfield",
    "state": "OR",
    "zip": "97477",
    "latitude": 44.0451574,
    "longitude": -123.0255234,
    "description": "89 dog owners have reviewed Millrace Park at 200 S Mill St in Springfield, averaging 4.4 stars. Local dog owners use this park as a spot to spend time with their furry companions. Dog owners in the neighborhood can also take their furry friends to Island Park, 0.1 miles away."
  },
  {
    "name": "Pride Park",
    "street": "277 S 34th St",
    "city": "Springfield",
    "state": "OR",
    "zip": "97478",
    "latitude": 44.0440119,
    "longitude": -122.9783799,
    "description": "Pride Park at 277 S 34th St holds a 4.4-star rating from 51 Springfield dog owner visits. This park provides dog owners in the community with a place to visit with their dogs. For pups who want more adventure, Douglas Gardens Park is a nearby dog park worth visiting (0.4 miles)."
  },
  {
    "name": "Arrow Park",
    "street": "2500 Otto St",
    "city": "Springfield",
    "state": "OR",
    "zip": "97477",
    "latitude": 44.069875,
    "longitude": -122.9922236,
    "description": "Dog owners in Springfield have rated Arrow Park (2500 Otto St) 4.3 stars across 29 reviews. Local dog owners use this park as a spot to spend time with their furry companions. Looking to explore more? Page Park is another dog-friendly park 0.7 miles from here."
  },
  {
    "name": "Douglas Gardens Park",
    "street": "3455 Redwood Dr",
    "city": "Springfield",
    "state": "OR",
    "zip": "97478",
    "latitude": 44.0378537,
    "longitude": -122.9767846,
    "description": "72 dog owners have reviewed Douglas Gardens Park at 3455 Redwood Dr in Springfield, averaging 4.3 stars. For dog owners in the neighborhood, this park offers a place to take their pups. Nearby dog parks worth exploring with your pup include Pride Park (0.4 miles) and Bluebelle Park (0.7 miles)."
  },
  {
    "name": "Page Park",
    "street": "1300 Hayden Bridge Rd",
    "city": "Springfield",
    "state": "OR",
    "zip": "97477",
    "latitude": 44.0684885,
    "longitude": -123.0062267,
    "description": "Page Park at 1300 Hayden Bridge Rd in Springfield has 4.3 stars from 87 dog owner reviews. Dog owners looking for a local destination will find this park accessible. Nearby dog parks worth exploring with your pup include Arrow Park (0.7 miles) and Pacific Park (1.0 miles)."
  },
  {
    "name": "Rob Adams Park",
    "street": "890 Mountaingate Dr",
    "city": "Springfield",
    "state": "OR",
    "zip": "97478",
    "latitude": 44.0393036,
    "longitude": -122.9267585,
    "description": "Dog owners in Springfield have rated Rob Adams Park (890 Mountaingate Dr) 4.3 stars across 99 reviews. For dog owners in the neighborhood, this park offers a place to take their pups. Looking to explore more? Jasper Meadows is another dog-friendly park 0.5 miles from here."
  },
  {
    "name": "Pacific Park",
    "street": "2163 Shadylane Dr",
    "city": "Springfield",
    "state": "OR",
    "zip": "97477",
    "latitude": 44.0674947,
    "longitude": -123.0267575,
    "description": "At 2163 Shadylane Dr in Springfield, Pacific Park carries 4.3 stars from 101 dog owner reviews. This park provides dog owners in the community with a place to visit with their dogs. Dog owners looking for variety can also visit Kelly Butte Park (0.9 miles) or Page Park (1.0 miles) with their four-legged friends."
  },
  {
    "name": "‍ Volunteer Park",
    "street": "4350 Mt Vernon Rd",
    "city": "Springfield",
    "state": "OR",
    "zip": "97478",
    "latitude": 44.0378554,
    "longitude": -122.9589865,
    "description": "Located at 4350 Mt Vernon Rd, Volunteer Park in Springfield is rated 4.3 stars by 130 dog owners. For dog owners in the neighborhood, this park offers a place to take their pups. Looking to explore more? Bluebelle Park is another dog-friendly park 0.5 miles from here."
  },
  {
    "name": "Heron Playground",
    "street": "Aspen St",
    "city": "Springfield",
    "state": "OR",
    "zip": "97477",
    "latitude": 44.0519639,
    "longitude": -123.0420487,
    "description": "Heron Playground holds a 4.3-star rating from 133 Springfield dog owner visits. This park provides dog owners in the community with a place to visit with their dogs. Dog owners looking for variety can also visit Kelly Butte Park (0.6 miles) or Island Park (0.8 miles) with their four-legged friends."
  },
  {
    "name": "Island Park",
    "street": "200 W B St",
    "city": "Springfield",
    "state": "OR",
    "zip": "97477",
    "latitude": 44.0465274,
    "longitude": -123.0270353,
    "description": "Located at 200 W B St in Springfield, Island Park earns strong marks from local dog owners—4.3 stars from 1,384 reviews. The park has earned its reputation among dog owners in the neighborhood as a reliable choice. Looking for more places to take your pup? Millrace Park is another popular dog park just 0.1 miles away."
  },
  {
    "name": "Willamalane Preservation Park",
    "street": "River Heights Drive",
    "city": "Springfield",
    "state": "OR",
    "zip": "97477",
    "latitude": 44.0687734,
    "longitude": -122.9755586,
    "description": "Willamalane Preservation Park in Springfield has 4.1 stars based on 18 reviews from dog owners. Open from 6am to 9pm daily, the park fits conveniently into different routines. Dog owners looking for variety can also visit Weyerhaeuser-McKenzie Natural (0.4 miles) or Arrow Park (0.8 miles) with their four-legged friends."
  },
  {
    "name": "Bark Park",
    "street": "",
    "city": "Talent",
    "state": "OR",
    "zip": "",
    "latitude": 42.243808,
    "longitude": -122.788924,
    "description": "For dog owners in the Talent area, Bark Park offers a 4.5-star experience based on 96 reviews. Open from 6am to 9pm daily, the park accommodates early risers and evening visitors alike. Dog owners exploring the neighborhood can also bring their furry friends to Blitz's Phoenix dog park (2.5 miles)."
  },
  {
    "name": "Cook Family Park",
    "street": "17005 SW 92nd Ave",
    "city": "Tigard",
    "state": "OR",
    "zip": "97224",
    "latitude": 45.3965527,
    "longitude": -122.7726114,
    "description": "Cook Family Park at 17005 SW 92nd Ave is a favorite among Tigard dog owners, earning 4.7 stars from 2,331 reviews. Open from 8am to 9pm daily, it's easy for dog owners to stop by whenever works best. Looking to mix things up? Durham City Park is a nearby dog park 0.4 miles away that's worth exploring with your pup."
  },
  {
    "name": "Orchard Park",
    "street": "SW Missouri Ave",
    "city": "Tigard",
    "state": "OR",
    "zip": "97224",
    "latitude": 45.4072707,
    "longitude": -122.8350454,
    "description": "Dog owners in Tigard have made Orchard Park a go-to spot, rating it 4.6 stars across 13 reviews. The steady stream of dog owner visits speaks to the park's appeal. Dog owners can also take their pups to nearby Jurgens Dog Park (2.6 miles) or Steeplechase Park (2.8 miles)."
  },
  {
    "name": "Dirksen Nature Park",
    "street": "11130 SW Tiedeman Ave",
    "city": "Tigard",
    "state": "OR",
    "zip": "97223",
    "latitude": 45.4386463,
    "longitude": -122.7804026,
    "description": "For dog owners in the Tigard area, Dirksen Nature Park (11130 SW Tiedeman Ave) offers a 4.6-star experience based on 375 reviews. Open from 7am to 9pm daily, dog owners can easily fit a visit into busy schedules. For a change of scenery, Ash Avenue Dog Park is another dog-friendly destination 0.9 miles from here."
  },
  {
    "name": "Potso Dog Park",
    "street": "7960 SW Hunziker Rd",
    "city": "Tigard",
    "state": "OR",
    "zip": "97223",
    "latitude": 45.427839,
    "longitude": -122.7588479,
    "description": "At 7960 SW Hunziker Rd, Potso Dog Park has 4.4 stars based on 384 reviews from Tigard dog owners. Open from 6:30am to 9pm daily, local dog owners have time to explore with their furry companions. For dog owners who like to explore, Ash Avenue Dog Park (0.5 miles) and Dirksen Nature Park (1.3 miles) are both nearby parks to try with your dog."
  },
  {
    "name": "Ash Avenue Dog Park",
    "street": "12770 SW Ash Ave",
    "city": "Tigard",
    "state": "OR",
    "zip": "97223",
    "latitude": 45.4278367,
    "longitude": -122.7699685,
    "description": "Dog owners in Tigard have rated Ash Avenue Dog Park (12770 SW Ash Ave) 4.2 stars across 239 reviews. Open from 7am to 7pm daily, the park is accessible for dog owners in the area. Dog owners might also enjoy Potso Dog Park, another dog park just 0.5 miles away."
  },
  {
    "name": "Jurgens Dog Park",
    "street": "10435 SW Jurgens Ln",
    "city": "Tualatin",
    "state": "OR",
    "zip": "97062",
    "latitude": 45.3979992,
    "longitude": -122.7832375,
    "description": "At 10435 SW Jurgens Ln in Tualatin, Jurgens Dog Park has built a loyal following—4.5 stars from 27 dog owner reviews. Dog owners in the area consistently choose this park as a go-to destination for their pups. Other dog parks in the area include Cook Family Park (0.5 miles) and Durham City Park (1.0 miles)—both great for exploring with your four-legged friend."
  },
  {
    "name": "‍ Tualatin Dog Park",
    "street": "8543 SW Tualatin Rd",
    "city": "Tualatin",
    "state": "OR",
    "zip": "97062",
    "latitude": 45.3864349,
    "longitude": -122.7649871,
    "description": "At 8543 SW Tualatin Rd in Tualatin, Tualatin Dog Park welcomes dog owners from the surrounding neighborhood. The park serves as a gathering spot for dog owners and their four-legged friends in the area. Nearby dog parks worth exploring with your pup include Durham City Park (0.7 miles) and Cook Family Park (0.8 miles)."
  },
  {
    "name": "‍ Zumwalt County Park",
    "street": "27000 Jeans Rd",
    "city": "Veneta",
    "state": "OR",
    "zip": "97487",
    "latitude": 44.072035,
    "longitude": -123.3079384,
    "description": "Veneta dog owners rate Zumwalt County Park at 27000 Jeans Rd highly, with 4.5 stars from 430 visits. Dog owners looking for a solid destination will find this park delivers. Dog owners looking for a dependable spot will find this park lives up to its ratings."
  }
]