[
  {
    "name": "Trexler Memorial Park",
    "street": "155 Springhouse Rd",
    "city": "Allentown",
    "state": "PA",
    "zip": "18104",
    "latitude": 40.5895797,
    "longitude": -75.5290027,
    "description": "For Allentown dog owners, Trexler Memorial Park at 155 Springhouse Rd has become a reliable favorite—4.8 stars from 1,327 reviews. The strong community of dog owners here reflects how much the park is valued. Nearby, Cedar Beach Park (0.9 miles) is another dog park favorite where you can take your four-legged friend."
  },
  {
    "name": "‍ Lehigh Parkway Park",
    "street": "Lehigh Parkway E",
    "city": "Allentown",
    "state": "PA",
    "zip": "18103",
    "latitude": 40.5899722,
    "longitude": -75.488314,
    "description": "Local dog owners love Lehigh Parkway Park in Allentown—4.7 stars from an impressive 1,949 reviews. Open from 5:30am to 9:45pm daily, there's always time for dog owners to bring their pup for some quality time. Want to give your pup even more adventure? West Park is another beloved dog park just 1.2 miles away."
  },
  {
    "name": "Allen Township Dog Park",
    "street": "",
    "city": "Allentown",
    "state": "PA",
    "zip": "",
    "latitude": 40.7451356,
    "longitude": -75.3289302,
    "description": "Dog owners in Allentown have made Allen Township Dog Park a go-to spot, rating it 4.7 stars across 259 reviews. Dog owners in the area consistently choose this park as a go-to destination for their pups. For a change of scenery, Nazareth Dog Park is another dog-friendly destination 0.8 miles from here."
  },
  {
    "name": "Monocacy park-off leash recrea",
    "street": "",
    "city": "Allentown",
    "state": "PA",
    "zip": "",
    "latitude": 40.6178915,
    "longitude": -75.3786521,
    "description": "In Allentown, Monocacy park-off leash recrea earns strong marks from local dog owners—4.6 stars from 67 reviews. For dog owners in the area, this park has become a trusted spot for time with their pups. Nearby, Keck Park (3.5 miles) offers dog owners another great spot to explore with their pups."
  },
  {
    "name": "Nazareth Dog Park",
    "street": "Black Rock RdNazareth",
    "city": "Allentown",
    "state": "PA",
    "zip": "18064",
    "latitude": 40.7482916,
    "longitude": -75.3146863,
    "description": "With 4.6 stars from 121 reviews, Nazareth Dog Park has become a favorite among Allentown dog owners. Open from 6am to 7pm daily, dog owners can plan visits around work or their pup's energy level. Dog owners exploring the neighborhood can also bring their furry friends to Allen Township Dog Park (0.8 miles)."
  },
  {
    "name": "Cedar Creek Parkway West Dog",
    "street": "466 Parkway Rd",
    "city": "Allentown",
    "state": "PA",
    "zip": "18104",
    "latitude": 40.5972362,
    "longitude": -75.5471978,
    "description": "At 466 Parkway Rd in Allentown, Cedar Creek Parkway West Dog has built a loyal following—4.6 stars from 132 dog owner reviews. Dog owners in the area consistently choose this park as a go-to destination for their pups. More dog-friendly parks nearby include Trexler Memorial Park (1.1 miles) and Cedar Beach Park (1.8 miles)—perfect for pups who love adventure."
  },
  {
    "name": "Hanover Canal Park",
    "street": "1960 N Dauphin St",
    "city": "Allentown",
    "state": "PA",
    "zip": "18109",
    "latitude": 40.6412141,
    "longitude": -75.4617494,
    "description": "Hanover Canal Park (4.6 stars from 207 reviews) is a popular destination for Allentown dog owners, located at 1960 N Dauphin St. Open from 5am to 9pm daily, there's room in the day for dog owners to bring their furry friends. More dog-friendly parks nearby include Keck Park (2.7 miles) and West Park (2.7 miles)—perfect for pups who love adventure."
  },
  {
    "name": "Polk Valley Park",
    "street": "2068 Polk Valley RdHellertown",
    "city": "Allentown",
    "state": "PA",
    "zip": "18055",
    "latitude": 40.5674259,
    "longitude": -75.3312482,
    "description": "Located at 2068 Polk Valley Rd in Allentown, Polk Valley Park earns strong marks from local dog owners—4.6 stars from 214 reviews. Dog owners frequent this park for its consistent quality and welcoming atmosphere. Looking for more places to take your pup? Monocacy park-off leash recrea is another popular dog park just 4.3 miles away."
  },
  {
    "name": "West Park",
    "street": "Linden St",
    "city": "Allentown",
    "state": "PA",
    "zip": "18102",
    "latitude": 40.6032688,
    "longitude": -75.4737762,
    "description": "Allentown dog owners rate West Park highly, with 4.6 stars from 548 visits. The park serves dog owners well, providing a destination the community values. Looking for more places to take your pup? Lehigh County Sports Fields is another popular dog park just 0.2 miles away."
  },
  {
    "name": "Cedar Beach Park",
    "street": "2600 Parkway Blvd",
    "city": "Allentown",
    "state": "PA",
    "zip": "18104",
    "latitude": 40.5941497,
    "longitude": -75.5129752,
    "description": "At 2600 Parkway Blvd in Allentown, Cedar Beach Park stands out with 4.6 stars from 2,350 happy dog owners. The community of dog owners here is welcoming and the atmosphere consistently positive. For more dog park adventures, explore Trexler Memorial Park (0.9 miles) or Lehigh Parkway Park (1.3 miles) with your furry companion."
  },
  {
    "name": "Route 100 Off-Leash Dog Park",
    "street": "1625 PA-100Fogelsville",
    "city": "Allentown",
    "state": "PA",
    "zip": "18051",
    "latitude": 40.5915788,
    "longitude": -75.6301213,
    "description": "For dog owners in the Allentown area, Route 100 Off-Leash Dog Park (1625 PA-100) offers a 4.5-star experience based on 141 reviews. The steady stream of dog owner visits speaks to the park's appeal. Nearby, Cedar Creek Parkway West Dog (4.4 miles) offers dog owners another great spot to explore with their pups."
  },
  {
    "name": "Lower Macungie Dog Park",
    "street": "",
    "city": "Allentown",
    "state": "PA",
    "zip": "",
    "latitude": 40.5159304,
    "longitude": -75.5551858,
    "description": "With 4.5 stars from 164 reviews, Lower Macungie Dog Park has become a favorite among Allentown dog owners. Open from 5am to 9pm daily, dog owners can plan visits around work or their pup's energy level. Local dog owners have clearly found this to be a worthwhile destination."
  },
  {
    "name": "Lehigh County Sports Fields",
    "street": "",
    "city": "Allentown",
    "state": "PA",
    "zip": "",
    "latitude": 40.6022059,
    "longitude": -75.4712794,
    "description": "With 4.5 stars from 306 reviews, Lehigh County Sports Fields has become a favorite among Allentown dog owners. Open from 7am to 7pm daily, there's room in the day for dog owners to bring their furry friends. Looking for more places to take your pup? West Park is another popular dog park just 0.2 miles away."
  },
  {
    "name": "Keck Park",
    "street": "E Mosser St",
    "city": "Allentown",
    "state": "PA",
    "zip": "18109",
    "latitude": 40.6048616,
    "longitude": -75.4430459,
    "description": "Keck Park in Allentown has 4.2 stars from 309 dog owner reviews. Dog owners looking for a local destination will find this park accessible. Looking to explore more? Lehigh County Sports Fields is another dog-friendly park 1.5 miles from here."
  },
  {
    "name": "Erie Humane Society Dog Park",
    "street": "2407 Zimmerly Rd",
    "city": "Erie",
    "state": "PA",
    "zip": "16506",
    "latitude": 42.0656042,
    "longitude": -80.1112357,
    "description": "Erie Humane Society Dog Park (4.7 stars from 55 reviews) is a popular destination for Erie dog owners, located at 2407 Zimmerly Rd. The steady stream of dog owner visits speaks to the park's appeal. For a change of scenery, Zuck Park is another dog-friendly destination 0.8 miles from here."
  },
  {
    "name": "McClelland Park",
    "street": "2600 E 26th St",
    "city": "Erie",
    "state": "PA",
    "zip": "16510",
    "latitude": 42.1323633,
    "longitude": -80.0169996,
    "description": "With 4.6 stars from 431 reviews, McClelland Park at 2600 E 26th St has become a favorite among Erie dog owners. Open from 7am to 9pm daily, there's plenty of opportunity for dog owners to find a time that works. Nearby, Roma Park (1.1 miles) offers dog owners another great spot to explore with their pups."
  },
  {
    "name": "Zuck Park",
    "street": "2612 W Grandview Blvd",
    "city": "Erie",
    "state": "PA",
    "zip": "16506",
    "latitude": 42.0742332,
    "longitude": -80.1205505,
    "description": "At 2612 W Grandview Blvd, Zuck Park has 4.4 stars based on 122 reviews from Erie dog owners. Dog owners in the area appreciate having a local spot to bring their pups. Dog owners in the neighborhood can also take their furry friends to Erie Humane Society Dog Park, 0.8 miles away."
  },
  {
    "name": "Roma Park",
    "street": "3400 Zimmerman Rd",
    "city": "Erie",
    "state": "PA",
    "zip": "16510",
    "latitude": 42.11952,
    "longitude": -80.031155,
    "description": "Roma Park (3400 Zimmerman Rd) serves dog owners in the Erie neighborhood looking for a place to visit with their pups. For dog owners in the neighborhood, this park offers a place to take their pups. Dog owners in the neighborhood can also take their furry friends to McClelland Park, 1.1 miles away."
  },
  {
    "name": "Concord Dog Park",
    "street": "725 Smithbridge Rd",
    "city": "Glen Mills",
    "state": "PA",
    "zip": "19342",
    "latitude": 39.865798,
    "longitude": -75.5155659,
    "description": "Dog owners in Glen Mills have made Concord Dog Park at 725 Smithbridge Rd a go-to spot, rating it 4.6 stars across 122 reviews. The park has earned its reputation among dog owners in the neighborhood as a reliable choice. Based on the reviews, dog owners can expect a reliable spot for spending time with their pup."
  },
  {
    "name": "Wildwood Park",
    "street": "100 Wildwood Way",
    "city": "Harrisburg",
    "state": "PA",
    "zip": "17110",
    "latitude": 40.3067466,
    "longitude": -76.8823788,
    "description": "1,955 dog owners have made Wildwood Park (100 Wildwood Way) one of Harrisburg's most trusted parks (4.7 stars). Open from 6am to 7pm daily, dog owners can easily fit a visit into their day, whether morning or evening. Nearby, Shutt Mill Park (0.3 miles) is another dog park favorite where you can take your four-legged friend."
  },
  {
    "name": "‍ Adams-Ricci Park",
    "street": "100 E Penn DrEnola",
    "city": "Harrisburg",
    "state": "PA",
    "zip": "17025",
    "latitude": 40.2755953,
    "longitude": -76.939922,
    "description": "Dog owners in Harrisburg have embraced Adams-Ricci Park (100 E Penn Dr) as a top destination—4.7 stars from 1,660 visits. Open from 6am to 11pm daily, it's easy for dog owners to stop by whenever works best. Dog owners in the area also love bringing their pups to Penn and Dauphin Park (2.2 miles) and Riverfront Park (3.4 miles)."
  },
  {
    "name": "Doggie Dugout-Registration",
    "street": "4075 Lisburn RdBowmansdale",
    "city": "Harrisburg",
    "state": "PA",
    "zip": "17055",
    "latitude": 40.1673617,
    "longitude": -76.9751428,
    "description": "Harrisburg dog owners rate Doggie Dugout-Registration at 4075 Lisburn Rd highly, with 4.8 stars from 15 visits. Dog owners in the area consistently choose this park as a go-to destination for their pups. The consistent ratings suggest dog owners know what to expect here."
  },
  {
    "name": "Penn and Dauphin Park",
    "street": "Penn St",
    "city": "Harrisburg",
    "state": "PA",
    "zip": "17102",
    "latitude": 40.28804,
    "longitude": -76.9022983,
    "description": "Penn and Dauphin Park is well-regarded by Harrisburg dog owners, holding 4.7 stars across 9 reviews. Open from 6am to 8pm daily, the park offers flexibility for dog owners with varying routines. More dog-friendly parks nearby include Wildwood Park (1.7 miles) and Shutt Mill Park (1.9 miles)—perfect for pups who love adventure."
  },
  {
    "name": "Riverfront Park",
    "street": "200 S Front St",
    "city": "Harrisburg",
    "state": "PA",
    "zip": "17104",
    "latitude": 40.256756,
    "longitude": -76.879971,
    "description": "Riverfront Park (4.6 stars from 429 reviews) is a popular destination for Harrisburg dog owners, located at 200 S Front St. Open from 6am to 9:30pm daily, the park accommodates early risers and evening visitors alike. Dog owners can also take their pups to nearby Reservoir Park (1.5 miles) or Penn and Dauphin Park (2.5 miles)."
  },
  {
    "name": "Shutt Mill Park",
    "street": "Crooked Hill Rd",
    "city": "Harrisburg",
    "state": "PA",
    "zip": "17110",
    "latitude": 40.3085323,
    "longitude": -76.8781354,
    "description": "Harrisburg dog owners have access to Shutt Mill Park for outings with their four-legged friends. Local dog owners use this park as a spot to spend time with their furry companions. Looking to explore more? Wildwood Park is another dog-friendly park 0.3 miles from here."
  },
  {
    "name": "Reservoir Park",
    "street": "100 Concert Dr",
    "city": "Harrisburg",
    "state": "PA",
    "zip": "17103",
    "latitude": 40.272449,
    "longitude": -76.861207,
    "description": "For dog owners in the Harrisburg area, Reservoir Park (100 Concert Dr) offers a 4.3-star experience based on 1,173 reviews. Open from 6am to 10pm daily, dog owners can plan visits around work or their pup's energy level. For variety, the neighborhood offers more dog parks to explore: Riverfront Park (1.5 miles) and Penn and Dauphin Park (2.4 miles)."
  },
  {
    "name": "John Rudy County Park",
    "street": "400 Mundis Race Rd",
    "city": "Lancaster",
    "state": "PA",
    "zip": "17406",
    "latitude": 40.020768,
    "longitude": -76.706203,
    "description": "Local dog owners love John Rudy County Park at 400 Mundis Race Rd in Lancaster—4.8 stars from an impressive 1,400 reviews. Open from 8am to 8pm daily, dog owners can plan visits around their pup's favorite times to be active. The strong ratings from so many dog owners reflect a park that delivers on expectations."
  },
  {
    "name": "Long's Park",
    "street": "1441 Harrisburg Pike",
    "city": "Lancaster",
    "state": "PA",
    "zip": "17601",
    "latitude": 40.0600368,
    "longitude": -76.335273,
    "description": "For Lancaster dog owners, Long's Park at 1441 Harrisburg Pike has become a reliable favorite—4.7 stars from 2,663 reviews. Open from 7am to 10pm daily, dog owners can plan visits around their pup's favorite times to be active. Looking to mix things up? Noel Dorwart Park is a nearby dog park 1.1 miles away that's worth exploring with your pup."
  },
  {
    "name": "Lancaster County Central Park",
    "street": "1050 Rockford Rd",
    "city": "Lancaster",
    "state": "PA",
    "zip": "17602",
    "latitude": 40.0233354,
    "longitude": -76.2831125,
    "description": "Dog owners in Lancaster have embraced Lancaster County Central Park (1050 Rockford Rd) as a top destination—4.7 stars from 1,730 visits. Open from 7am to 5pm daily, dog owners have plenty of flexibility to visit when it suits their schedule. Looking to mix things up? D.F. Buchmiller County Park is a nearby dog park 1.2 miles away that's worth exploring with your pup."
  },
  {
    "name": "Buchanan Park",
    "street": "901 Buchanan Ave",
    "city": "Lancaster",
    "state": "PA",
    "zip": "17603",
    "latitude": 40.043626,
    "longitude": -76.321914,
    "description": "At 901 Buchanan Ave in Lancaster, Buchanan Park has built a loyal following—4.7 stars from 847 dog owner reviews. Open from 6am to 9pm daily, dog owners can easily fit a visit into busy schedules. More dog-friendly parks nearby include Beau’s Dream Dog Park (0.0 miles) and Long's Park (1.3 miles)—perfect for pups who love adventure."
  },
  {
    "name": "Noel Dorwart Park",
    "street": "408 Parklawn Ct",
    "city": "Lancaster",
    "state": "PA",
    "zip": "17601",
    "latitude": 40.0545945,
    "longitude": -76.3553584,
    "description": "Located at 408 Parklawn Ct in Lancaster, Noel Dorwart Park earns strong marks from local dog owners—4.6 stars from 259 reviews. Open from 7am to 8:30pm daily, dog owners can plan visits around work or their pup's energy level. Looking for more places to take your pup? Long's Park is another popular dog park just 1.1 miles away."
  },
  {
    "name": "D.F. Buchmiller County Park",
    "street": "60 Buchmiller Park Dr",
    "city": "Lancaster",
    "state": "PA",
    "zip": "17602",
    "latitude": 40.014759,
    "longitude": -76.302143,
    "description": "D.F. Buchmiller County Park at 60 Buchmiller Park Dr is well-regarded by Lancaster dog owners, holding 4.6 stars across 466 reviews. Open from 7am to 6pm daily, there's plenty of opportunity for dog owners to find a time that works. For variety, the neighborhood offers more dog parks to explore: Lancaster County Central Park (1.2 miles) and Beau’s Dream Dog Park (2.3 miles)."
  },
  {
    "name": "Overlook Park",
    "street": "2040 Lititz Pike",
    "city": "Lancaster",
    "state": "PA",
    "zip": "17601",
    "latitude": 40.082289,
    "longitude": -76.308413,
    "description": "With 4.6 stars across 1,437 reviews, Overlook Park at 2040 Lititz Pike has clearly won over Lancaster dog owners. Open from 7am to 10pm daily, dog owners have room to work around busy schedules. Want to give your pup even more adventure? Overlook Dog Park is another beloved dog park just 1.1 miles away."
  },
  {
    "name": "Flory Park",
    "street": "416 Dohner Dr",
    "city": "Lancaster",
    "state": "PA",
    "zip": "17602",
    "latitude": 40.0240859,
    "longitude": -76.2357058,
    "description": "Located at 416 Dohner Dr in Lancaster, Flory Park earns strong marks from local dog owners—4.5 stars from 139 reviews. Open from 6am to 9pm daily, dog owners can plan visits around work or their pup's energy level. Other dog parks in the area include Lancaster County Central Park (2.5 miles) and D.F. Buchmiller County Park (3.6 miles)—both great for exploring with your four-legged friend."
  },
  {
    "name": "Falls Lake",
    "street": "9125 Mill Creek Pkwy",
    "city": "Levittown",
    "state": "PA",
    "zip": "19054",
    "latitude": 40.1504585,
    "longitude": -74.8354495,
    "description": "Dog owners in Levittown have made Falls Lake at 9125 Mill Creek Pkwy a go-to spot, rating it 4.8 stars across 47 reviews. The park has earned its reputation among dog owners in the neighborhood as a reliable choice. Based on the reviews, dog owners can expect a reliable spot for spending time with their pup."
  },
  {
    "name": "Morrisville Dog Park",
    "street": "E Philadelphia Ave",
    "city": "‍ Morrisville",
    "state": "PA",
    "zip": "19067",
    "latitude": 40.204594,
    "longitude": -74.7711136,
    "description": "298 dog owners have reviewed Morrisville Dog Park in Morrisville, averaging 4.1 stars. Open from 7am to 8pm daily, the park gives dog owners in the neighborhood time to bring their pups. Looking to explore more? South Riverwalk Park is another dog-friendly park 0.4 miles from here."
  },
  {
    "name": "Wissahickon Valley Park",
    "street": "200 Northwestern Ave",
    "city": "Philadelphia",
    "state": "PA",
    "zip": "19118",
    "latitude": 40.0553587,
    "longitude": -75.2174427,
    "description": "Wissahickon Valley Park at 200 Northwestern Ave in Philadelphia has earned its reputation with 4.8 stars from 6,526 dog owner reviews. Open from 6am to 6pm daily, dog owners have generous hours to visit with their pups. The neighborhood offers dog owners more places to bring their pups: Gorgas Park (1.3 miles) and Pastorius Park (1.3 miles)."
  },
  {
    "name": "Schuylkill River Park",
    "street": "300 S 25th St",
    "city": "Philadelphia",
    "state": "PA",
    "zip": "19103",
    "latitude": 39.948197,
    "longitude": -75.181425,
    "description": "For Philadelphia dog owners, Schuylkill River Park at 300 S 25th St has become a reliable favorite—4.8 stars from 1,774 reviews. The community of dog owners here is welcoming and the atmosphere consistently positive. Dog owners in the area also love bringing their pups to Markward Playground (0.1 miles) and Julian Abele Park (0.5 miles)."
  },
  {
    "name": "Big Dog Run",
    "street": "",
    "city": "Philadelphia",
    "state": "PA",
    "zip": "",
    "latitude": 39.9527237,
    "longitude": -75.1635262,
    "description": "Big Dog Run is well-regarded by Philadelphia dog owners, holding 4.8 stars across 287 reviews. Open from 6:30am to 9pm daily, dog owners have plenty of flexibility to plan a visit. Other dog parks in the area include Pleasant Hill Park (0.0 miles) and Columbus Square Dog Park (0.0 miles)—both great for exploring with your four-legged friend."
  },
  {
    "name": "‍ West Mill Creek Park",
    "street": "Mill Creek RdGladwyne",
    "city": "Philadelphia",
    "state": "PA",
    "zip": "19035",
    "latitude": 40.0407027,
    "longitude": -75.2622669,
    "description": "Dog owners in Philadelphia have made West Mill Creek Park a go-to spot, rating it 4.8 stars across 263 reviews. Open from 7am to 7pm daily, dog owners can plan visits around work or their pup's energy level. Looking for more places to take your pup? Rolling Hill Park is another popular dog park just 0.3 miles away."
  },
  {
    "name": "Harford Park",
    "street": "260 Gulph Creek RdWayne",
    "city": "Philadelphia",
    "state": "PA",
    "zip": "19087",
    "latitude": 40.0537366,
    "longitude": -75.3584347,
    "description": "With 4.8 stars from 232 reviews, Harford Park at 260 Gulph Creek Rd has become a favorite among Philadelphia dog owners. Open from 8am to 9pm daily, there's room in the day for dog owners to bring their furry friends. Nearby, Haverford Reserve Dog Park (4.2 miles) offers dog owners another great spot to explore with their pups."
  },
  {
    "name": "The Boozy Mutt",
    "street": "2639 Poplar St",
    "city": "Philadelphia",
    "state": "PA",
    "zip": "19130",
    "latitude": 39.9730034,
    "longitude": -75.180577,
    "description": "With 4.8 stars from 177 reviews, The Boozy Mutt at 2639 Poplar St has become a favorite among Philadelphia dog owners. The steady stream of dog owner visits speaks to the park's appeal. For a change of scenery, East Fairmount Park is another dog-friendly destination 0.8 miles from here."
  },
  {
    "name": "‍ Orianna Hill Park",
    "street": "901-913 N Orianna St",
    "city": "Philadelphia",
    "state": "PA",
    "zip": "19123",
    "latitude": 39.9663562,
    "longitude": -75.1431109,
    "description": "Dog owners in Philadelphia have made Orianna Hill Park at 901-913 N Orianna St a go-to spot, rating it 4.9 stars across 30 reviews. The park has earned its reputation among dog owners in the neighborhood as a reliable choice. Other dog parks in the area include Piazza Dog Park (0.3 miles) and Benson Park (0.5 miles)—both great for exploring with your four-legged friend."
  },
  {
    "name": "Mario Lanza Park",
    "street": "214 Catharine St",
    "city": "Philadelphia",
    "state": "PA",
    "zip": "19147",
    "latitude": 39.937627,
    "longitude": -75.1470115,
    "description": "Philadelphia dog owners rate Mario Lanza Park at 214 Catharine St highly, with 4.8 stars from 46 visits. The park has earned its reputation among dog owners in the neighborhood as a reliable choice. Looking for more places to take your pup? Cianfrani Park is another popular dog park just 0.5 miles away."
  },
  {
    "name": "‍ Fairmount Park",
    "street": "4231 N Concourse Dr",
    "city": "Philadelphia",
    "state": "PA",
    "zip": "19104",
    "latitude": 39.9887378,
    "longitude": -75.1929822,
    "description": "2,273 dog owners have made Fairmount Park (4231 N Concourse Dr) one of Philadelphia's most trusted parks (4.7 stars). The community of dog owners here is welcoming and the atmosphere consistently positive. Looking to mix things up? East Fairmount Park is a nearby dog park 0.7 miles away that's worth exploring with your pup."
  },
  {
    "name": "Drexel Park",
    "street": "3100 Powelton Ave",
    "city": "Philadelphia",
    "state": "PA",
    "zip": "19104",
    "latitude": 39.960514,
    "longitude": -75.187309,
    "description": "Philadelphia dog owners rate Drexel Park at 3100 Powelton Ave highly, with 4.7 stars from 687 visits. The park has earned its reputation among dog owners in the neighborhood as a reliable choice. For a change of scenery, Saunders Park is another dog-friendly destination 0.6 miles from here."
  },
  {
    "name": "Rolling Hill Park",
    "street": "1301 Rose Glen RdGladwyne",
    "city": "Philadelphia",
    "state": "PA",
    "zip": "19035",
    "latitude": 40.0428767,
    "longitude": -75.2682252,
    "description": "For dog owners in the Philadelphia area, Rolling Hill Park (1301 Rose Glen Rd) offers a 4.7-star experience based on 471 reviews. Open from 6am to 8pm daily, there's plenty of opportunity for dog owners to find a time that works. Nearby, West Mill Creek Park (0.3 miles) offers dog owners another great spot to explore with their pups."
  },
  {
    "name": "Seger Dog Park",
    "street": "1001 Rodman St",
    "city": "Philadelphia",
    "state": "PA",
    "zip": "19107",
    "latitude": 39.943311,
    "longitude": -75.15868,
    "description": "Seger Dog Park (4.7 stars from 430 reviews) is a popular destination for Philadelphia dog owners, located at 1001 Rodman St. The steady stream of dog owner visits speaks to the park's appeal. Dog owners exploring the neighborhood can also bring their furry friends to Seger Park (0.0 miles)."
  },
  {
    "name": "‍ Horsham Dog Park",
    "street": "1013 Horsham RdHorsham",
    "city": "Philadelphia",
    "state": "PA",
    "zip": "19044",
    "latitude": 40.2055655,
    "longitude": -75.1745892,
    "description": "Horsham Dog Park at 1013 Horsham Rd is well-regarded by Philadelphia dog owners, holding 4.7 stars across 354 reviews. Open from 7am to 7pm daily, there's room in the day for dog owners to bring their furry friends. The steady stream of positive reviews suggests dog owners consistently have good experiences here."
  },
  {
    "name": "Markward Playground",
    "street": "400 S Taney St",
    "city": "Philadelphia",
    "state": "PA",
    "zip": "19146",
    "latitude": 39.9480134,
    "longitude": -75.1834155,
    "description": "With 4.7 stars from 201 reviews, Markward Playground at 400 S Taney St has become a favorite among Philadelphia dog owners. Dog owners in the area consistently choose this park as a go-to destination for their pups. Dog owners exploring the neighborhood can also bring their furry friends to Schuylkill River Park (0.1 miles)."
  },
  {
    "name": "Pastorius Park",
    "street": "8177 Roanoke St",
    "city": "Philadelphia",
    "state": "PA",
    "zip": "19118",
    "latitude": 40.0715038,
    "longitude": -75.2037974,
    "description": "Dog owners in Philadelphia have made Pastorius Park at 8177 Roanoke St a go-to spot, rating it 4.7 stars across 131 reviews. The park has earned its reputation among dog owners in the neighborhood as a reliable choice. Dog owners can also take their pups to nearby Wissahickon Valley Park (1.3 miles) or Gorgas Park (2.5 miles)."
  },
  {
    "name": "Cianfrani Park",
    "street": "721 S 8th St",
    "city": "Philadelphia",
    "state": "PA",
    "zip": "19147",
    "latitude": 39.9410998,
    "longitude": -75.1556515,
    "description": "Dog owners in Philadelphia have made Cianfrani Park at 721 S 8th St a go-to spot, rating it 4.7 stars across 50 reviews. Local dog owners appreciate what this park offers their four-legged friends. More dog-friendly parks nearby include Seger Dog Park (0.2 miles) and Seger Park (0.3 miles)—perfect for pups who love adventure."
  },
  {
    "name": "Frick Park",
    "street": "1981 Beechwood Blvd",
    "city": "‍ Pittsburgh",
    "state": "PA",
    "zip": "15217",
    "latitude": 40.4363096,
    "longitude": -79.9087453,
    "description": "For Pittsburgh dog owners, Frick Park at 1981 Beechwood Blvd has become a reliable favorite—4.8 stars from 3,884 reviews. Open from 6am to 11pm daily, dog owners can plan visits around their pup's favorite times to be active. Other popular dog parks nearby include Dog Park (1.0 miles) and Blue Slide Playground (1.0 miles)—both favorites among local pup parents."
  },
  {
    "name": "‍ Mingo Creek County Park",
    "street": "3111 Route 136Finleyville",
    "city": "‍ Pittsburgh",
    "state": "PA",
    "zip": "15332",
    "latitude": 40.2522922,
    "longitude": -80.0028294,
    "description": "With 4.8 stars across 1,951 reviews, Mingo Creek County Park at 3111 Route 136 has clearly won over Pittsburgh dog owners. Open from 7am to 8pm daily, dog owners can plan visits around their pup's favorite times to be active. For more dog park adventures, explore South Park (3.7 miles) or South Park (4.4 miles) with your furry companion."
  },
  {
    "name": "‍ West End Overlook Park",
    "street": "Marlow St",
    "city": "‍ Pittsburgh",
    "state": "PA",
    "zip": "15205",
    "latitude": 40.4432639,
    "longitude": -80.039522,
    "description": "Dog owners in Pittsburgh have embraced West End Overlook Park as a top destination—4.8 stars from 1,614 visits. Open from 11am to 9pm daily, dog owners have room to work around busy schedules. Nearby, Green Tree Park (0.8 miles) is another dog park favorite where you can take your four-legged friend."
  },
  {
    "name": "Blue Slide Playground",
    "street": "Frick Park",
    "city": "‍ Pittsburgh",
    "state": "PA",
    "zip": "15217",
    "latitude": 40.4220738,
    "longitude": -79.9126895,
    "description": "In Pittsburgh, Blue Slide Playground stands out with 4.8 stars from 1,210 happy dog owners. The strong community of dog owners here reflects how much the park is valued. Want to give your pup even more adventure? Frick Park is another beloved dog park just 1.0 miles away."
  },
  {
    "name": "The Dog Penn",
    "street": "2614 Penn Ave",
    "city": "‍ Pittsburgh",
    "state": "PA",
    "zip": "15222",
    "latitude": 40.4550426,
    "longitude": -79.9780848,
    "description": "The Dog Penn at 2614 Penn Ave is well-regarded by Pittsburgh dog owners, holding 5.0 stars across 17 reviews. Dog owners looking for a solid destination will find this park delivers. For a change of scenery, Schenley Park is another dog-friendly destination 1.1 miles from here."
  },
  {
    "name": "‍ Sewickley Heights Borough Park",
    "street": "Hallaway RdSewickley",
    "city": "‍ Pittsburgh",
    "state": "PA",
    "zip": "15143",
    "latitude": 40.5708898,
    "longitude": -80.1500158,
    "description": "Sewickley Heights Borough Park is well-regarded by Pittsburgh dog owners, holding 4.8 stars across 148 reviews. Open from 6am to 8pm daily, dog owners can plan visits around work or their pup's energy level. The reviews indicate this is a trusted destination for dog owners in the area."
  },
  {
    "name": "Bark Park",
    "street": "310 recreation roadBridgeville",
    "city": "‍ Pittsburgh",
    "state": "PA",
    "zip": "15017",
    "latitude": 40.3260814,
    "longitude": -80.1153466,
    "description": "Located at 310 recreation road in Pittsburgh, Bark Park earns strong marks from local dog owners—4.8 stars from 41 reviews. The steady stream of dog owner visits speaks to the park's appeal. For a change of scenery, Bird Park is another dog-friendly destination 4.1 miles from here."
  },
  {
    "name": "White Oak Dog Park",
    "street": "3 Muse LaneWhite Oak",
    "city": "‍ Pittsburgh",
    "state": "PA",
    "zip": "15131",
    "latitude": 40.3412106,
    "longitude": -79.7784443,
    "description": "For dog owners in the Pittsburgh area, White Oak Dog Park (3 Muse Lane) offers a 4.8-star experience based on 31 reviews. Dog owners frequent this park for its consistent quality and welcoming atmosphere. Looking for more places to take your pup? West Mifflin Dog Park is another popular dog park just 4.8 miles away."
  },
  {
    "name": "‍ Point State Park",
    "street": "601 Commonwealth Pl",
    "city": "‍ Pittsburgh",
    "state": "PA",
    "zip": "15222",
    "latitude": 40.4399669,
    "longitude": -80.0071146,
    "description": "Point State Park at 601 Commonwealth Pl is one of the most beloved dog parks in Pittsburgh—4.7 stars from an incredible 9,120 reviews. Open from 7am to 11pm daily, dog owners rarely have to rush—there's time to let pups fully enjoy the space. For dog owners wanting to explore more with their furry friends, Bernard Dog Run is another great dog park just 0.4 miles away."
  },
  {
    "name": "Schenley Park",
    "street": "101 Panther Hollow Rd",
    "city": "‍ Pittsburgh",
    "state": "PA",
    "zip": "15213",
    "latitude": 40.4416941,
    "longitude": -79.9900861,
    "description": "At 101 Panther Hollow Rd in Pittsburgh, Schenley Park draws dog owners from across the area—4.7 stars from 8,338 reviews. Open from 6am to 11pm daily, dog owners have maximum flexibility to plan their visit. For dog owners wanting to explore more with their furry friends, Highland Park is another great dog park just 0.0 miles away."
  },
  {
    "name": "Emerald View Park",
    "street": "301 Shiloh St",
    "city": "‍ Pittsburgh",
    "state": "PA",
    "zip": "15211",
    "latitude": 40.4269073,
    "longitude": -79.9998388,
    "description": "Emerald View Park at 301 Shiloh St in Pittsburgh is a community favorite, with 3,514 dog owners giving it 4.7 stars. Open from 6am to 11pm daily, it's easy for dog owners to stop by whenever works best. Nearby, Bernard Dog Run (0.7 miles) is another dog park favorite where you can take your four-legged friend."
  },
  {
    "name": "Bellevue Dog Woods",
    "street": "",
    "city": "‍ Pittsburgh",
    "state": "PA",
    "zip": "",
    "latitude": 40.5222907,
    "longitude": -80.0342217,
    "description": "Bellevue Dog Woods (4.7 stars from 156 reviews) is a popular destination for Pittsburgh dog owners. Open from 7am to 7pm daily, the park accommodates early risers and evening visitors alike. Dog owners exploring the neighborhood can also bring their furry friends to Riverview Dog Park (2.8 miles)."
  },
  {
    "name": "Eliza Fox Trail Park",
    "street": "401 Fox Chapel Rd",
    "city": "‍ Pittsburgh",
    "state": "PA",
    "zip": "15238",
    "latitude": 40.5148147,
    "longitude": -79.8797097,
    "description": "Eliza Fox Trail Park at 401 Fox Chapel Rd is well-regarded by Pittsburgh dog owners, holding 4.7 stars across 58 reviews. Local dog owners appreciate what this park offers their four-legged friends. For a change of scenery, Riverside Park is another dog-friendly destination 1.8 miles from here."
  },
  {
    "name": "The Indoor Dog Park",
    "street": "2714 Rochester RdCranberry Twp",
    "city": "‍ Pittsburgh",
    "state": "PA",
    "zip": "16066",
    "latitude": 40.6959871,
    "longitude": -80.1348194,
    "description": "For dog owners in the Pittsburgh area, The Indoor Dog Park (2714 Rochester Rd) offers a 4.7-star experience based on 53 reviews. The steady stream of dog owner visits speaks to the park's appeal. For a change of scenery, Cranberry Township Dog Park is another dog-friendly destination 1.8 miles from here."
  },
  {
    "name": "Levity Brewing SSW Dog Park",
    "street": "2706 S Water St",
    "city": "‍ Pittsburgh",
    "state": "PA",
    "zip": "15203",
    "latitude": 40.4282396,
    "longitude": -79.9643012,
    "description": "At 2706 S Water St in Pittsburgh, Levity Brewing SSW Dog Park has built a loyal following—4.7 stars from 17 dog owner reviews. For dog owners in the area, this park has become a trusted spot for time with their pups. For variety, the neighborhood offers more dog parks to explore: South Side Dog Park (0.0 miles) and Schenley Park (1.6 miles)."
  },
  {
    "name": "Wyomissing Park",
    "street": "1985 Old Wyomissing Rd",
    "city": "Reading",
    "state": "PA",
    "zip": "19610",
    "latitude": 40.3223562,
    "longitude": -75.9588439,
    "description": "Wyomissing Park (4.9 stars from 163 reviews) is a popular destination for Reading dog owners, located at 1985 Old Wyomissing Rd. Open from 8am to 5pm daily, dog owners can easily fit a visit into busy schedules. More dog-friendly parks nearby include Wyomissing Park (0.3 miles) and Reading Public Museum Arboretu (0.5 miles)—perfect for pups who love adventure."
  },
  {
    "name": "Nolde Forest - Sawmill",
    "street": "3025 New Holland Rd",
    "city": "Reading",
    "state": "PA",
    "zip": "19607",
    "latitude": 40.3141921,
    "longitude": -75.9399668,
    "description": "Located at 3025 New Holland Rd in Reading, Nolde Forest - Sawmill earns strong marks from local dog owners—4.8 stars from 525 reviews. Open from 8am to 4pm weekdays, there's plenty of opportunity for dog owners to find a time that works. Looking for more places to take your pup? Schuylkill River Trail Brentwo is another popular dog park just 0.8 miles away."
  },
  {
    "name": "Angora Fruit Farm, Berks Count",
    "street": "502 Angora Rd",
    "city": "Reading",
    "state": "PA",
    "zip": "19606",
    "latitude": 40.339114,
    "longitude": -75.8996409,
    "description": "Angora Fruit Farm, Berks Count at 502 Angora Rd is well-regarded by Reading dog owners, holding 4.9 stars across 13 reviews. Open from 8am to 5:30pm daily, there's room in the day for dog owners to bring their furry friends. Dog owners can also take their pups to nearby Antietam Lake Park (0.0 miles) or Mineral Spring Park (0.4 miles)."
  },
  {
    "name": "‍ French Creek State Park",
    "street": "843 Park RdElverson",
    "city": "Reading",
    "state": "PA",
    "zip": "19520",
    "latitude": 40.1982424,
    "longitude": -75.792872,
    "description": "2,666 dog owners have made French Creek State Park (843 Park Rd) one of Reading's most trusted parks (4.7 stars). Open from 8am to 9pm daily, dog owners have plenty of flexibility to visit when it suits their schedule. Nearby, Danielle Ruiz-Murphy Center (4.9 miles) is another dog park favorite where you can take your four-legged friend."
  },
  {
    "name": "Reading Public Museum Arboretu",
    "street": "1218 Parkside Dr S",
    "city": "Reading",
    "state": "PA",
    "zip": "19611",
    "latitude": 40.3273723,
    "longitude": -75.9529702,
    "description": "Dog owners in Reading have embraced Reading Public Museum Arboretu (1218 Parkside Dr S) as a top destination—4.7 stars from 1,506 visits. Open from 8am to 8pm daily, dog owners have plenty of flexibility to visit when it suits their schedule. Looking to mix things up? Wyomissing Park is a nearby dog park 0.2 miles away that's worth exploring with your pup."
  },
  {
    "name": "Gring's Mill Recreation Area",
    "street": "2083 Tulpehocken Rd",
    "city": "Reading",
    "state": "PA",
    "zip": "19610",
    "latitude": 40.3632369,
    "longitude": -75.9684284,
    "description": "Local dog owners love Gring's Mill Recreation Area at 2083 Tulpehocken Rd in Reading—4.7 stars from an impressive 1,073 reviews. Open from 8am to 5:30pm daily, there's always time for dog owners to bring their pup for some quality time. Dog owners in the area also love bringing their pups to Wertz's Red Bridge Recreationa (0.4 miles) and Berks Leisure Area (0.7 miles)."
  },
  {
    "name": "Beau’s Dream Dog Park",
    "street": "901 Buchanan Ave",
    "city": "Reading",
    "state": "PA",
    "zip": "17603",
    "latitude": 40.043626,
    "longitude": -76.321914,
    "description": "Beau’s Dream Dog Park at 901 Buchanan Ave is well-regarded by Reading dog owners, holding 4.7 stars across 963 reviews. Open from 5am to 11pm daily, dog owners have plenty of flexibility to plan a visit. More dog-friendly parks nearby include Buchanan Park (0.0 miles) and Long's Park (1.3 miles)—perfect for pups who love adventure."
  },
  {
    "name": "Lloyd Park",
    "street": "403 Lloyd AveDowningtown",
    "city": "Reading",
    "state": "PA",
    "zip": "19335",
    "latitude": 40.0031294,
    "longitude": -75.7244511,
    "description": "Lloyd Park at 403 Lloyd Ave is well-regarded by Reading dog owners, holding 4.7 stars across 512 reviews. Dog owners looking for a solid destination will find this park delivers. The reviews indicate this is a trusted destination for dog owners in the area."
  },
  {
    "name": "Antietam Lake Park",
    "street": "230 Angora Rd",
    "city": "Reading",
    "state": "PA",
    "zip": "19606",
    "latitude": 40.339114,
    "longitude": -75.8996409,
    "description": "At 230 Angora Rd in Reading, Antietam Lake Park has built a loyal following—4.7 stars from 423 dog owner reviews. Open from 8am to 5:30pm daily, the park works well for dog owners with different schedules. For variety, the neighborhood offers more dog parks to explore: Angora Fruit Farm, Berks Count (0.0 miles) and Mineral Spring Park (0.4 miles)."
  },
  {
    "name": "Wertz's Red Bridge Recreationa",
    "street": "2141 Tulpehocken RdWyomissing",
    "city": "Reading",
    "state": "PA",
    "zip": "19610",
    "latitude": 40.3573172,
    "longitude": -75.9673732,
    "description": "Dog owners in Reading have made Wertz's Red Bridge Recreationa at 2141 Tulpehocken Rd a go-to spot, rating it 4.7 stars across 240 reviews. Open from 8am to 5:30pm daily, the park accommodates early risers and evening visitors alike. More dog-friendly parks nearby include Berks Leisure Area (0.3 miles) and Gring's Mill Recreation Area (0.4 miles)—perfect for pups who love adventure."
  },
  {
    "name": "Berks Leisure Area",
    "street": "1901 Tulpehocken RdWyomissing",
    "city": "Reading",
    "state": "PA",
    "zip": "19610",
    "latitude": 40.3547751,
    "longitude": -75.9617922,
    "description": "At 1901 Tulpehocken Rd in Reading, Berks Leisure Area has built a loyal following—4.7 stars from 90 dog owner reviews. Open from 8am to 5:30pm daily, the park works well for dog owners with different schedules. Other dog parks in the area include Stonecliffe Recreation Area (0.3 miles) and Wertz's Red Bridge Recreationa (0.3 miles)—both great for exploring with your four-legged friend."
  },
  {
    "name": "Dominic Manzella Park",
    "street": "",
    "city": "Reading",
    "state": "PA",
    "zip": "",
    "latitude": 40.3881487,
    "longitude": -75.9179849,
    "description": "Dominic Manzella Park (4.7 stars from 66 reviews) is a popular destination for Reading dog owners. Open from 8am to 6pm daily, the park accommodates early risers and evening visitors alike. More dog-friendly parks nearby include Northmont Park (1.4 miles) and Laurel Run Park (2.0 miles)—perfect for pups who love adventure."
  },
  {
    "name": "Ephrata Unleashed Dog Park",
    "street": "160 Old Mill Rd",
    "city": "Reading",
    "state": "PA",
    "zip": "17522",
    "latitude": 40.1783932,
    "longitude": -76.1938657,
    "description": "Ephrata Unleashed Dog Park (4.7 stars from 27 reviews) is a popular destination for Reading dog owners, located at 160 Old Mill Rd. Dog owners looking for a solid destination will find this park delivers. Dog owners looking for a dependable spot will find this park lives up to its ratings."
  },
  {
    "name": "Schuylkill River Trail Brentwo",
    "street": "Schuylkill River Trail",
    "city": "Reading",
    "state": "PA",
    "zip": "19611",
    "latitude": 40.3260408,
    "longitude": -75.9366026,
    "description": "Dog owners in Reading have made Schuylkill River Trail Brentwo a go-to spot, rating it 4.6 stars across 38 reviews. For dog owners in the area, this park has become a trusted spot for time with their pups. Dog owners can also take their pups to nearby Heritage Park (0.6 miles) or Jackson's Landing Lock (0.6 miles)."
  },
  {
    "name": "Laurel Run Park",
    "street": "3025 River Rd",
    "city": "Reading",
    "state": "PA",
    "zip": "19605",
    "latitude": 40.3655568,
    "longitude": -75.9410203,
    "description": "Reading dog owners rate Laurel Run Park at 3025 River Rd highly, with 4.6 stars from 41 visits. Open from 7am to 7pm daily, dog owners have plenty of flexibility to plan a visit. Dog owners can also take their pups to nearby Kelly's Lock Overlook (0.0 miles) or Northmont Park (0.8 miles)."
  },
  {
    "name": "McDade Park",
    "street": "1 Bald Mountain Rd",
    "city": "Scranton",
    "state": "PA",
    "zip": "18507",
    "latitude": 41.413617,
    "longitude": -75.708249,
    "description": "McDade Park at 1 Bald Mountain Rd in Scranton is a community favorite, with 1,796 dog owners giving it 4.7 stars. Open from 8am to 7pm daily, there's always time for dog owners to bring their pup for some quality time. For more dog park adventures, explore Connors Park (2.6 miles) or Connell Park (2.8 miles) with your furry companion."
  },
  {
    "name": "Hillside Park",
    "street": "1188 Winola RdSouth Abington Township",
    "city": "Scranton",
    "state": "PA",
    "zip": "18411",
    "latitude": 41.4860029,
    "longitude": -75.7589957,
    "description": "Dog owners in Scranton have made Hillside Park at 1188 Winola Rd a go-to spot, rating it 4.7 stars across 454 reviews. The park serves dog owners well, providing a destination the community values. Nearby, Abington Dog Park (3.0 miles) offers dog owners another great spot to explore with their pups."
  },
  {
    "name": "Abington Dog Park",
    "street": "1610 W Grove StClarks Summit",
    "city": "Scranton",
    "state": "PA",
    "zip": "18411",
    "latitude": 41.4918724,
    "longitude": -75.7011136,
    "description": "Abington Dog Park (4.7 stars from 155 reviews) is a popular destination for Scranton dog owners, located at 1610 W Grove St. For dog owners in the area, this park has become a trusted spot for time with their pups. Dog owners exploring the neighborhood can also bring their furry friends to Hillside Park (3.0 miles)."
  },
  {
    "name": "Riverside Dog Park",
    "street": "",
    "city": "Scranton",
    "state": "PA",
    "zip": "",
    "latitude": 41.4759224,
    "longitude": -75.1821189,
    "description": "Scranton dog owners rate Riverside Dog Park highly, with 4.7 stars from 79 visits. Dog owners in the area consistently choose this park as a go-to destination for their pups. The consistent ratings suggest dog owners know what to expect here."
  },
  {
    "name": "West Pittston Dog Park",
    "street": "555 Exeter AveWest Pittston",
    "city": "Scranton",
    "state": "PA",
    "zip": "18643",
    "latitude": 41.3337529,
    "longitude": -75.7992144,
    "description": "For dog owners in the Scranton area, West Pittston Dog Park (555 Exeter Ave) offers a 4.8-star experience based on 10 reviews. Open from 6am to 8pm daily, there's room in the day for dog owners to bring their furry friends. A solid track record makes this a reliable choice for dog owners."
  },
  {
    "name": "Lake Scranton Walking Trail",
    "street": "",
    "city": "Scranton",
    "state": "PA",
    "zip": "",
    "latitude": 41.384626,
    "longitude": -75.5923491,
    "description": "In Scranton, Lake Scranton Walking Trail has built a loyal following—4.6 stars from 283 dog owner reviews. Open from 7am to 8pm daily, the park works well for dog owners with different schedules. Other dog parks in the area include Nay Aug Park (2.9 miles) and Connors Park (3.7 miles)—both great for exploring with your four-legged friend."
  },
  {
    "name": "Connell Park",
    "street": "800 Gibbons St",
    "city": "Scranton",
    "state": "PA",
    "zip": "18505",
    "latitude": 41.383018,
    "longitude": -75.673704,
    "description": "Scranton dog owners rate Connell Park at 800 Gibbons St highly, with 4.6 stars from 103 visits. The steady stream of dog owner visits speaks to the park's appeal. More dog-friendly parks nearby include Connors Park (1.4 miles) and Nay Aug Park (2.0 miles)—perfect for pups who love adventure."
  },
  {
    "name": "Nay Aug Park",
    "street": "500 Arthur Ave",
    "city": "Scranton",
    "state": "PA",
    "zip": "18510",
    "latitude": 41.40159,
    "longitude": -75.643809,
    "description": "For Scranton dog owners, Nay Aug Park at 500 Arthur Ave has become a reliable favorite—4.5 stars from 3,547 reviews. Open from 7am to 8pm daily, dog owners have plenty of flexibility to visit when it suits their schedule. For variety, many dog owners also bring their furry friends to Connors Park (0.9 miles)—another great dog park in the area."
  },
  {
    "name": "‍ Connors Park",
    "street": "515 Orchard St",
    "city": "Scranton",
    "state": "PA",
    "zip": "18505",
    "latitude": 41.401106,
    "longitude": -75.661105,
    "description": "For dog owners in Scranton, Connors Park at 515 Orchard St has a 4.4-star rating (101 reviews). Open from 9am to 6pm daily, the park gives dog owners in the neighborhood time to bring their pups. Dog owners in the neighborhood can also take their furry friends to Nay Aug Park, 0.9 miles away."
  },
  {
    "name": "Macclesfield Park",
    "street": "1000 River Rd",
    "city": "Yardley",
    "state": "PA",
    "zip": "19067",
    "latitude": 40.2527661,
    "longitude": -74.8459474,
    "description": "Dog owners in Yardley have made Macclesfield Park at 1000 River Rd a go-to spot, rating it 4.6 stars across 87 reviews. The park serves dog owners well, providing a destination the community values. Other dog parks in the area include Stacy Park (2.6 miles) and Banchoff Park (2.9 miles)—both great for exploring with your four-legged friend."
  }
]