[
  {
    "name": "Barrington Dog Park",
    "street": "3 Haines Park Rd",
    "city": "Barrington",
    "state": "RI",
    "zip": "02806",
    "latitude": 41.7535506,
    "longitude": -71.3443799,
    "description": "Dog owners in Barrington have rated Barrington Dog Park (3 Haines Park Rd) 4.4 stars across 105 reviews. Open from 6:30am to 10pm daily, dog owners have flexibility to plan a visit with their four-legged friends. Reading what other dog owners have experienced here can help with planning a visit."
  },
  {
    "name": "Brayton Park",
    "street": "18 Brayton Ave",
    "city": "Cranston",
    "state": "RI",
    "zip": "02920",
    "latitude": 41.7456778,
    "longitude": -71.4731035,
    "description": "Dog owners in Cranston have made Brayton Park at 18 Brayton Ave a go-to spot, rating it 4.5 stars across 103 reviews. Open from 6am to 8:30pm daily, dog owners can easily fit a visit into busy schedules. For a change of scenery, Sweeney Dog Park is another dog-friendly destination 3.0 miles from here."
  },
  {
    "name": "Slater Memorial Park",
    "street": "401 Newport Ave",
    "city": "Pawtucket",
    "state": "RI",
    "zip": "02861",
    "latitude": 41.869877,
    "longitude": -71.354266,
    "description": "2,572 dog owners have made Slater Memorial Park (401 Newport Ave) one of Pawtucket's most trusted parks (4.6 stars). The strong community of dog owners here reflects how much the park is valued. Looking to mix things up? Pawtucket Dog Park is a nearby dog park 0.7 miles away that's worth exploring with your pup."
  },
  {
    "name": "Blackstone Boulevard Park",
    "street": "",
    "city": "Providence",
    "state": "RI",
    "zip": "",
    "latitude": 41.8239891,
    "longitude": -71.4128343,
    "description": "Dog owners in Providence have made Blackstone Boulevard Park a go-to spot, rating it 4.9 stars across 37 reviews. Dog owners looking for a solid destination will find this park delivers. For a change of scenery, Burnside Park is another dog-friendly destination 0.1 miles from here."
  },
  {
    "name": "Waterman St. Dog Park",
    "street": "320 Waterman St",
    "city": "Providence",
    "state": "RI",
    "zip": "02906",
    "latitude": 41.8283821,
    "longitude": -71.3823809,
    "description": "Dog owners in Providence have made Waterman St. Dog Park at 320 Waterman St a go-to spot, rating it 4.7 stars across 395 reviews. Open from 6am to 8pm daily, dog owners have plenty of flexibility to plan a visit. Other dog parks in the area include Gano Park (0.6 miles) and Sessions Street Park (1.0 miles)—both great for exploring with your four-legged friend."
  },
  {
    "name": "Smithfield Dog Park",
    "street": "353 Farnum Pike",
    "city": "Providence",
    "state": "RI",
    "zip": "02917",
    "latitude": 41.9082703,
    "longitude": -71.5402402,
    "description": "Located at 353 Farnum Pike in Providence, Smithfield Dog Park earns strong marks from local dog owners—4.7 stars from 43 reviews. Open from 12:02am to 8pm daily, the park accommodates early risers and evening visitors alike. The positive feedback from local dog owners speaks to the park's consistent quality."
  },
  {
    "name": "Fairlawn Dog Park",
    "street": "100 Legion Dr",
    "city": "Providence",
    "state": "RI",
    "zip": "02860",
    "latitude": 41.8683136,
    "longitude": -71.410571,
    "description": "Located at 100 Legion Dr in Providence, Fairlawn Dog Park earns strong marks from local dog owners—4.7 stars from 29 reviews. Open from 6am to 6pm daily, the park offers flexibility for dog owners with varying routines. Nearby, Wanskuck Park (1.3 miles) offers dog owners another great spot to explore with their pups."
  },
  {
    "name": "Lincoln Woods State Park",
    "street": "2 Manchester Print Works Rd",
    "city": "Providence",
    "state": "RI",
    "zip": "02865",
    "latitude": 41.902531,
    "longitude": -71.422451,
    "description": "Lincoln Woods State Park at 2 Manchester Print Works Rd in Providence is a community favorite, with 4,593 dog owners giving it 4.6 stars. Open from 9am to 8pm daily, dog owners can easily fit a visit into their day, whether morning or evening. Nearby, Central Falls Dog Park (2.2 miles) is another dog park favorite where you can take your four-legged friend."
  },
  {
    "name": "India Point Park",
    "street": "201 India St",
    "city": "Providence",
    "state": "RI",
    "zip": "02903",
    "latitude": 41.817483,
    "longitude": -71.396622,
    "description": "India Point Park at 201 India St in Providence is a community favorite, with 2,145 dog owners giving it 4.6 stars. Open from 6am to 9pm daily, dog owners have plenty of flexibility to visit when it suits their schedule. Keep the adventure going at other nearby dog parks like Gano Park (0.5 miles) or Burnside Park (0.9 miles)."
  },
  {
    "name": "Lippitt Memorial Park",
    "street": "1015 Hope St",
    "city": "Providence",
    "state": "RI",
    "zip": "02906",
    "latitude": 41.854131,
    "longitude": -71.392387,
    "description": "At 1015 Hope St in Providence, Lippitt Memorial Park has built a loyal following—4.6 stars from 655 dog owner reviews. The park has earned its reputation among dog owners in the neighborhood as a reliable choice. Other dog parks in the area include Sessions Street Park (0.9 miles) and Fairlawn Dog Park (1.4 miles)—both great for exploring with your four-legged friend."
  },
  {
    "name": "Brown Street Pork & Playground",
    "street": "236 Brown St",
    "city": "Providence",
    "state": "RI",
    "zip": "02906",
    "latitude": 41.8338778,
    "longitude": -71.4049922,
    "description": "Dog owners in Providence have made Brown Street Pork & Playground at 236 Brown St a go-to spot, rating it 4.6 stars across 150 reviews. Open from 6am to 9pm daily, the park offers flexibility for dog owners with varying routines. More dog-friendly parks nearby include Burnside Park (0.7 miles) and Blackstone Boulevard Park (0.8 miles)—perfect for pups who love adventure."
  },
  {
    "name": "Franciscan Park",
    "street": "Bell St",
    "city": "Providence",
    "state": "RI",
    "zip": "02909",
    "latitude": 41.8184899,
    "longitude": -71.4359301,
    "description": "Franciscan Park (4.5 stars from 272 reviews) is a popular destination for Providence dog owners. Open from 5am to 9pm daily, there's room in the day for dog owners to bring their furry friends. Dog owners exploring the neighborhood can also bring their furry friends to Donigian Park (0.2 miles)."
  },
  {
    "name": "Captain Stephen Olney Memorial",
    "street": "180 Smithfield Rd",
    "city": "Providence",
    "state": "RI",
    "zip": "02904",
    "latitude": 41.8569372,
    "longitude": -71.4539541,
    "description": "At 180 Smithfield Rd in Providence, Captain Stephen Olney Memorial has built a loyal following—4.5 stars from 346 dog owner reviews. Open from 6am to 8pm daily, the park accommodates early risers and evening visitors alike. More dog-friendly parks nearby include Wanskuck Park (1.2 miles) and Fairlawn Dog Park (2.4 miles)—perfect for pups who love adventure."
  },
  {
    "name": "Gano Park",
    "street": "87 Fremont St",
    "city": "Providence",
    "state": "RI",
    "zip": "02906",
    "latitude": 41.8223675,
    "longitude": -71.3904873,
    "description": "At 87 Fremont St, Gano Park has 4.4 stars based on 88 reviews from Providence dog owners. Open from 7am to 9pm daily, the park fits conveniently into different routines. For pups who want more adventure, India Point Park is a nearby dog park worth visiting (0.5 miles)."
  },
  {
    "name": "Sessions Street Park",
    "street": "154 Sessions St",
    "city": "Providence",
    "state": "RI",
    "zip": "02906",
    "latitude": 41.8412699,
    "longitude": -71.3909803,
    "description": "For dog owners in Providence, Sessions Street Park at 154 Sessions St has a 4.3-star rating (24 reviews). Open from 6am to 8pm daily, local dog owners have time to explore with their furry companions. For pups who want more adventure, Brown Street Pork & Playground is a nearby dog park worth visiting (0.9 miles)."
  },
  {
    "name": "Wanskuck Park",
    "street": "229 Woodward Rd",
    "city": "Providence",
    "state": "RI",
    "zip": "02904",
    "latitude": 41.857871,
    "longitude": -71.4313314,
    "description": "228 dog owners have reviewed Wanskuck Park at 229 Woodward Rd in Providence, averaging 4.4 stars. Open from 6am to 8pm daily, dog owners have a window to spend time with their pups. Dog owners might also enjoy Captain Stephen Olney Memorial, another dog park just 1.2 miles away."
  },
  {
    "name": "Pawtucket Dog Park",
    "street": "835 Armistice Blvd",
    "city": "Providence",
    "state": "RI",
    "zip": "02861",
    "latitude": 41.8741115,
    "longitude": -71.3411105,
    "description": "Dog owners in Providence have rated Pawtucket Dog Park (835 Armistice Blvd) 4.4 stars across 468 reviews. Open from 6am to 8pm daily, dog owners have flexibility to plan a visit with their four-legged friends. For dog owners who like to explore, Slater Memorial Park (0.7 miles) and Central Falls Dog Park (2.5 miles) are both nearby parks to try with your dog."
  },
  {
    "name": "Warwick City Dog Park",
    "street": "Steven O' Connor Blvd",
    "city": "Providence",
    "state": "RI",
    "zip": "02886",
    "latitude": 41.6952243,
    "longitude": -71.4126283,
    "description": "Warwick City Dog Park in Providence has 4.3 stars based on 203 reviews from dog owners. Open from 6am to 8pm daily, the park is accessible for dog owners in the area. Dog owners in the neighborhood can also take their furry friends to Brayton Park, 4.7 miles away."
  },
  {
    "name": "Donigian Park",
    "street": "Valley St",
    "city": "Providence",
    "state": "RI",
    "zip": "02909",
    "latitude": 41.8184545,
    "longitude": -71.4406909,
    "description": "Donigian Park holds a 4.3-star rating from 218 Providence dog owner visits. Open from 6am to 8pm daily, the park fits conveniently into different routines. Nearby dog parks worth exploring with your pup include Franciscan Park (0.2 miles) and Blackstone Boulevard Park (1.5 miles)."
  },
  {
    "name": "Raymond F Jones Memorial Dog",
    "street": "34 Roosevelt Ave",
    "city": "Tiverton",
    "state": "RI",
    "zip": "02878",
    "latitude": 41.6250029,
    "longitude": -71.1485534,
    "description": "Located at 34 Roosevelt Ave in Tiverton, Raymond F Jones Memorial Dog earns strong marks from local dog owners—4.7 stars from 39 reviews. Open from 5am to 8pm daily, there's plenty of opportunity for dog owners to find a time that works. Dog owners exploring the neighborhood can also bring their furry friends to Kelly Park (4.4 miles)."
  }
]