[
  {
    "name": "Charleston Dog Walker",
    "street": "2856 Ortega DriveJohns Island",
    "city": "Charleston",
    "state": "SC",
    "zip": "29455",
    "latitude": 32.7595924,
    "longitude": -80.0627466,
    "description": "With 4.9 stars from 97 reviews, Charleston Dog Walker at 2856 Ortega Drive has become a favorite among Charleston dog owners. Dog owners looking for a solid destination will find this park delivers. More dog-friendly parks nearby include John's Island Park (2.7 miles) and Dog Park (3.1 miles)—perfect for pups who love adventure."
  },
  {
    "name": "Folly Beach County Park",
    "street": "1100 W Ashley AveFolly Beach",
    "city": "Charleston",
    "state": "SC",
    "zip": "29439",
    "latitude": 32.6447362,
    "longitude": -79.9625344,
    "description": "With 4.8 stars across 3,855 reviews, Folly Beach County Park at 1100 W Ashley Ave has clearly won over Charleston dog owners. Open from 8am to 5pm daily, dog owners can plan visits around their pup's favorite times to be active. Want to give your pup even more adventure? The Bark Park is another beloved dog park just 2.1 miles away."
  },
  {
    "name": "James Island County Park",
    "street": "871 Riverland Dr",
    "city": "Charleston",
    "state": "SC",
    "zip": "29412",
    "latitude": 32.7172243,
    "longitude": -79.981886,
    "description": "With 4.8 stars across 3,435 reviews, James Island County Park at 871 Riverland Dr has clearly won over Charleston dog owners. Open from 8am to 4:30pm daily, dog owners have room to work around busy schedules. Keep the adventure going at other nearby dog parks like Dock Street Park (2.2 miles) or Melton Peter Demetre Park (4.6 miles)."
  },
  {
    "name": "Hampton Park",
    "street": "30 Mary Murray Dr",
    "city": "Charleston",
    "state": "SC",
    "zip": "29403",
    "latitude": 32.7995648,
    "longitude": -79.9563966,
    "description": "Local dog owners love Hampton Park at 30 Mary Murray Dr in Charleston—4.8 stars from an impressive 1,610 reviews. The strong community of dog owners here reflects how much the park is valued. Want to give your pup even more adventure? Hampton Park is another beloved dog park just 0.2 miles away."
  },
  {
    "name": "Palmetto Islands County Park",
    "street": "444 Needlerush PkwyMt Pleasant",
    "city": "Charleston",
    "state": "SC",
    "zip": "29464",
    "latitude": 32.8606731,
    "longitude": -79.8326567,
    "description": "For Charleston dog owners, Palmetto Islands County Park at 444 Needlerush Pkwy has become a reliable favorite—4.8 stars from 1,193 reviews. Open from 8am to 5pm daily, dog owners have plenty of flexibility to visit when it suits their schedule. Want to give your pup even more adventure? Mount Pleasant / Charleston is another beloved dog park just 1.6 miles away."
  },
  {
    "name": "Colonial Lake Park",
    "street": "46-54 Ashley Ave",
    "city": "Charleston",
    "state": "SC",
    "zip": "29401",
    "latitude": 32.7766793,
    "longitude": -79.9418559,
    "description": "With 4.8 stars across 1,007 reviews, Colonial Lake Park at 46-54 Ashley Ave has clearly won over Charleston dog owners. Dog owners in the area know they can count on this park for quality time with their pups. For more dog park adventures, explore General William Moultrie Playg (0.0 miles) or Horse Lot Park (0.1 miles) with your furry companion."
  },
  {
    "name": "Pickett Park",
    "street": "998 Pitt StMt Pleasant",
    "city": "Charleston",
    "state": "SC",
    "zip": "29464",
    "latitude": 32.7698355,
    "longitude": -79.862224,
    "description": "Charleston dog owners rate Pickett Park at 998 Pitt St highly, with 4.8 stars from 97 visits. Open from 7am to 10pm daily, dog owners can easily fit a visit into busy schedules. Dog owners can also take their pups to nearby James B. Edwards Passive Park (1.2 miles) or Park (1.7 miles)."
  },
  {
    "name": "‍ Broken Leash Dog Park",
    "street": "8811 Old University Blvd",
    "city": "Charleston",
    "state": "SC",
    "zip": "29406",
    "latitude": 32.9697103,
    "longitude": -80.0473162,
    "description": "For dog owners in the Charleston area, Broken Leash Dog Park (8811 Old University Blvd) offers a 4.8-star experience based on 18 reviews. The steady stream of dog owner visits speaks to the park's appeal. Looking for more places to take your pup? Northwoods Park is another popular dog park just 1.2 miles away."
  },
  {
    "name": "Isle of Palms County Park",
    "street": "1 14th AveIsle of Palms",
    "city": "Charleston",
    "state": "SC",
    "zip": "29451",
    "latitude": 32.786744,
    "longitude": -79.786525,
    "description": "With 4.7 stars across 4,395 reviews, Isle of Palms County Park at 1 14th Ave has clearly won over Charleston dog owners. Open from 10am to 5pm daily, it's easy for dog owners to stop by whenever works best. Nearby, Isle of Palms Recreation Depar (0.8 miles) is another dog park favorite where you can take your four-legged friend."
  },
  {
    "name": "North Charleston Wannamaker",
    "street": "8888 University Blvd",
    "city": "Charleston",
    "state": "SC",
    "zip": "29406",
    "latitude": 32.978452,
    "longitude": -80.0748717,
    "description": "With 4.7 stars across 3,729 reviews, North Charleston Wannamaker at 8888 University Blvd has clearly won over Charleston dog owners. Open from 8am to 5pm daily, dog owners can easily fit a visit into their day, whether morning or evening. Nearby, Wannamaker Park (0.0 miles) is another dog park favorite where you can take your four-legged friend."
  },
  {
    "name": "Riverfront Park",
    "street": "1061 Everglades Ave",
    "city": "Charleston",
    "state": "SC",
    "zip": "29405",
    "latitude": 32.8682847,
    "longitude": -79.9655184,
    "description": "Local dog owners love Riverfront Park at 1061 Everglades Ave in Charleston—4.7 stars from an impressive 2,968 reviews. Open from 6am to 10pm daily, it's easy for dog owners to stop by whenever works best. Looking to mix things up? DIG In The Park is a nearby dog park 1.1 miles away that's worth exploring with your pup."
  },
  {
    "name": "Park",
    "street": "4800 Park Cir",
    "city": "Charleston",
    "state": "SC",
    "zip": "29405",
    "latitude": 32.880551,
    "longitude": -79.9842597,
    "description": "Park at 4800 Park Cir is well-regarded by Charleston dog owners, holding 4.7 stars across 957 reviews. Open from 7am to 5:30pm daily, the park offers flexibility for dog owners with varying routines. Looking for more places to take your pup? Quarterman Park is another popular dog park just 0.2 miles away."
  },
  {
    "name": "Melton Peter Demetre Park",
    "street": "640 Wampler Dr",
    "city": "Charleston",
    "state": "SC",
    "zip": "29412",
    "latitude": 32.7514053,
    "longitude": -79.9146021,
    "description": "At 640 Wampler Dr in Charleston, Melton Peter Demetre Park has built a loyal following—4.7 stars from 648 dog owner reviews. Open from 6am to 8pm daily, the park offers flexibility for dog owners with varying routines. More dog-friendly parks nearby include Hazel Parker Playground Park (1.7 miles) and East Bay Dog Park (1.8 miles)—perfect for pups who love adventure."
  },
  {
    "name": "Gadsdenboro Park",
    "street": "303 Concord St",
    "city": "Charleston",
    "state": "SC",
    "zip": "29401",
    "latitude": 32.7885516,
    "longitude": -79.9266761,
    "description": "At 303 Concord St in Charleston, Gadsdenboro Park has built a loyal following—4.7 stars from 243 dog owner reviews. Open from 6am to 10pm daily, the park works well for dog owners with different schedules. Looking for more places to take your pup? Marion Square is another popular dog park just 0.5 miles away."
  },
  {
    "name": "East Bay Dog Park",
    "street": "41 S Adgers Wharf",
    "city": "Charleston",
    "state": "SC",
    "zip": "29401",
    "latitude": 32.7752987,
    "longitude": -79.9265372,
    "description": "For dog owners in the Charleston area, East Bay Dog Park (41 S Adgers Wharf) offers a 4.7-star experience based on 104 reviews. For dog owners in the area, this park has become a trusted spot for time with their pups. Nearby, Hazel Parker Playground Park (0.1 miles) offers dog owners another great spot to explore with their pups."
  },
  {
    "name": "‍ Carolina Bay Park",
    "street": "3009 Amberbrook Ln",
    "city": "Charleston",
    "state": "SC",
    "zip": "29414",
    "latitude": 32.8084462,
    "longitude": -80.073423,
    "description": "With 4.7 stars from 93 reviews, Carolina Bay Park at 3009 Amberbrook Ln has become a favorite among Charleston dog owners. The park has earned its reputation among dog owners in the neighborhood as a reliable choice. Looking for more places to take your pup? Dog Park is another popular dog park just 0.5 miles away."
  },
  {
    "name": "West Columbia Riverwalk Park",
    "street": "109 Alexander Rd",
    "city": "Columbia",
    "state": "SC",
    "zip": "29169",
    "latitude": 33.9901093,
    "longitude": -81.0510511,
    "description": "At 109 Alexander Rd in Columbia, West Columbia Riverwalk Park stands out with 4.8 stars from 2,869 happy dog owners. Dog owners appreciate the reliable experience this park provides for their four-legged companions. Keep the adventure going at other nearby dog parks like Gist Park (0.4 miles) or Granby Park (0.6 miles)."
  },
  {
    "name": "Columbia Canal and Riverfront",
    "street": "312 Laurel St",
    "city": "Columbia",
    "state": "SC",
    "zip": "29201",
    "latitude": 34.0090447,
    "longitude": -81.0379233,
    "description": "Local dog owners love Columbia Canal and Riverfront at 312 Laurel St in Columbia—4.7 stars from an impressive 2,867 reviews. Open from 7am to 9pm daily, dog owners have plenty of flexibility to visit when it suits their schedule. Nearby, Elmwood/Roy Lynch Park (0.5 miles) is another dog park favorite where you can take your four-legged friend."
  },
  {
    "name": "Saluda Shoals Park",
    "street": "5605 Bush River Rd",
    "city": "Columbia",
    "state": "SC",
    "zip": "29212",
    "latitude": 34.0309377,
    "longitude": -81.1061896,
    "description": "1,305 dog owners have made Saluda Shoals Park (5605 Bush River Rd) one of Columbia's most trusted parks (4.7 stars). Open from 7am to 8pm daily, the park accommodates a variety of dog owner schedules and routines. Nearby, Marshall Park (3.3 miles) is another dog park favorite where you can take your four-legged friend."
  },
  {
    "name": "Elmwood/Roy Lynch Park",
    "street": "Abbeville St",
    "city": "Columbia",
    "state": "SC",
    "zip": "29201",
    "latitude": 34.0133337,
    "longitude": -81.0440532,
    "description": "Elmwood/Roy Lynch Park (4.7 stars from 423 reviews) is a popular destination for Columbia dog owners. Open from 6am to 9pm daily, there's plenty of opportunity for dog owners to find a time that works. Other dog parks in the area include Columbia Canal and Riverfront (0.5 miles) and Marshall Park (0.6 miles)—both great for exploring with your four-legged friend."
  },
  {
    "name": "Sesquicentennial State Park",
    "street": "9564 Two Notch Rd",
    "city": "Columbia",
    "state": "SC",
    "zip": "29223",
    "latitude": 34.0363295,
    "longitude": -81.0037617,
    "description": "Sesquicentennial State Park at 9564 Two Notch Rd is a favorite among Columbia dog owners, earning 4.6 stars from 3,278 reviews. Open from 8am to 8pm daily, it's easy for dog owners to stop by whenever works best. Keep the adventure going at other nearby dog parks like Page Ellington Park (1.8 miles) or Page Ellington Park (1.9 miles)."
  },
  {
    "name": "Page Ellington Park",
    "street": "2220 Gregg St",
    "city": "Columbia",
    "state": "SC",
    "zip": "29207",
    "latitude": 34.0195473,
    "longitude": -81.0289377,
    "description": "For dog owners in Columbia, Page Ellington Park at 2220 Gregg St has a 4.4-star rating (10 reviews). For dog owners in the neighborhood, this park offers a place to take their pups. For dog owners who like to explore, Page Ellington Park (0.2 miles) and Columbia Canal and Riverfront (0.9 miles) are both nearby parks to try with your dog."
  },
  {
    "name": "Michael J & Mary Meech MUNGO",
    "street": "2121 Lake Murray Blvd",
    "city": "Columbia",
    "state": "SC",
    "zip": "29212",
    "latitude": 34.0746342,
    "longitude": -81.2080517,
    "description": "Michael J & Mary Meech MUNGO at 2121 Lake Murray Blvd is well-regarded by Columbia dog owners, holding 4.5 stars across 44 reviews. The park serves dog owners well, providing a destination the community values. Dog owners exploring the neighborhood can also bring their furry friends to BrookSide Park (3.5 miles)."
  },
  {
    "name": "Lester Bates Park",
    "street": "Wando St",
    "city": "Columbia",
    "state": "SC",
    "zip": "29205",
    "latitude": 33.9817931,
    "longitude": -80.9971983,
    "description": "Lester Bates Park in Columbia has 4.3 stars based on 12 reviews from dog owners. Open from 6am to 9pm daily, dog owners can stop by when it fits their schedule. Dog owners in the neighborhood can also take their furry friends to Rosewood Park, 0.2 miles away."
  },
  {
    "name": "Rosewood Park",
    "street": "901 S Holly St",
    "city": "Columbia",
    "state": "SC",
    "zip": "29205",
    "latitude": 33.981253,
    "longitude": -81.000641,
    "description": "Rosewood Park at 901 S Holly St is well-regarded by Columbia dog owners, holding 4.5 stars across 288 reviews. Open from 6am to 9pm daily, there's plenty of opportunity for dog owners to find a time that works. Dog owners exploring the neighborhood can also bring their furry friends to Lester Bates Park (0.2 miles)."
  },
  {
    "name": "Hollywood Park",
    "street": "216 S Gregg St",
    "city": "Columbia",
    "state": "SC",
    "zip": "29205",
    "latitude": 33.9871182,
    "longitude": -81.0147998,
    "description": "Hollywood Park at 216 S Gregg St in Columbia has 4.4 stars from 78 dog owner reviews. Open from 6am to 9pm daily, the park is accessible for dog owners in the area. For pups who want more adventure, Emily Douglas Park is a nearby dog park worth visiting (0.7 miles)."
  },
  {
    "name": "BrookSide Park",
    "street": "1 Harbison Way",
    "city": "Columbia",
    "state": "SC",
    "zip": "29212",
    "latitude": 34.073359,
    "longitude": -81.146233,
    "description": "Located at 1 Harbison Way, BrookSide Park offers Columbia dog owners a neighborhood destination for their four-legged friends. Local dog owners use this park as a spot to spend time with their furry companions. Dog owners looking for variety can also visit Michael J & Mary Meech MUNGO (3.5 miles) or Saluda Shoals Park (3.7 miles) with their four-legged friends."
  },
  {
    "name": "Fort Jackson Dog Park",
    "street": "6100 Chesnut Rd",
    "city": "Columbia",
    "state": "SC",
    "zip": "29206",
    "latitude": 34.0130744,
    "longitude": -80.9180748,
    "description": "Dog owners in Columbia have rated Fort Jackson Dog Park (6100 Chesnut Rd) 4.4 stars across 108 reviews. Local dog owners use this park as a spot to spend time with their furry companions. Checking recent reviews can help dog owners decide if this park fits their needs."
  },
  {
    "name": "Granby Park",
    "street": "100 Catawba Cir",
    "city": "Columbia",
    "state": "SC",
    "zip": "29201",
    "latitude": 33.9843278,
    "longitude": -81.0433235,
    "description": "Granby Park at 100 Catawba Cir holds a 4.4-star rating from 358 Columbia dog owner visits. Open from 6am to 7pm daily, the park fits conveniently into different routines. Looking to explore more? West Columbia Riverwalk Park is another dog-friendly park 0.6 miles from here."
  },
  {
    "name": "Gist Park",
    "street": "1115 Gist St",
    "city": "Columbia",
    "state": "SC",
    "zip": "29201",
    "latitude": 33.9956466,
    "longitude": -81.0476718,
    "description": "Gist Park at 1115 Gist St in Columbia has 4.4 stars from 445 dog owner reviews. Open from 6am to 9pm daily, dog owners in the area can work a visit into their day. For pups who want more adventure, West Columbia Riverwalk Park is a nearby dog park worth visiting (0.4 miles)."
  },
  {
    "name": "Marshall Park",
    "street": "2905 Lincoln St",
    "city": "Columbia",
    "state": "SC",
    "zip": "29201",
    "latitude": 34.0198829,
    "longitude": -81.0502133,
    "description": "At 2905 Lincoln St, Marshall Park has 4.1 stars based on 44 reviews from Columbia dog owners. Open from 6am to 10pm daily, dog owners can stop by when it fits their schedule. Dog owners in the neighborhood can also take their furry friends to Elmwood/Roy Lynch Park, 0.6 miles away."
  },
  {
    "name": "Conestee Nature Preserve",
    "street": "840 Mauldin Rd",
    "city": "Greenville",
    "state": "SC",
    "zip": "29607",
    "latitude": 34.7815894,
    "longitude": -82.3512904,
    "description": "2,409 dog owners have made Conestee Nature Preserve (840 Mauldin Rd) one of Greenville's most trusted parks (4.7 stars). Open from 7am to 8pm daily, dog owners can easily fit a visit into their day, whether morning or evening. For variety, many dog owners also bring their furry friends to Legacy Park (3.6 miles)—another great dog park in the area."
  },
  {
    "name": "Legacy Park",
    "street": "336 Rocky Slope Rd",
    "city": "Greenville",
    "state": "SC",
    "zip": "29607",
    "latitude": 34.8302469,
    "longitude": -82.3309806,
    "description": "With 4.7 stars across 1,074 reviews, Legacy Park at 336 Rocky Slope Rd has clearly won over Greenville dog owners. Open from 5am to 9pm daily, dog owners can easily fit a visit into their day, whether morning or evening. Nearby, The Unleashed Dog Bar and (0.6 miles) is another dog park favorite where you can take your four-legged friend."
  },
  {
    "name": "The Unleashed Dog Bar and",
    "street": "69 Rocky Slope Rd",
    "city": "Greenville",
    "state": "SC",
    "zip": "29607",
    "latitude": 34.838465,
    "longitude": -82.3344871,
    "description": "The Unleashed Dog Bar and at 69 Rocky Slope Rd is well-regarded by Greenville dog owners, holding 4.6 stars across 312 reviews. The park serves dog owners well, providing a destination the community values. For a change of scenery, Legacy Park is another dog-friendly destination 0.6 miles from here."
  },
  {
    "name": "Edgewood Bark Park",
    "street": "107 Meadow Wood Dr",
    "city": "Greenville",
    "state": "SC",
    "zip": "29615",
    "latitude": 34.8644486,
    "longitude": -82.2939304,
    "description": "Dog owners in Greenville have made Edgewood Bark Park at 107 Meadow Wood Dr a go-to spot, rating it 4.5 stars across 75 reviews. For dog owners in the area, this park has become a trusted spot for time with their pups. Nearby, Pavilion Dog Park (1.5 miles) offers dog owners another great spot to explore with their pups."
  },
  {
    "name": "‍ Pavilion Dog Park",
    "street": "400 Scottswood RdTaylors",
    "city": "Greenville",
    "state": "SC",
    "zip": "29687",
    "latitude": 34.8848534,
    "longitude": -82.3007118,
    "description": "Greenville dog owners rate Pavilion Dog Park at 400 Scottswood Rd highly, with 4.5 stars from 268 visits. Open from 8am to 8pm daily, dog owners can easily fit a visit into busy schedules. For variety, the neighborhood offers more dog parks to explore: Edgewood Bark Park (1.5 miles) and The Unleashed Dog Bar and (3.7 miles)."
  },
  {
    "name": "Pelham Mill Dog Park",
    "street": "2770 E Phillips RdGreer",
    "city": "Greenville",
    "state": "SC",
    "zip": "29650",
    "latitude": 34.8728093,
    "longitude": -82.2334885,
    "description": "Dog owners in Greenville have rated Pelham Mill Dog Park (2770 E Phillips Rd) 4.4 stars across 220 reviews. The park serves as a gathering spot for dog owners and their four-legged friends in the area. Nearby dog parks worth exploring with your pup include Pelham Mill Park (0.5 miles) and Edgewood Bark Park (3.5 miles)."
  },
  {
    "name": "Pelham Mill Park",
    "street": "2770 E Phillips Rd",
    "city": "Greenville",
    "state": "SC",
    "zip": "29615",
    "latitude": 34.8685122,
    "longitude": -82.2271474,
    "description": "Dog owners in Greenville have made Pelham Mill Park at 2770 E Phillips Rd a go-to spot, rating it 4.3 stars across 514 reviews. Open from 7am to 7pm daily, dog owners have plenty of flexibility to plan a visit. Dog owners can also take their pups to nearby Pelham Mill Dog Park (0.5 miles) or Edgewood Bark Park (3.8 miles)."
  },
  {
    "name": "‍ Centennial Park",
    "street": "",
    "city": "Greenville",
    "state": "SC",
    "zip": "",
    "latitude": 34.851354,
    "longitude": -82.3984882,
    "description": "Centennial Park serves dog owners in the Greenville neighborhood looking for a place to visit with their pups. Open from 6am to 9pm daily, the park fits conveniently into different routines. For pups who want more adventure, Verner Springs Park is a nearby dog park worth visiting (1.7 miles)."
  },
  {
    "name": "Verner Springs Park",
    "street": "4 Old Bleachery Rd",
    "city": "Greenville",
    "state": "SC",
    "zip": "29609",
    "latitude": 34.8691921,
    "longitude": -82.4202106,
    "description": "Verner Springs Park at 4 Old Bleachery Rd in Greenville has 4.1 stars from 59 dog owner reviews. Open from 6am to 9:30pm daily, dog owners have flexibility to plan a visit with their four-legged friends. Dog owners in the neighborhood can also take their furry friends to Centennial Park, 1.7 miles away."
  },
  {
    "name": "‍ Shem Creek Park",
    "street": "Shrimp Boat LnMt Pleasant",
    "city": "Mount Pleasant",
    "state": "SC",
    "zip": "29464",
    "latitude": 32.7938944,
    "longitude": -79.8823128,
    "description": "2,140 dog owners have made Shem Creek Park one of Mount Pleasant's most trusted parks (4.8 stars). Open from 11am to 10pm daily, there's always time for dog owners to bring their pup for some quality time. Other popular dog parks nearby include James B. Edwards Passive Park (0.8 miles) and Park (1.1 miles)—both favorites among local pup parents."
  },
  {
    "name": "Isle of Palms Recreation Depar",
    "street": "24 28th AveIsle of Palms",
    "city": "Mount Pleasant",
    "state": "SC",
    "zip": "29451",
    "latitude": 32.7941378,
    "longitude": -79.7758287,
    "description": "Located at 24 28th Ave in Mount Pleasant, Isle of Palms Recreation Depar earns strong marks from local dog owners—4.8 stars from 252 reviews. Local dog owners appreciate what this park offers their four-legged friends. For a change of scenery, Isle of Palms County Park is another dog-friendly destination 0.8 miles from here."
  },
  {
    "name": "Avant Garden Park",
    "street": "",
    "city": "Mount Pleasant",
    "state": "SC",
    "zip": "",
    "latitude": 32.7940651,
    "longitude": -79.8625851,
    "description": "For dog owners in the Mount Pleasant area, Avant Garden Park offers a 4.8-star experience based on 33 reviews. Dog owners in the area consistently choose this park as a go-to destination for their pups. Nearby, Park (0.0 miles) offers dog owners another great spot to explore with their pups."
  },
  {
    "name": "Thomson Park",
    "street": "3217 Middle StSullivan's Island",
    "city": "Mount Pleasant",
    "state": "SC",
    "zip": "29482",
    "latitude": 32.7736542,
    "longitude": -79.8159538,
    "description": "With 4.7 stars from 620 reviews, Thomson Park at 3217 Middle St has become a favorite among Mount Pleasant dog owners. Dog owners frequent this park for its consistent quality and welcoming atmosphere. Dog owners can also take their pups to nearby Isle of Palms County Park (1.9 miles) or Pickett Park (2.7 miles)."
  },
  {
    "name": "Smythe Park",
    "street": "2364 Daniel Island Dr",
    "city": "Mount Pleasant",
    "state": "SC",
    "zip": "29492",
    "latitude": 32.848681,
    "longitude": -79.9083394,
    "description": "Dog owners in Mount Pleasant have made Smythe Park at 2364 Daniel Island Dr a go-to spot, rating it 4.7 stars across 165 reviews. Dog owners looking for a solid destination will find this park delivers. For variety, the neighborhood offers more dog parks to explore: Kearns Park (1.7 miles) and Riverfront Park (3.6 miles)."
  },
  {
    "name": "Hamlin Park",
    "street": "2364 Rifle Range RdMt Pleasant",
    "city": "Mount Pleasant",
    "state": "SC",
    "zip": "29466",
    "latitude": 32.8366475,
    "longitude": -79.8020755,
    "description": "For dog owners in the Mount Pleasant area, Hamlin Park (2364 Rifle Range Rd) offers a 4.5-star experience based on 14 reviews. The park has earned its reputation among dog owners in the neighborhood as a reliable choice. For a change of scenery, Fort Palmetto Park is another dog-friendly destination 0.5 miles from here."
  },
  {
    "name": "‍ Marion Square",
    "street": "329 Meeting St",
    "city": "Mount Pleasant",
    "state": "SC",
    "zip": "29403",
    "latitude": 32.7871926,
    "longitude": -79.9344811,
    "description": "Marion Square at 329 Meeting St is a favorite among Mount Pleasant dog owners, earning 4.6 stars from 2,278 reviews. The community of dog owners here is welcoming and the atmosphere consistently positive. For variety, many dog owners also bring their furry friends to Tiedemann Park (0.3 miles)—another great dog park in the area."
  },
  {
    "name": "McMahon Playground",
    "street": "55 Cleveland St",
    "city": "Mount Pleasant",
    "state": "SC",
    "zip": "29403",
    "latitude": 32.8017123,
    "longitude": -79.9521077,
    "description": "With 4.5 stars from 62 reviews, McMahon Playground at 55 Cleveland St has become a favorite among Mount Pleasant dog owners. Open from 6am to 9pm daily, the park works well for dog owners with different schedules. For variety, the neighborhood offers more dog parks to explore: Hampton Park (0.3 miles) and Hampton Park (0.4 miles)."
  },
  {
    "name": "Dock Street Park",
    "street": "749 Sprague St",
    "city": "Mount Pleasant",
    "state": "SC",
    "zip": "29412",
    "latitude": 32.7442801,
    "longitude": -79.9607337,
    "description": "Dock Street Park at 749 Sprague St is well-regarded by Mount Pleasant dog owners, holding 4.5 stars across 76 reviews. Open from 6am to 9pm daily, dog owners have plenty of flexibility to plan a visit. Dog owners can also take their pups to nearby James Island County Park (2.2 miles) or Horse Lot Park (2.4 miles)."
  },
  {
    "name": "Kearns Park",
    "street": "100 Wando Park BlvdMt Pleasant",
    "city": "Mount Pleasant",
    "state": "SC",
    "zip": "29464",
    "latitude": 32.8470388,
    "longitude": -79.8799523,
    "description": "Kearns Park at 100 Wando Park Blvd is well-regarded by Mount Pleasant dog owners, holding 4.5 stars across 77 reviews. Dog owners frequent this park for its consistent quality and welcoming atmosphere. Dog owners can also take their pups to nearby Smythe Park (1.7 miles) or Palmetto Islands County Park (2.9 miles)."
  },
  {
    "name": "Fort Palmetto Park",
    "street": "2213 N Palmetto Fort DrMt Pleasant",
    "city": "Mount Pleasant",
    "state": "SC",
    "zip": "29466",
    "latitude": 32.8294054,
    "longitude": -79.8049405,
    "description": "43 dog owners have reviewed Fort Palmetto Park at 2213 N Palmetto Fort Dr in Mount Pleasant, averaging 4.4 stars. The neighborhood benefits from having this park as an option for dog owners and their pups. Dog owners looking for variety can also visit Hamlin Park (0.5 miles) or Mount Pleasant / Charleston (1.1 miles) with their four-legged friends."
  },
  {
    "name": "Mount Pleasant / Charleston",
    "street": "3157 N Hwy 17Mt Pleasant",
    "city": "Mount Pleasant",
    "state": "SC",
    "zip": "29466",
    "latitude": 32.8431573,
    "longitude": -79.815634,
    "description": "At 3157 N Hwy 17 in Mount Pleasant, Mount Pleasant / Charleston stands out with 4.5 stars from 1,150 happy dog owners. Open from 8am to 9pm daily, dog owners have room to work around busy schedules. Nearby, Hamlin Park (0.9 miles) is another dog park favorite where you can take your four-legged friend."
  },
  {
    "name": "John McCants Veterans Park",
    "street": "355 Anita Dr",
    "city": "North Charleston",
    "state": "SC",
    "zip": "29445",
    "latitude": 33.0213262,
    "longitude": -80.0337376,
    "description": "North Charleston dog owners rate John McCants Veterans Park at 355 Anita Dr highly, with 4.6 stars from 194 visits. Open from 7am to 7pm daily, there's plenty of opportunity for dog owners to find a time that works. Nearby, Dogwood Park (1.7 miles) offers dog owners another great spot to explore with their pups."
  },
  {
    "name": "Neighborhood Park",
    "street": "",
    "city": "North Charleston",
    "state": "SC",
    "zip": "",
    "latitude": 32.9138914,
    "longitude": -80.0088359,
    "description": "North Charleston dog owners rate Neighborhood Park highly, with 4.8 stars from 20 visits. Dog owners in the area consistently choose this park as a go-to destination for their pups. Other dog parks in the area include MWV/Kapstone Park (1.3 miles) and The Hawks Nest (2.2 miles)—both great for exploring with your four-legged friend."
  },
  {
    "name": "Quarterman Park",
    "street": "1126 Buist Ave",
    "city": "North Charleston",
    "state": "SC",
    "zip": "29405",
    "latitude": 32.8787578,
    "longitude": -79.9814362,
    "description": "For dog owners in the North Charleston area, Quarterman Park (1126 Buist Ave) offers a 4.5-star experience based on 591 reviews. Open from 6am to 10pm daily, dog owners can easily fit a visit into busy schedules. Dog owners can also take their pups to nearby Park (0.2 miles) or DIG In The Park (0.4 miles)."
  },
  {
    "name": "Northwoods Park",
    "street": "8348 Greenridge Rd",
    "city": "North Charleston",
    "state": "SC",
    "zip": "29406",
    "latitude": 32.9570106,
    "longitude": -80.0606413,
    "description": "Located at 8348 Greenridge Rd in North Charleston, Northwoods Park earns strong marks from local dog owners—4.5 stars from 296 reviews. Dog owners in the area consistently choose this park as a go-to destination for their pups. More dog-friendly parks nearby include Broken Leash Dog Park (1.2 miles) and North Charleston Wannamaker (1.7 miles)—perfect for pups who love adventure."
  },
  {
    "name": "Fairfax Park",
    "street": "100 Fairfax Blvd",
    "city": "North Charleston",
    "state": "SC",
    "zip": "29445",
    "latitude": 33.028128,
    "longitude": -80.063918,
    "description": "Fairfax Park at 100 Fairfax Blvd is well-regarded by North Charleston dog owners, holding 4.5 stars across 77 reviews. Open from 7am to 7pm daily, there's plenty of opportunity for dog owners to find a time that works. More dog-friendly parks nearby include John McCants Veterans Park (1.8 miles) and Dogwood Park (3.2 miles)—perfect for pups who love adventure."
  },
  {
    "name": "The Hawks Nest",
    "street": "1177 Williams Ln",
    "city": "North Charleston",
    "state": "SC",
    "zip": "29410",
    "latitude": 32.9449884,
    "longitude": -80.0044219,
    "description": "The Hawks Nest (4.6 stars from 24 reviews) is a popular destination for North Charleston dog owners, located at 1177 Williams Ln. The park serves dog owners well, providing a destination the community values. Nearby, Neighborhood Park (2.2 miles) offers dog owners another great spot to explore with their pups."
  },
  {
    "name": "Mostree Park",
    "street": "1452 Bexley St",
    "city": "North Charleston",
    "state": "SC",
    "zip": "29405",
    "latitude": 32.8730419,
    "longitude": -79.9901765,
    "description": "Dog owners in North Charleston have made Mostree Park at 1452 Bexley St a go-to spot, rating it 4.7 stars across 11 reviews. Open from 6am to 6pm daily, the park works well for dog owners with different schedules. For variety, the neighborhood offers more dog parks to explore: Park (0.6 miles) and Quarterman Park (0.6 miles)."
  },
  {
    "name": "‍ Ralph M. Hendricks Park",
    "street": "5250 Virginia Ave",
    "city": "North Charleston",
    "state": "SC",
    "zip": "29405",
    "latitude": 32.8955968,
    "longitude": -79.9729392,
    "description": "At 5250 Virginia Ave in North Charleston, Ralph M. Hendricks Park carries 4.2 stars from 189 dog owner reviews. Open from 8am to 6pm daily, dog owners in the area can work a visit into their day. Dog owners looking for variety can also visit DIG In The Park (1.0 miles) or MWV/Kapstone Park (1.1 miles) with their four-legged friends."
  },
  {
    "name": "MWV/Kapstone Park",
    "street": "1206 Bentley Rd",
    "city": "North Charleston",
    "state": "SC",
    "zip": "29406",
    "latitude": 32.9026103,
    "longitude": -79.9900689,
    "description": "Dog owners in North Charleston have rated MWV/Kapstone Park (1206 Bentley Rd) 4.2 stars across 190 reviews. Open from 8am to 9:30pm daily, dog owners in the area can work a visit into their day. Nearby dog parks worth exploring with your pup include Ralph M. Hendricks Park (1.1 miles) and Neighborhood Park (1.3 miles)."
  },
  {
    "name": "DIG In The Park",
    "street": "1049 E Montague Ave",
    "city": "North Charleston",
    "state": "SC",
    "zip": "29405",
    "latitude": 32.8812562,
    "longitude": -79.9758909,
    "description": "North Charleston dog owners rate DIG In The Park at 1049 E Montague Ave highly, with 4.2 stars from 1,821 visits. The steady stream of dog owner visits speaks to the park's appeal. Nearby, Quarterman Park (0.4 miles) offers dog owners another great spot to explore with their pups."
  },
  {
    "name": "Dogwood Park",
    "street": "460 Liberty Hall Rd",
    "city": "North Charleston",
    "state": "SC",
    "zip": "29445",
    "latitude": 32.9998262,
    "longitude": -80.0206088,
    "description": "At 460 Liberty Hall Rd, Dogwood Park has 4.1 stars based on 125 reviews from North Charleston dog owners. Open from 7am to 7pm, Monday through Saturday, dog owners have flexibility to plan a visit with their four-legged friends. For pups who want more adventure, John McCants Veterans Park is a nearby dog park worth visiting (1.7 miles)."
  },
  {
    "name": "‍ Mary Warner Mack Dog Park",
    "street": "148 Adventure RoadFort Mill",
    "city": "Rock Hill",
    "state": "SC",
    "zip": "29715",
    "latitude": 35.0354949,
    "longitude": -80.9144057,
    "description": "105 dog owners have reviewed Mary Warner Mack Dog Park at 148 Adventure Road in Rock Hill, averaging 4.2 stars. The park gives neighborhood dog owners a destination for outings with their four-legged friends. Dog owners might also enjoy Canine Commons Dog Park, another dog park just 3.1 miles away."
  },
  {
    "name": "Spencer Park",
    "street": "Spencer St",
    "city": "Rock Hill",
    "state": "SC",
    "zip": "29730",
    "latitude": 34.9199756,
    "longitude": -81.0053437,
    "description": "172 dog owners have reviewed Spencer Park in Rock Hill, averaging 4.1 stars. Open from 7am to 7pm daily, the park gives dog owners in the neighborhood time to bring their pups. Reading what other dog owners have experienced here can help with planning a visit."
  }
]