[
  {
    "name": "Medical Center Park",
    "street": "1100 Wallace Blvd",
    "city": "Amarillo",
    "state": "TX",
    "zip": "79106",
    "latitude": 35.202592,
    "longitude": -101.914459,
    "description": "Medical Center Park at 1100 Wallace Blvd in Amarillo is a community favorite, with 1,914 dog owners giving it 4.6 stars. Open from 5am to 12am daily, dog owners have room to work around busy schedules. Nearby, Dog Park (2.0 miles) is another dog park favorite where you can take your four-legged friend."
  },
  {
    "name": "Dog Park",
    "street": "14701 I-40",
    "city": "Amarillo",
    "state": "TX",
    "zip": "79124",
    "latitude": 35.1873845,
    "longitude": -101.9453919,
    "description": "At 14701 I-40 in Amarillo, Dog Park carries 4.3 stars from 12 dog owner reviews. Dog owners in the area appreciate having a local spot to bring their pups. Dog owners in the neighborhood can also take their furry friends to Medical Center Park, 2.0 miles away."
  },
  {
    "name": "Thompson Memorial Park",
    "street": "2401 Dumas Dr",
    "city": "Amarillo",
    "state": "TX",
    "zip": "79107",
    "latitude": 35.2412033,
    "longitude": -101.8317056,
    "description": "Located at 2401 Dumas Dr in Amarillo, Thompson Memorial Park earns strong marks from local dog owners—4.4 stars from 516 reviews. Open from 5am to 12am daily, there's plenty of opportunity for dog owners to find a time that works. Dog owners exploring the neighborhood can also bring their furry friends to Thompson Dog Park (0.9 miles)."
  },
  {
    "name": "Southeast Park",
    "street": "2500 SE 46th Ave",
    "city": "Amarillo",
    "state": "TX",
    "zip": "79118",
    "latitude": 35.1639266,
    "longitude": -101.8278651,
    "description": "At 2500 SE 46th Ave in Amarillo, Southeast Park carries 4.1 stars from 222 dog owner reviews. Open from 5am to 12am daily, the park is accessible for dog owners in the area. Reading what other dog owners have experienced here can help with planning a visit."
  },
  {
    "name": "Thompson Dog Park",
    "street": "2420 N Hughes St",
    "city": "Amarillo",
    "state": "TX",
    "zip": "79107",
    "latitude": 35.2370227,
    "longitude": -101.8470993,
    "description": "At 2420 N Hughes St in Amarillo, Thompson Dog Park welcomes dog owners from the surrounding neighborhood. This park provides dog owners in the community with a place to visit with their dogs. For dog owners who like to explore, Thompson Memorial Park (0.9 miles) and Medical Center Park (4.5 miles) are both nearby parks to try with your dog."
  },
  {
    "name": "‍ Paws Colinas Dog Park",
    "street": "1300 California Crossing Rd",
    "city": "Arlington",
    "state": "TX",
    "zip": "75039",
    "latitude": 32.866244,
    "longitude": -96.928373,
    "description": "With 4.6 stars from 178 reviews, Paws Colinas Dog Park at 1300 California Crossing Rd has become a favorite among Arlington dog owners. The steady stream of dog owner visits speaks to the park's appeal. For a change of scenery, Irving Dog Park is another dog-friendly destination 4.5 miles from here."
  },
  {
    "name": "Mans Best Field Dog Park",
    "street": "610 W Broad St",
    "city": "Arlington",
    "state": "TX",
    "zip": "76063",
    "latitude": 32.5634103,
    "longitude": -97.1498581,
    "description": "For dog owners in the Arlington area, Mans Best Field Dog Park (610 W Broad St) offers a 4.6-star experience based on 130 reviews. Open from 5am to 9pm, every day except Tuesday, there's room in the day for dog owners to bring their furry friends. Based on the reviews, dog owners can expect a reliable spot for spending time with their pup."
  },
  {
    "name": "Rush Creek Dog Park",
    "street": "1702 Valleywood Dr",
    "city": "Arlington",
    "state": "TX",
    "zip": "76013",
    "latitude": 32.7170134,
    "longitude": -97.1713684,
    "description": "In Arlington, dog owners can find Rush Creek Dog Park at 1702 Valleywood Dr—a local park worth exploring with their furry companions. Open from 6am to 10pm, Monday through Saturday, the park gives dog owners in the neighborhood time to bring their pups. For pups who want more adventure, Rush Creek Dog Park is a nearby dog park worth visiting (0.1 miles)."
  },
  {
    "name": "Lakewood Dog Park",
    "street": "2013 Cactus Mound Dr",
    "city": "Austin",
    "state": "TX",
    "zip": "78641",
    "latitude": 30.5621244,
    "longitude": -97.8102277,
    "description": "Lakewood Dog Park at 2013 Cactus Mound Dr is well-regarded by Austin dog owners, holding 4.8 stars across 72 reviews. Dog owners looking for a solid destination will find this park delivers. For a change of scenery, Cedar Bark Park is another dog-friendly destination 4.5 miles from here."
  },
  {
    "name": "Zilker Metropolitan Park",
    "street": "2100 Barton Springs Rd",
    "city": "Austin",
    "state": "TX",
    "zip": "78704",
    "latitude": 30.2711286,
    "longitude": -97.7436995,
    "description": "Dog owners have made Zilker Metropolitan Park at 2100 Barton Springs Rd one of Austin's most popular destinations—4.7 stars from 5,239 visits. Open from 5am to 10pm daily, dog owners can visit during quieter hours or join the regular crowd. The neighborhood offers dog owners more places to bring their pups: Auditorium Shores Dog Park (0.0 miles) and Dog Ranch South Austin (0.0 miles)."
  },
  {
    "name": "Walnut Creek Metropolitan Park",
    "street": "12138 N Lamar Blvd",
    "city": "Austin",
    "state": "TX",
    "zip": "78753",
    "latitude": 30.3998054,
    "longitude": -97.6832724,
    "description": "Walnut Creek Metropolitan Park at 12138 N Lamar Blvd in Austin is a community favorite, with 3,847 dog owners giving it 4.7 stars. Open from 5am to 10pm daily, dog owners can plan visits around their pup's favorite times to be active. For more dog park adventures, explore Domain Central Parks Park (2.3 miles) or WB MUD Dog Park (3.9 miles) with your furry companion."
  },
  {
    "name": "Mayfield Park",
    "street": "3505 W 35th St",
    "city": "Austin",
    "state": "TX",
    "zip": "78703",
    "latitude": 30.3140272,
    "longitude": -97.7701496,
    "description": "Dog owners in Austin have embraced Mayfield Park (3505 W 35th St) as a top destination—4.7 stars from 3,491 visits. Open from 5am to 10pm daily, dog owners have room to work around busy schedules. For variety, many dog owners also bring their furry friends to Red Bud Isle (2.1 miles)—another great dog park in the area."
  },
  {
    "name": "‍ Butler Metro Park",
    "street": "1000 Barton Springs Rd",
    "city": "Austin",
    "state": "TX",
    "zip": "78704",
    "latitude": 30.2605,
    "longitude": -97.755084,
    "description": "Dog owners in Austin have embraced Butler Metro Park (1000 Barton Springs Rd) as a top destination—4.7 stars from 2,914 visits. Open from 5am to 10pm daily, dog owners have room to work around busy schedules. For variety, many dog owners also bring their furry friends to Dog Barton Springs (0.9 miles)—another great dog park in the area."
  },
  {
    "name": "Pease District Park",
    "street": "1100 Kingsbury St",
    "city": "Austin",
    "state": "TX",
    "zip": "78703",
    "latitude": 30.2817157,
    "longitude": -97.7524056,
    "description": "Local dog owners love Pease District Park at 1100 Kingsbury St in Austin—4.7 stars from an impressive 2,578 reviews. Open from 6am to 10pm daily, dog owners can easily fit a visit into their day, whether morning or evening. Want to give your pup even more adventure? West Austin Neighborhood Park is another beloved dog park just 0.5 miles away."
  },
  {
    "name": "Cedar Bark Park",
    "street": "2525 W New Hope Dr",
    "city": "Austin",
    "state": "TX",
    "zip": "78613",
    "latitude": 30.5200944,
    "longitude": -97.8683296,
    "description": "Local dog owners love Cedar Bark Park at 2525 W New Hope Dr in Austin—4.7 stars from an impressive 1,810 reviews. The park has earned genuine loyalty from dog owners who value what it offers. Nearby, Lakewood Dog Park (4.5 miles) is another dog park favorite where you can take your four-legged friend."
  },
  {
    "name": "WB MUD Dog Park",
    "street": "2801 Sauls Dr",
    "city": "Austin",
    "state": "TX",
    "zip": "78728",
    "latitude": 30.4556391,
    "longitude": -97.6811962,
    "description": "Located at 2801 Sauls Dr in Austin, WB MUD Dog Park earns strong marks from local dog owners—4.7 stars from 187 reviews. Open from 6am to 8pm daily, dog owners can easily fit a visit into busy schedules. More dog-friendly parks nearby include Walnut Creek Metropolitan Park (3.9 miles) and Round Rock Dog Depot (3.9 miles)—perfect for pups who love adventure."
  },
  {
    "name": "Lindshire Park",
    "street": "10230 Lindshire Ln",
    "city": "Austin",
    "state": "TX",
    "zip": "78748",
    "latitude": 30.174768,
    "longitude": -97.8410204,
    "description": "Lindshire Park at 10230 Lindshire Ln is well-regarded by Austin dog owners, holding 4.7 stars across 179 reviews. Open from 6am to 1am daily, there's room in the day for dog owners to bring their furry friends. Nearby, Mary Moore Searight Metropolit (2.1 miles) offers dog owners another great spot to explore with their pups."
  },
  {
    "name": "Norwood Estate Dog Park",
    "street": "1018 1/2 Edgecliff Terrace",
    "city": "Austin",
    "state": "TX",
    "zip": "78741",
    "latitude": 30.2492749,
    "longitude": -97.7373188,
    "description": "For dog owners in the Austin area, Norwood Estate Dog Park (1018 1/2 Edgecliff Terrace) offers a 4.9-star experience based on 8 reviews. Local dog owners appreciate what this park offers their four-legged friends. For variety, the neighborhood offers more dog parks to explore: Dog Launch at Vic Mathias (0.1 miles) and Pepe’s Park (0.9 miles)."
  },
  {
    "name": "Dog Launch at Vic Mathias",
    "street": "920 E Riverside Dr",
    "city": "Austin",
    "state": "TX",
    "zip": "78704",
    "latitude": 30.2499065,
    "longitude": -97.7394633,
    "description": "Dog Launch at Vic Mathias at 920 E Riverside Dr is well-regarded by Austin dog owners, holding 4.8 stars across 6 reviews. For dog owners in the area, this park has become a trusted spot for time with their pups. Dog owners can also take their pups to nearby Norwood Estate Dog Park (0.1 miles) or Pepe’s Park (0.9 miles)."
  },
  {
    "name": "Pickle’s Place Dog Park",
    "street": "6414 N Hampton Dr",
    "city": "Austin",
    "state": "TX",
    "zip": "78723",
    "latitude": 30.3144515,
    "longitude": -97.6815231,
    "description": "Pickle’s Place Dog Park at 6414 N Hampton Dr is well-regarded by Austin dog owners, holding 4.6 stars across 31 reviews. Open from 8am to 6pm weekdays, the park works well for dog owners with different schedules. For variety, the neighborhood offers more dog parks to explore: Bartholomew District Park (1.2 miles) and Davis/White Northeast Neighbor (1.9 miles)."
  },
  {
    "name": "‍ Hemphill Park",
    "street": "3106 Hemphill Park",
    "city": "Austin",
    "state": "TX",
    "zip": "78705",
    "latitude": 30.297681,
    "longitude": -97.7394995,
    "description": "Hemphill Park (4.6 stars from 36 reviews) is a popular destination for Austin dog owners, located at 3106 Hemphill Park. The park serves dog owners well, providing a destination the community values. Looking for more places to take your pup? Hancock Dog Park is another popular dog park just 1.0 miles away."
  },
  {
    "name": "Cherrywood Pocket Park",
    "street": "1600 E 34th St",
    "city": "Austin",
    "state": "TX",
    "zip": "78722",
    "latitude": 30.28998,
    "longitude": -97.715731,
    "description": "Located at 1600 E 34th St in Austin, Cherrywood Pocket Park earns strong marks from local dog owners—4.6 stars from 49 reviews. Open from 5am to 10pm daily, there's plenty of opportunity for dog owners to find a time that works. Other dog parks in the area include Hancock Dog Park (0.5 miles) and Swede Hill Pocket Park (1.4 miles)—both great for exploring with your four-legged friend."
  },
  {
    "name": "Auditorium Shores Dog Park",
    "street": "",
    "city": "Austin",
    "state": "TX",
    "zip": "",
    "latitude": 30.2711286,
    "longitude": -97.7436995,
    "description": "With 4.6 stars from 131 reviews, Auditorium Shores Dog Park has become a favorite among Austin dog owners. Open from 6am to 10pm daily, there's room in the day for dog owners to bring their furry friends. For a change of scenery, Zilker Metropolitan Park is another dog-friendly destination 0.0 miles from here."
  },
  {
    "name": "Richard Moya Park",
    "street": "10001 Burleson Rd",
    "city": "Austin",
    "state": "TX",
    "zip": "78719",
    "latitude": 30.173044,
    "longitude": -97.6720234,
    "description": "Richard Moya Park (4.6 stars from 656 reviews) is a popular destination for Austin dog owners, located at 10001 Burleson Rd. Open from 8am to 8pm daily, dog owners can easily fit a visit into busy schedules. A solid track record makes this a reliable choice for dog owners."
  },
  {
    "name": "Chachalaca Park",
    "street": "1148 Burnett Rd",
    "city": "Brownsville",
    "state": "TX",
    "zip": "78521",
    "latitude": 25.9233452,
    "longitude": -97.4469579,
    "description": "Located at 1148 Burnett Rd in Brownsville, Chachalaca Park earns strong marks from local dog owners—4.6 stars from 41 reviews. Dog owners in the area consistently choose this park as a go-to destination for their pups. Based on the reviews, dog owners can expect a reliable spot for spending time with their pup."
  },
  {
    "name": "Harlingen Rotary Bark Park",
    "street": "1601 S M St",
    "city": "Brownsville",
    "state": "TX",
    "zip": "78550",
    "latitude": 26.1852184,
    "longitude": -97.710361,
    "description": "For dog owners in the Brownsville area, Harlingen Rotary Bark Park (1601 S M St) offers a 4.5-star experience based on 302 reviews. The steady stream of dog owner visits speaks to the park's appeal. The positive feedback from local dog owners speaks to the park's consistent quality."
  },
  {
    "name": "Cole Park",
    "street": "2600 Ocean Dr",
    "city": "‍ Corpus Christi",
    "state": "TX",
    "zip": "78404",
    "latitude": 27.7699832,
    "longitude": -97.3883694,
    "description": "For Corpus Christi dog owners, Cole Park at 2600 Ocean Dr needs no introduction—4.6 stars, 5,511 reviews. Open from 6am to 10pm daily, there's plenty of opportunity for dog owners to experience what makes this park special. For more dog park adventures, explore Water's Edge Park (0.9 miles) or Doddridge Park (1.0 miles) with your furry companion."
  },
  {
    "name": "Swantner Park",
    "street": "5102 Ocean Dr",
    "city": "‍ Corpus Christi",
    "state": "TX",
    "zip": "78412",
    "latitude": 27.7284929,
    "longitude": -97.3527126,
    "description": "For Corpus Christi dog owners, Swantner Park at 5102 Ocean Dr has become a reliable favorite—4.6 stars from 1,171 reviews. Open from 6am to 10pm daily, there's always time for dog owners to bring their pup for some quality time. Want to give your pup even more adventure? Palmetto Park is another beloved dog park just 0.4 miles away."
  },
  {
    "name": "Sunset Lake Park",
    "street": "201 Sunset Dr",
    "city": "‍ Corpus Christi",
    "state": "TX",
    "zip": "78374",
    "latitude": 27.8652537,
    "longitude": -97.3312889,
    "description": "At 201 Sunset Dr in Corpus Christi, Sunset Lake Park has built a loyal following—4.6 stars from 991 dog owner reviews. Local dog owners appreciate what this park offers their four-legged friends. The consistent ratings suggest dog owners know what to expect here."
  },
  {
    "name": "Water's Edge Park",
    "street": "602 S Shoreline Blvd",
    "city": "‍ Corpus Christi",
    "state": "TX",
    "zip": "78401",
    "latitude": 27.7825886,
    "longitude": -97.3944826,
    "description": "With 4.6 stars from 356 reviews, Water's Edge Park at 602 S Shoreline Blvd has become a favorite among Corpus Christi dog owners. Open from 6am to 10pm daily, there's plenty of opportunity for dog owners to find a time that works. Dog owners exploring the neighborhood can also bring their furry friends to Cole Park (0.9 miles)."
  },
  {
    "name": "‍ Palmetto Park",
    "street": "5440 Ocean Dr",
    "city": "‍ Corpus Christi",
    "state": "TX",
    "zip": "78412",
    "latitude": 27.7252089,
    "longitude": -97.3467641,
    "description": "Corpus Christi dog owners rate Palmetto Park at 5440 Ocean Dr highly, with 4.6 stars from 85 visits. Open from 6am to 10pm daily, there's plenty of opportunity for dog owners to find a time that works. Other dog parks in the area include Swantner Park (0.4 miles) and Sherwood Park (2.6 miles)—both great for exploring with your four-legged friend."
  },
  {
    "name": "Riley P Dog Park",
    "street": "13445 Whitecap Blvd",
    "city": "‍ Corpus Christi",
    "state": "TX",
    "zip": "78418",
    "latitude": 27.6023146,
    "longitude": -97.2369415,
    "description": "Located at 13445 Whitecap Blvd in Corpus Christi, Riley P Dog Park earns strong marks from local dog owners—4.5 stars from 8 reviews. Dog owners in the area consistently choose this park as a go-to destination for their pups. Dog owners exploring the neighborhood can also bring their furry friends to Douden Park (0.6 miles)."
  },
  {
    "name": "Douden Park",
    "street": "13614 Port Royal Ct",
    "city": "‍ Corpus Christi",
    "state": "TX",
    "zip": "78418",
    "latitude": 27.6094948,
    "longitude": -97.2425417,
    "description": "At 13614 Port Royal Ct, Douden Park has 4.4 stars based on 14 reviews from Corpus Christi dog owners. Open from 6am to 10pm daily, the park is accessible for dog owners in the area. Dog owners in the neighborhood can also take their furry friends to Riley P Dog Park, 0.6 miles away."
  },
  {
    "name": "Doddridge Park",
    "street": "",
    "city": "‍ Corpus Christi",
    "state": "TX",
    "zip": "",
    "latitude": 27.7635302,
    "longitude": -97.4033191,
    "description": "Doddridge Park (4.5 stars from 112 reviews) is a popular destination for Corpus Christi dog owners. Open from 6am to 10pm daily, there's plenty of opportunity for dog owners to find a time that works. Dog owners can also take their pups to nearby Vishal Bhagat Dog Park (0.0 miles) or Cole Park (1.0 miles)."
  },
  {
    "name": "Schanen Park",
    "street": "5930 O'Toole Dr",
    "city": "‍ Corpus Christi",
    "state": "TX",
    "zip": "78413",
    "latitude": 27.7055125,
    "longitude": -97.4011675,
    "description": "Located at 5930 O'Toole Dr, Schanen Park in Corpus Christi is rated 4.4 stars by 25 dog owners. Open from 6am to 10pm daily, local dog owners have time to explore with their furry companions. Dog owners in the neighborhood can also take their furry friends to Sherwood Park, 2.0 miles away."
  },
  {
    "name": "Sherwood Park",
    "street": "4314 Sherwood Dr",
    "city": "‍ Corpus Christi",
    "state": "TX",
    "zip": "78411",
    "latitude": 27.7324565,
    "longitude": -97.3881113,
    "description": "Sherwood Park at 4314 Sherwood Dr in Corpus Christi has 4.4 stars from 32 dog owner reviews. Open from 6am to 10pm, Tuesday through Sunday, dog owners have a window to spend time with their pups. Looking to explore more? Schanen Park is another dog-friendly park 2.0 miles from here."
  },
  {
    "name": "Cimarron Park",
    "street": "8109 Rock Crest Dr",
    "city": "‍ Corpus Christi",
    "state": "TX",
    "zip": "78414",
    "latitude": 27.6463936,
    "longitude": -97.3814312,
    "description": "Cimarron Park at 8109 Rock Crest Dr holds a 4.3-star rating from 37 Corpus Christi dog owner visits. Open from 6am to 10pm daily, the park is accessible for dog owners in the area. Dog owners might also enjoy Bill Witt Dog Park, another dog park just 0.5 miles away."
  },
  {
    "name": "Bill Witt City Park",
    "street": "6869 Yorktown Blvd",
    "city": "‍ Corpus Christi",
    "state": "TX",
    "zip": "78414",
    "latitude": 27.6571977,
    "longitude": -97.3773538,
    "description": "Corpus Christi dog owners rate Bill Witt City Park at 6869 Yorktown Blvd highly, with 4.4 stars from 519 visits. Open from 6am to 10pm daily, dog owners can easily fit a visit into busy schedules. Nearby, Bill Witt Dog Park (0.6 miles) offers dog owners another great spot to explore with their pups."
  },
  {
    "name": "Airline Park",
    "street": "2601 Airline Rd",
    "city": "‍ Corpus Christi",
    "state": "TX",
    "zip": "78414",
    "latitude": 27.680989,
    "longitude": -97.36404,
    "description": "Dog owners in Corpus Christi have rated Airline Park (2601 Airline Rd) 4.2 stars across 42 reviews. Open from 6am to 10pm daily, dog owners have flexibility to plan a visit with their four-legged friends. Dog owners looking for variety can also visit Bill Witt City Park (1.8 miles) or Bill Witt Dog Park (2.3 miles) with their four-legged friends."
  },
  {
    "name": "Bill Witt Dog Park",
    "street": "7718 Dalmation Dr",
    "city": "‍ Corpus Christi",
    "state": "TX",
    "zip": "78414",
    "latitude": 27.649202,
    "longitude": -97.37421,
    "description": "Bill Witt Dog Park at 7718 Dalmation Dr in Corpus Christi has 4.2 stars from 88 dog owner reviews. Open from 6am to 10pm, Tuesday through Sunday, dog owners have a window to spend time with their pups. Dog owners might also enjoy Cimarron Park, another dog park just 0.5 miles away."
  },
  {
    "name": "Vishal Bhagat Dog Park",
    "street": "",
    "city": "‍ Corpus Christi",
    "state": "TX",
    "zip": "",
    "latitude": 27.7635302,
    "longitude": -97.4033191,
    "description": "Corpus Christi dog owners have access to Vishal Bhagat Dog Park for outings with their four-legged friends. Open from 6am to 12am daily, dog owners have flexibility to plan a visit with their four-legged friends. For dog owners who like to explore, Doddridge Park (0.0 miles) and Cole Park (1.0 miles) are both nearby parks to try with your dog."
  },
  {
    "name": "Cedar Ridge Preserve",
    "street": "7171 Mountain Creek Pkwy",
    "city": "Dallas",
    "state": "TX",
    "zip": "75249",
    "latitude": 32.6336065,
    "longitude": -96.9633054,
    "description": "Cedar Ridge Preserve at 7171 Mountain Creek Pkwy in Dallas has earned its reputation with 4.8 stars from 5,109 dog owner reviews. Open from 6:30am to 6:30pm, Tuesday through Sunday, the park accommodates everything from early morning walks to evening adventures. This level of consistent praise from dog owners is rare and well-earned."
  },
  {
    "name": "Harwood Park",
    "street": "408 S Harwood St",
    "city": "Dallas",
    "state": "TX",
    "zip": "75201",
    "latitude": 32.7795971,
    "longitude": -96.7932114,
    "description": "Harwood Park at 408 S Harwood St is well-regarded by Dallas dog owners, holding 4.9 stars across 43 reviews. Open from 6am to 11pm daily, the park accommodates early risers and evening visitors alike. For variety, the neighborhood offers more dog parks to explore: Main Street Garden Park (0.2 miles) and Carpenter Park (0.3 miles)."
  },
  {
    "name": "Klyde Warren Park",
    "street": "2012 Woodall Rodgers Fwy",
    "city": "Dallas",
    "state": "TX",
    "zip": "75201",
    "latitude": 32.7889919,
    "longitude": -96.8013331,
    "description": "For Dallas dog owners, Klyde Warren Park at 2012 Woodall Rodgers Fwy needs no introduction—4.7 stars, 17,233 reviews. Open from 6am to 11pm daily, the park accommodates everything from early morning walks to evening adventures. Dog owners exploring the area should also bring their pups to Main Street Garden Park (0.6 miles) and Carpenter Park (0.6 miles)."
  },
  {
    "name": "White Rock Lake Park",
    "street": "8300 E Lawther Dr",
    "city": "Dallas",
    "state": "TX",
    "zip": "75218",
    "latitude": 32.8579253,
    "longitude": -96.7181888,
    "description": "White Rock Lake Park at 8300 E Lawther Dr is a favorite among Dallas dog owners, earning 4.7 stars from 4,626 reviews. Open from 5am to 11pm daily, it's easy for dog owners to stop by whenever works best. Keep the adventure going at other nearby dog parks like White Rock Lake Dog Park (0.4 miles) or The Village WAG - Exclusive (2.7 miles)."
  },
  {
    "name": "‍ Z Bonz Dog Park",
    "street": "6950 Camp Bowie W Blvd",
    "city": "Dallas",
    "state": "TX",
    "zip": "76116",
    "latitude": 32.721478,
    "longitude": -97.4379475,
    "description": "Dog owners in Dallas have embraced Z Bonz Dog Park (6950 Camp Bowie W Blvd) as a top destination—4.7 stars from 1,534 visits. Open from 5:30am to 11:30pm, every day except Wednesday, there's always time for dog owners to bring their pup for some quality time. Keep the adventure going at other nearby dog parks like North Z Boaz Park (0.4 miles) or Leonard Park (1.7 miles)."
  },
  {
    "name": "Lakeside Park",
    "street": "4601 Lakeside Dr",
    "city": "Dallas",
    "state": "TX",
    "zip": "75205",
    "latitude": 32.8271144,
    "longitude": -96.8011569,
    "description": "Lakeside Park at 4601 Lakeside Dr is well-regarded by Dallas dog owners, holding 4.7 stars across 925 reviews. Open from 7:30am to 4:30pm weekdays, the park works well for dog owners with different schedules. Looking for more places to take your pup? Central Commons Community Dog is another popular dog park just 1.1 miles away."
  },
  {
    "name": "Barney Wood Bark Park",
    "street": "14090 Heartside Pl",
    "city": "Dallas",
    "state": "TX",
    "zip": "75234",
    "latitude": 32.9385495,
    "longitude": -96.880047,
    "description": "Dog owners in Dallas have made Barney Wood Bark Park at 14090 Heartside Pl a go-to spot, rating it 4.7 stars across 373 reviews. Open from 6am to 10pm, every day except Monday and Wednesday, there's plenty of opportunity for dog owners to find a time that works. Other dog parks in the area include Redding Trail Dog Park (2.4 miles) and Barry H Barker Park (4.2 miles)—both great for exploring with your four-legged friend."
  },
  {
    "name": "‍ Pawsome Playground Dog Park",
    "street": "4800 E Lake Highlands Dr",
    "city": "Dallas",
    "state": "TX",
    "zip": "75056",
    "latitude": 33.103232,
    "longitude": -96.8908813,
    "description": "With 4.7 stars from 310 reviews, Pawsome Playground Dog Park at 4800 E Lake Highlands Dr has become a favorite among Dallas dog owners. Local dog owners appreciate what this park offers their four-legged friends. Nearby, Ruff Range Dog Park (2.2 miles) offers dog owners another great spot to explore with their pups."
  },
  {
    "name": "Boy Scout Hill Pavillion",
    "street": "",
    "city": "Dallas",
    "state": "TX",
    "zip": "",
    "latitude": 32.7762719,
    "longitude": -96.7968559,
    "description": "Boy Scout Hill Pavillion (4.7 stars from 89 reviews) is a popular destination for Dallas dog owners. Open from 6am to 11pm daily, dog owners can easily fit a visit into busy schedules. More dog-friendly parks nearby include Everglade Park (0.0 miles) and Crockett Park (0.0 miles)—perfect for pups who love adventure."
  },
  {
    "name": "Carpenter Park",
    "street": "2201 Pacific Ave",
    "city": "Dallas",
    "state": "TX",
    "zip": "75201",
    "latitude": 32.783764,
    "longitude": -96.792438,
    "description": "At 2201 Pacific Ave in Dallas, Carpenter Park has built a loyal following—4.7 stars from 62 dog owner reviews. The park has earned its reputation among dog owners in the neighborhood as a reliable choice. Looking for more places to take your pup? Main Street Garden Park is another popular dog park just 0.2 miles away."
  },
  {
    "name": "Parkhill Dog Park",
    "street": "4800 Meadowcreek Dr",
    "city": "Dallas",
    "state": "TX",
    "zip": "75248",
    "latitude": 32.971267,
    "longitude": -96.788808,
    "description": "With 4.8 stars from 13 reviews, Parkhill Dog Park at 4800 Meadowcreek Dr has become a favorite among Dallas dog owners. Open from 5am to 11pm, every day except Tuesday, the park offers flexibility for dog owners with varying routines. For variety, the neighborhood offers more dog parks to explore: Wagging Tail Dog Park (1.1 miles) and Bert Fields Park (2.1 miles)."
  },
  {
    "name": "Crockett Park",
    "street": "",
    "city": "Dallas",
    "state": "TX",
    "zip": "",
    "latitude": 32.7762719,
    "longitude": -96.7968559,
    "description": "Crockett Park (4.7 stars from 7 reviews) is a popular destination for Dallas dog owners. Local dog owners appreciate what this park offers their four-legged friends. Nearby, Boy Scout Hill Pavillion (0.0 miles) offers dog owners another great spot to explore with their pups."
  },
  {
    "name": "White Rock Lake Dog Park",
    "street": "8000 E Mockingbird Ln",
    "city": "Dallas",
    "state": "TX",
    "zip": "75218",
    "latitude": 32.852572,
    "longitude": -96.721747,
    "description": "White Rock Lake Dog Park at 8000 E Mockingbird Ln in Dallas is a community favorite, with 1,553 dog owners giving it 4.6 stars. Open from 5am to 11pm, Tuesday through Sunday, dog owners have plenty of flexibility to visit when it suits their schedule. Dog owners in the area also love bringing their pups to White Rock Lake Park (0.4 miles) and The Village WAG - Exclusive (2.6 miles)."
  },
  {
    "name": "NorthBark Dog Park",
    "street": "4899 Gramercy Oaks Dr",
    "city": "Dallas",
    "state": "TX",
    "zip": "75287",
    "latitude": 33.0109877,
    "longitude": -96.8201391,
    "description": "NorthBark Dog Park at 4899 Gramercy Oaks Dr in Dallas is a community favorite, with 1,454 dog owners giving it 4.6 stars. Open from 5am to 11pm, every day except Tuesday, it's easy for dog owners to stop by whenever works best. Keep the adventure going at other nearby dog parks like Barry H Barker Park (2.1 miles) or Wagging Tail Dog Park (3.0 miles)."
  },
  {
    "name": "Turtle Creek Park",
    "street": "3333 Turtle Creek Blvd",
    "city": "Dallas",
    "state": "TX",
    "zip": "75219",
    "latitude": 32.8077621,
    "longitude": -96.8034823,
    "description": "At 3333 Turtle Creek Blvd in Dallas, Turtle Creek Park has built a loyal following—4.6 stars from 875 dog owner reviews. Open from 5am to 11pm daily, dog owners have plenty of flexibility to plan a visit. Nearby, Turtle Creek Parkway Park (0.2 miles) offers dog owners another great spot to explore with their pups."
  },
  {
    "name": "Tails 'N Trails Dog Park",
    "street": "950 SE Green Oaks Blvd",
    "city": "Dallas",
    "state": "TX",
    "zip": "76018",
    "latitude": 32.6533196,
    "longitude": -97.0969403,
    "description": "At 950 SE Green Oaks Blvd in Dallas, Tails 'N Trails Dog Park has built a loyal following—4.6 stars from 703 dog owner reviews. Local dog owners appreciate what this park offers their four-legged friends. Based on the reviews, dog owners can expect a reliable spot for spending time with their pup."
  },
  {
    "name": "South Lakes Park",
    "street": "556 Hobson Ln",
    "city": "‍ Denton",
    "state": "TX",
    "zip": "76205",
    "latitude": 33.1761676,
    "longitude": -97.1226932,
    "description": "Dog owners in Denton have embraced South Lakes Park (556 Hobson Ln) as a top destination—4.7 stars from 1,644 visits. Open from 6am to 10pm daily, dog owners have room to work around busy schedules. Nearby, Wiggly Field Dog Park (1.4 miles) is another dog park favorite where you can take your four-legged friend."
  },
  {
    "name": "North Lakes Dog Park",
    "street": "808 W Windsor Dr",
    "city": "‍ Denton",
    "state": "TX",
    "zip": "76207",
    "latitude": 33.2396646,
    "longitude": -97.1663114,
    "description": "North Lakes Dog Park (4.7 stars from 284 reviews) is a popular destination for Denton dog owners, located at 808 W Windsor Dr. Open from 7am to 10pm daily, there's room in the day for dog owners to bring their furry friends. Dog owners can also take their pups to nearby North Lakes Park (0.7 miles) or Quakertown Park (2.5 miles)."
  },
  {
    "name": "North Lakes Park",
    "street": "2001 W Windsor Dr",
    "city": "‍ Denton",
    "state": "TX",
    "zip": "76207",
    "latitude": 33.2387715,
    "longitude": -97.1541774,
    "description": "North Lakes Park at 2001 W Windsor Dr is well-regarded by Denton dog owners, holding 4.7 stars across 203 reviews. Open from 8am to 10pm daily, dog owners can plan visits around work or their pup's energy level. Dog owners can also take their pups to nearby North Lakes Dog Park (0.7 miles) or Quakertown Park (2.0 miles)."
  },
  {
    "name": "Harvest Bark Park",
    "street": "1750 Old Justin Rd",
    "city": "‍ Denton",
    "state": "TX",
    "zip": "76226",
    "latitude": 33.1185097,
    "longitude": -97.2284534,
    "description": "Harvest Bark Park at 1750 Old Justin Rd is well-regarded by Denton dog owners, holding 4.8 stars across 19 reviews. Dog owners frequent this park for its consistent quality and welcoming atmosphere. Looking for more places to take your pup? Canyon Falls Dog Park is another popular dog park just 3.6 miles away."
  },
  {
    "name": "Avondale Park",
    "street": "2020 Devonshire Dr",
    "city": "‍ Denton",
    "state": "TX",
    "zip": "76209",
    "latitude": 33.2433353,
    "longitude": -97.1068591,
    "description": "Avondale Park at 2020 Devonshire Dr is well-regarded by Denton dog owners, holding 4.7 stars across 80 reviews. The park serves dog owners well, providing a destination the community values. Looking for more places to take your pup? Quakertown Park is another popular dog park just 2.2 miles away."
  },
  {
    "name": "Unity Park",
    "street": "2200 Briarhill Blvd",
    "city": "‍ Denton",
    "state": "TX",
    "zip": "75077",
    "latitude": 33.0741745,
    "longitude": -97.0673645,
    "description": "Denton dog owners rate Unity Park at 2200 Briarhill Blvd highly, with 4.6 stars from 586 visits. Open from 6am to 11pm daily, the park works well for dog owners with different schedules. The reviews indicate this is a trusted destination for dog owners in the area."
  },
  {
    "name": "Wiggly Field Dog Park",
    "street": "1760 E Ryan Rd",
    "city": "‍ Denton",
    "state": "TX",
    "zip": "76210",
    "latitude": 33.161539,
    "longitude": -97.1069427,
    "description": "With 4.6 stars from 734 reviews, Wiggly Field Dog Park at 1760 E Ryan Rd has become a favorite among Denton dog owners. Dog owners in the area consistently choose this park as a go-to destination for their pups. For a change of scenery, South Lakes Park is another dog-friendly destination 1.4 miles from here."
  },
  {
    "name": "Canyon Falls Dog Park",
    "street": "555 Westbridge Dr",
    "city": "‍ Denton",
    "state": "TX",
    "zip": "76262",
    "latitude": 33.067368,
    "longitude": -97.2195645,
    "description": "With 4.5 stars from 104 reviews, Canyon Falls Dog Park at 555 Westbridge Dr has become a favorite among Denton dog owners. Dog owners frequent this park for its consistent quality and welcoming atmosphere. Dog owners exploring the neighborhood can also bring their furry friends to Harvest Bark Park (3.6 miles)."
  },
  {
    "name": "Quakertown Park",
    "street": "700 Oakland St",
    "city": "‍ Denton",
    "state": "TX",
    "zip": "76201",
    "latitude": 33.2184684,
    "longitude": -97.1306266,
    "description": "Denton dog owners rate Quakertown Park at 700 Oakland St highly, with 4.4 stars from 747 visits. Open from 6am to 10pm daily, the park offers flexibility for dog owners with varying routines. Looking for more places to take your pup? North Lakes Park is another popular dog park just 2.0 miles away."
  },
  {
    "name": "Paloma Creek Dog Park",
    "street": "1310 Salt Branch Rd",
    "city": "‍ Denton",
    "state": "TX",
    "zip": "75068",
    "latitude": 33.2089793,
    "longitude": -96.9316083,
    "description": "For dog owners near 1310 Salt Branch Rd in Denton, Paloma Creek Dog Park provides a convenient spot to take their dogs. Open from 8am to 6:30pm daily, local dog owners have time to explore with their furry companions. Dog owners in the neighborhood can also take their furry friends to Little Elm Dog Park, 3.9 miles away."
  },
  {
    "name": "Madeline Park",
    "street": "900 E Baltimore Dr",
    "city": "El Paso",
    "state": "TX",
    "zip": "79902",
    "latitude": 31.782436,
    "longitude": -106.498204,
    "description": "Dog owners in El Paso have made Madeline Park at 900 E Baltimore Dr a go-to spot, rating it 4.8 stars across 398 reviews. Open from 6am to 11pm daily, dog owners can plan visits around work or their pup's energy level. For variety, the neighborhood offers more dog parks to explore: Alethea Park (0.3 miles) and Mission Hills Park (0.6 miles)."
  },
  {
    "name": "Lost Dog Trail Head",
    "street": "1651 Redd Rd",
    "city": "El Paso",
    "state": "TX",
    "zip": "79911",
    "latitude": 31.876246,
    "longitude": -106.5482114,
    "description": "With 4.8 stars from 328 reviews, Lost Dog Trail Head at 1651 Redd Rd has become a favorite among El Paso dog owners. The park has earned its reputation among dog owners in the neighborhood as a reliable choice. Other dog parks in the area include Francisco Delgado Park (0.8 miles) and Westside Community Park (1.0 miles)—both great for exploring with your four-legged friend."
  },
  {
    "name": "Memorial Park",
    "street": "1701 N Copia St",
    "city": "El Paso",
    "state": "TX",
    "zip": "79930",
    "latitude": 31.790778,
    "longitude": -106.453664,
    "description": "At 1701 N Copia St in El Paso, Memorial Park stands out with 4.7 stars from 2,583 happy dog owners. Open from 6am to 11pm daily, it's easy for dog owners to stop by whenever works best. Looking to mix things up? Newman Park is a nearby dog park 0.8 miles away that's worth exploring with your pup."
  },
  {
    "name": "Westside Community Park",
    "street": "7400 High Ridge Dr",
    "city": "El Paso",
    "state": "TX",
    "zip": "79912",
    "latitude": 31.866871,
    "longitude": -106.560539,
    "description": "At 7400 High Ridge Dr in El Paso, Westside Community Park stands out with 4.7 stars from 1,528 happy dog owners. Open from 6am to 10pm daily, dog owners can plan visits around their pup's favorite times to be active. For variety, many dog owners also bring their furry friends to Francisco Delgado Park (0.7 miles)—another great dog park in the area."
  },
  {
    "name": "Mission Hills Park",
    "street": "3800 Okeefe Dr",
    "city": "El Paso",
    "state": "TX",
    "zip": "79902",
    "latitude": 31.7898851,
    "longitude": -106.5038262,
    "description": "At 3800 Okeefe Dr in El Paso, Mission Hills Park has built a loyal following—4.7 stars from 466 dog owner reviews. Open from 6am to 11pm daily, dog owners have plenty of flexibility to plan a visit. Dog owners exploring the neighborhood can also bring their furry friends to Alethea Park (0.3 miles)."
  },
  {
    "name": "Emerald Pass Park",
    "street": "12300 Emerald Pass Ave",
    "city": "El Paso",
    "state": "TX",
    "zip": "79928",
    "latitude": 31.6973686,
    "longitude": -106.2402769,
    "description": "Emerald Pass Park at 12300 Emerald Pass Ave is well-regarded by El Paso dog owners, holding 4.8 stars across 40 reviews. Local dog owners appreciate what this park offers their four-legged friends. Other dog parks in the area include Ranchos Del Sol Park (2.5 miles) and McCarthy Park (3.2 miles)—both great for exploring with your four-legged friend."
  },
  {
    "name": "John Lyons Park",
    "street": "1825 Karl Wyler Dr",
    "city": "El Paso",
    "state": "TX",
    "zip": "79936",
    "latitude": 31.7639069,
    "longitude": -106.2963142,
    "description": "For dog owners in the El Paso area, John Lyons Park (1825 Karl Wyler Dr) offers a 4.7-star experience based on 211 reviews. Open from 6am to 10pm daily, the park accommodates early risers and evening visitors alike. Dog owners can also take their pups to nearby John Lyons Park (0.1 miles) or Marty Robbins Park (0.9 miles)."
  },
  {
    "name": "Francisco Delgado Park",
    "street": "Imperial Ridge Dr",
    "city": "El Paso",
    "state": "TX",
    "zip": "79912",
    "latitude": 31.8653915,
    "longitude": -106.5493749,
    "description": "For dog owners in the El Paso area, Francisco Delgado Park offers a 4.7-star experience based on 58 reviews. Open from 6am to 11pm daily, there's plenty of opportunity for dog owners to find a time that works. Looking for more places to take your pup? Westside Community Park is another popular dog park just 0.7 miles away."
  },
  {
    "name": "Gringo’s Bark Park",
    "street": "11410 Montana Ave",
    "city": "El Paso",
    "state": "TX",
    "zip": "79936",
    "latitude": 31.8023503,
    "longitude": -106.2977207,
    "description": "At 11410 Montana Ave in El Paso, Gringo’s Bark Park has built a loyal following—4.7 stars from 55 dog owner reviews. Open Monday through Saturday, dog owners can plan visits around work or their pup's energy level. Dog owners exploring the neighborhood can also bring their furry friends to Tierra Buena Park (1.5 miles)."
  },
  {
    "name": "Cork Park",
    "street": "3327 Cork Dr",
    "city": "El Paso",
    "state": "TX",
    "zip": "79925",
    "latitude": 31.7911789,
    "longitude": -106.3502465,
    "description": "Located at 3327 Cork Dr in El Paso, Cork Park earns strong marks from local dog owners—4.7 stars from 29 reviews. The park serves dog owners well, providing a destination the community values. For variety, the neighborhood offers more dog parks to explore: Suffolk Park (0.3 miles) and Eastwood Dog Park (0.6 miles)."
  },
  {
    "name": "‍ Tierra Buena Park",
    "street": "12700 Pebble Hills Blvd",
    "city": "El Paso",
    "state": "TX",
    "zip": "79936",
    "latitude": 31.7836297,
    "longitude": -106.3107406,
    "description": "Tierra Buena Park (4.8 stars from 12 reviews) is a popular destination for El Paso dog owners, located at 12700 Pebble Hills Blvd. The park serves dog owners well, providing a destination the community values. Dog owners exploring the neighborhood can also bring their furry friends to Pebble Hills Park (1.0 miles)."
  },
  {
    "name": "Mesquite River Park",
    "street": "",
    "city": "El Paso",
    "state": "TX",
    "zip": "",
    "latitude": 31.7601164,
    "longitude": -106.4870404,
    "description": "El Paso dog owners rate Mesquite River Park highly, with 4.7 stars from 23 visits. The park serves dog owners well, providing a destination the community values. Dog owners exploring the neighborhood can also bring their furry friends to Pavo Real Splash Park (0.0 miles)."
  },
  {
    "name": "Bulldog Championship Park",
    "street": "316 Buford Rd",
    "city": "El Paso",
    "state": "TX",
    "zip": "79927",
    "latitude": 31.6528337,
    "longitude": -106.2938433,
    "description": "Bulldog Championship Park at 316 Buford Rd in El Paso is a community favorite, with 1,110 dog owners giving it 4.6 stars. Open from 6am to 8pm daily, dog owners have room to work around busy schedules. Looking to mix things up? Pavo Real Park is a nearby dog park 2.9 miles away that's worth exploring with your pup."
  },
  {
    "name": "Salvador Rivas Jr Spray Park",
    "street": "12480 Pebble Hills Blvd",
    "city": "El Paso",
    "state": "TX",
    "zip": "79938",
    "latitude": 31.7824236,
    "longitude": -106.2550906,
    "description": "Salvador Rivas Jr Spray Park at 12480 Pebble Hills Blvd is well-regarded by El Paso dog owners, holding 4.6 stars across 913 reviews. Open from 10am to 11pm daily, there's plenty of opportunity for dog owners to find a time that works. For variety, the neighborhood offers more dog parks to explore: Tierra Buena Dog Park (0.6 miles) and Horizon Hills Park (2.5 miles)."
  },
  {
    "name": "Keystone Heritage Park",
    "street": "4200 Doniphan Dr",
    "city": "El Paso",
    "state": "TX",
    "zip": "79922",
    "latitude": 31.8204002,
    "longitude": -106.5644106,
    "description": "Keystone Heritage Park at 4200 Doniphan Dr is well-regarded by El Paso dog owners, holding 4.6 stars across 559 reviews. Open from 9am to 5pm, Tuesday through Sunday, dog owners have plenty of flexibility to plan a visit. Other dog parks in the area include Crestmont Park (1.6 miles) and Bartlett Park (2.1 miles)—both great for exploring with your four-legged friend."
  },
  {
    "name": "Foster Park",
    "street": "3950 Altura Ct",
    "city": "Fort Worth",
    "state": "TX",
    "zip": "76109",
    "latitude": 32.6892069,
    "longitude": -97.3799598,
    "description": "At 3950 Altura Ct in Fort Worth, Foster Park has built a loyal following—4.9 stars from 15 dog owner reviews. Dog owners in the area consistently choose this park as a go-to destination for their pups. Dog owners can also take their pups to nearby Foster Park (0.5 miles) or MUTTS Canine Cantina® - Fort (1.7 miles)."
  },
  {
    "name": "Fort Worth Water Gardens",
    "street": "1502 Commerce St",
    "city": "Fort Worth",
    "state": "TX",
    "zip": "76102",
    "latitude": 32.7484789,
    "longitude": -97.326081,
    "description": "With 13,462 reviews and a 4.7-star rating, Fort Worth Water Gardens (1502 Commerce St) has become a landmark for Fort Worth dog owners. Open from 6am to 10pm daily, dog owners can find the perfect time for their furry friend. The neighborhood offers dog owners more places to bring their pups: Burk Burnett Park (0.4 miles) and Oakhurst Park (0.5 miles)."
  },
  {
    "name": "Fort Worth Botanic Garden",
    "street": "3220 Botanic Garden Blvd",
    "city": "Fort Worth",
    "state": "TX",
    "zip": "76107",
    "latitude": 32.7357177,
    "longitude": -97.3666485,
    "description": "Dog owners have made Fort Worth Botanic Garden at 3220 Botanic Garden Blvd one of Fort Worth's most popular destinations—4.7 stars from 8,938 visits. Open from 8am to 5pm daily, dog owners can find the perfect time for their furry friend. The neighborhood offers dog owners more places to bring their pups: Trinity Trails Trinity Park (0.7 miles) and Trinity Park (0.7 miles)."
  },
  {
    "name": "Trinity Park",
    "street": "2401 University Dr",
    "city": "Fort Worth",
    "state": "TX",
    "zip": "76107",
    "latitude": 32.7456695,
    "longitude": -97.3617249,
    "description": "Trinity Park at 2401 University Dr is one of the most beloved dog parks in Fort Worth—4.7 stars from an incredible 5,363 reviews. Open from 5am to 11:30pm daily, dog owners have maximum flexibility to plan their visit. Dog owners in this area are lucky to have more great dog parks nearby: Trinity Trails Trinity Park (0.5 miles) and Trinity Park (0.6 miles)."
  },
  {
    "name": "Fort Worth Nature Center &",
    "street": "9601 Fossil Ridge Rd",
    "city": "Fort Worth",
    "state": "TX",
    "zip": "76135",
    "latitude": 32.8473483,
    "longitude": -97.4758769,
    "description": "Fort Worth Nature Center & at 9601 Fossil Ridge Rd in Fort Worth is a community favorite, with 1,733 dog owners giving it 4.7 stars. Open from 8am to 5pm daily, it's easy for dog owners to stop by whenever works best. Keep the adventure going at other nearby dog parks like Lake Worth Dog Park (3.7 miles) or Anderson Park (4.5 miles)."
  },
  {
    "name": "Oakmont Park",
    "street": "7000 Bellaire Dr S",
    "city": "Fort Worth",
    "state": "TX",
    "zip": "76132",
    "latitude": 32.6758479,
    "longitude": -97.429633,
    "description": "Located at 7000 Bellaire Dr S in Fort Worth, Oakmont Park earns strong marks from local dog owners—4.7 stars from 756 reviews. Open from 5am to 11pm daily, the park works well for dog owners with different schedules. Other dog parks in the area include MUTTS Canine Cantina® - Fort (2.7 miles) and Foster Park (3.0 miles)—both great for exploring with your four-legged friend."
  },
  {
    "name": "Trinity Trails Trinity Park",
    "street": "3301 Trinity Park Dr",
    "city": "Fort Worth",
    "state": "TX",
    "zip": "76107",
    "latitude": 32.7402003,
    "longitude": -97.3567473,
    "description": "Trinity Trails Trinity Park (4.7 stars from 618 reviews) is a popular destination for Fort Worth dog owners, located at 3301 Trinity Park Dr. Open from 5am to 10pm daily, the park offers flexibility for dog owners with varying routines. For a change of scenery, Trinity Park is another dog-friendly destination 0.5 miles from here."
  },
  {
    "name": "Hurst Dog Park",
    "street": "900 TCC Rd",
    "city": "Fort Worth",
    "state": "TX",
    "zip": "76054",
    "latitude": 32.84934,
    "longitude": -97.1886363,
    "description": "Fort Worth dog owners rate Hurst Dog Park at 900 TCC Rd highly, with 4.7 stars from 188 visits. For dog owners in the area, this park has become a trusted spot for time with their pups. For variety, the neighborhood offers more dog parks to explore: NRH Tipps Canine Hollow Dog (2.9 miles) and Bedford Bark Park (3.2 miles)."
  },
  {
    "name": "Elm Street Park",
    "street": "400 Elm St",
    "city": "Fort Worth",
    "state": "TX",
    "zip": "76102",
    "latitude": 32.757513,
    "longitude": -97.326361,
    "description": "Located at 400 Elm St in Fort Worth, Elm Street Park earns strong marks from local dog owners—4.8 stars from 11 reviews. Open from 7am to 6pm daily, dog owners can easily fit a visit into busy schedules. More dog-friendly parks nearby include Oakhurst Park (0.5 miles) and Overton Park (0.5 miles)—perfect for pups who love adventure."
  },
  {
    "name": "Llano Springs Dog Park",
    "street": "True Vine Rd",
    "city": "Fort Worth",
    "state": "TX",
    "zip": "76123",
    "latitude": 32.6194753,
    "longitude": -97.4200875,
    "description": "Dog owners in Fort Worth have made Llano Springs Dog Park a go-to spot, rating it 4.7 stars across 6 reviews. Dog owners in the area consistently choose this park as a go-to destination for their pups. Looking for more places to take your pup? Krauss Baker Park is another popular dog park just 3.7 miles away."
  },
  {
    "name": "Leonard Park",
    "street": "6478 Genoa Rd",
    "city": "Fort Worth",
    "state": "TX",
    "zip": "76116",
    "latitude": 32.7435995,
    "longitude": -97.4259991,
    "description": "Located at 6478 Genoa Rd in Fort Worth, Leonard Park earns strong marks from local dog owners—4.6 stars from 23 reviews. For dog owners in the area, this park has become a trusted spot for time with their pups. Dog owners exploring the neighborhood can also bring their furry friends to North Z Boaz Park (1.3 miles)."
  },
  {
    "name": "Lake Worth Dog Park",
    "street": "3209 Dakota Trail",
    "city": "Fort Worth",
    "state": "TX",
    "zip": "76135",
    "latitude": 32.8036169,
    "longitude": -97.4402507,
    "description": "Dog owners in Fort Worth have made Lake Worth Dog Park at 3209 Dakota Trail a go-to spot, rating it 4.6 stars across 57 reviews. Dog owners looking for a solid destination will find this park delivers. For a change of scenery, Marion Sansom Park is another dog-friendly destination 1.7 miles from here."
  },
  {
    "name": "Overton Park",
    "street": "",
    "city": "Fort Worth",
    "state": "TX",
    "zip": "",
    "latitude": 32.753177,
    "longitude": -97.3327459,
    "description": "In Fort Worth, Overton Park has built a loyal following—4.6 stars from 209 dog owner reviews. Dog owners frequent this park for its consistent quality and welcoming atmosphere. For variety, the neighborhood offers more dog parks to explore: Oakhurst Park (0.0 miles) and Burk Burnett Park (0.2 miles)."
  },
  {
    "name": "Villages of Bear Creek Park",
    "street": "1951 Bear Creek Pkwy",
    "city": "Fort Worth",
    "state": "TX",
    "zip": "76039",
    "latitude": 32.8585292,
    "longitude": -97.0685919,
    "description": "At 1951 Bear Creek Pkwy in Fort Worth, Villages of Bear Creek Park has built a loyal following—4.6 stars from 340 dog owner reviews. Open from 7am to 9pm daily, dog owners have plenty of flexibility to plan a visit. Nearby, Irving Dog Park (3.8 miles) offers dog owners another great spot to explore with their pups."
  },
  {
    "name": "Bonnie Wenk Park",
    "street": "2996 Virginia Pkwy",
    "city": "Frisco",
    "state": "TX",
    "zip": "75071",
    "latitude": 33.1964557,
    "longitude": -96.6627418,
    "description": "Located at 2996 Virginia Pkwy in Frisco, Bonnie Wenk Park earns strong marks from local dog owners—4.7 stars from 850 reviews. Open from 7am to 11pm daily, there's room in the day for dog owners to bring their furry friends. For variety, the neighborhood offers more dog parks to explore: Bonnie Wenk Park (0.0 miles) and Scotti's Dog Park (2.7 miles)."
  },
  {
    "name": "The Shacks Dining & Dog Park",
    "street": "5800 Windhaven Pkwy",
    "city": "Frisco",
    "state": "TX",
    "zip": "75056",
    "latitude": 33.057752,
    "longitude": -96.859341,
    "description": "1,444 dog owners have made The Shacks Dining & Dog Park (5800 Windhaven Pkwy) one of Frisco's most trusted parks (4.6 stars). Open from 7am to 10pm daily, the park is convenient for before work, after work, or weekend adventures. Keep the adventure going at other nearby dog parks like Windhaven Meadows Park (3.0 miles) or Pawsome Playground Dog Park (3.6 miles)."
  },
  {
    "name": "B.F. Phillips Community Park",
    "street": "3335 Timber Ridge Dr",
    "city": "Frisco",
    "state": "TX",
    "zip": "75034",
    "latitude": 33.1263041,
    "longitude": -96.862699,
    "description": "At 3335 Timber Ridge Dr in Frisco, B.F. Phillips Community Park has built a loyal following—4.6 stars from 390 dog owner reviews. Open from 6am to 12am daily, the park accommodates early risers and evening visitors alike. Nearby, Ruff Range Dog Park (0.3 miles) offers dog owners another great spot to explore with their pups."
  },
  {
    "name": "‍ Little Elm Dog Park",
    "street": "425 Witt Rd",
    "city": "Frisco",
    "state": "TX",
    "zip": "75068",
    "latitude": 33.160145,
    "longitude": -96.8994558,
    "description": "Little Elm Dog Park (4.6 stars from 10 reviews) is a popular destination for Frisco dog owners, located at 425 Witt Rd. Open from 7am to 8pm, every day except Thursday, the park offers flexibility for dog owners with varying routines. Looking for more places to take your pup? Wood Family Dog Park is another popular dog park just 0.7 miles away."
  },
  {
    "name": "Wood Family Dog Park",
    "street": "1001 Witt Rd",
    "city": "Frisco",
    "state": "TX",
    "zip": "75036",
    "latitude": 33.1501189,
    "longitude": -96.899628,
    "description": "For dog owners in Frisco, Wood Family Dog Park at 1001 Witt Rd has a 4.4-star rating (114 reviews). Open from 7am to 8pm, every day except Thursday, the park gives dog owners in the neighborhood time to bring their pups. Nearby dog parks worth exploring with your pup include Little Elm Dog Park (0.7 miles) and B.F. Phillips Community Park (2.7 miles)."
  },
  {
    "name": "Rosemeade Dog Park",
    "street": "1330 E Rosemeade Pkwy",
    "city": "Frisco",
    "state": "TX",
    "zip": "75007",
    "latitude": 33.0114056,
    "longitude": -96.9057177,
    "description": "At 1330 E Rosemeade Pkwy in Frisco, Rosemeade Dog Park carries 4.4 stars from 392 dog owner reviews. For dog owners in the neighborhood, this park offers a place to take their pups. Dog owners in the neighborhood can also take their furry friends to Barry H Barker Park, 3.5 miles away."
  },
  {
    "name": "Starwood Park",
    "street": "6551 Starwood Dr",
    "city": "Frisco",
    "state": "TX",
    "zip": "75034",
    "latitude": 33.1214148,
    "longitude": -96.8286923,
    "description": "Starwood Park at 6551 Starwood Dr holds a 4.1-star rating from 23 Frisco dog owner visits. Open from 6am to 9pm daily, the park fits conveniently into different routines. Dog owners in the neighborhood can also take their furry friends to Ruff Range Dog Park, 1.9 miles away."
  },
  {
    "name": "The Dog Depot at Heritage Park",
    "street": "601 E California St",
    "city": "Gainesville",
    "state": "TX",
    "zip": "76240",
    "latitude": 33.624372,
    "longitude": -97.139561,
    "description": "At 601 E California St in Gainesville, The Dog Depot at Heritage Park has built a loyal following—4.7 stars from 131 dog owner reviews. Open from 7am to 9pm daily, the park offers flexibility for dog owners with varying routines. The steady stream of positive reviews suggests dog owners consistently have good experiences here."
  },
  {
    "name": "‍ Garland Dog Park",
    "street": "901 S Glenbrook Dr",
    "city": "Garland",
    "state": "TX",
    "zip": "75040",
    "latitude": 32.9057773,
    "longitude": -96.640931,
    "description": "For dog owners in the Garland area, Garland Dog Park (901 S Glenbrook Dr) offers a 4.5-star experience based on 324 reviews. For dog owners in the area, this park has become a trusted spot for time with their pups. The steady stream of positive reviews suggests dog owners consistently have good experiences here."
  },
  {
    "name": "Houston Bark Park",
    "street": "4905 Maxie St",
    "city": "Houston",
    "state": "TX",
    "zip": "77007",
    "latitude": 29.7740135,
    "longitude": -95.4108195,
    "description": "Houston Bark Park (4.8 stars from 419 reviews) is a popular destination for Houston dog owners, located at 4905 Maxie St. The steady stream of dog owner visits speaks to the park's appeal. Looking for more places to take your pup? Wagner Park is another popular dog park just 0.9 miles away."
  },
  {
    "name": "Hermann Park",
    "street": "6001 Fannin St",
    "city": "Houston",
    "state": "TX",
    "zip": "77030",
    "latitude": 29.7215907,
    "longitude": -95.3909695,
    "description": "At 6001 Fannin St in Houston, Hermann Park draws dog owners from across the area—4.7 stars from 27,893 reviews. Open from 6am to 11pm daily, the park accommodates everything from early morning walks to evening adventures. While you're in the area, dog owners also recommend taking your pup to McWilliams Dog Park, another excellent dog park 0.7 miles away."
  },
  {
    "name": "‍ Buffalo Bayou Park",
    "street": "105 Sabine St",
    "city": "Houston",
    "state": "TX",
    "zip": "77007",
    "latitude": 29.762258,
    "longitude": -95.3760557,
    "description": "Buffalo Bayou Park at 105 Sabine St is one of the most beloved dog parks in Houston—4.7 stars from an incredible 5,590 reviews. Open from 6am to 11pm daily, the park accommodates everything from early morning walks to evening adventures. For dog owners wanting to explore more with their furry friends, Park is another great dog park just 0.5 miles away."
  },
  {
    "name": "Millie Bush Dog Park",
    "street": "16101 Westheimer Rd",
    "city": "Houston",
    "state": "TX",
    "zip": "77082",
    "latitude": 29.7359088,
    "longitude": -95.6250053,
    "description": "1,235 dog owners have made Millie Bush Dog Park (16101 Westheimer Rd) one of Houston's most trusted parks (4.7 stars). Open from 7am to 7:30pm daily, dog owners can easily fit a visit into their day, whether morning or evening. Other popular dog parks nearby include Waldemar Park (2.3 miles) and Sneed Dog Park (4.9 miles)—both favorites among local pup parents."
  },
  {
    "name": "Deputy Darren Goforth Park",
    "street": "9402 Barker Cypress Rd",
    "city": "Houston",
    "state": "TX",
    "zip": "77433",
    "latitude": 29.9901408,
    "longitude": -95.678141,
    "description": "At 9402 Barker Cypress Rd in Houston, Deputy Darren Goforth Park has built a loyal following—4.7 stars from 715 dog owner reviews. Open from 7am to 8pm daily, dog owners can easily fit a visit into busy schedules. Dog owners looking for a dependable spot will find this park lives up to its ratings."
  },
  {
    "name": "Bibi & Mini-Me Bush Dog Park",
    "street": "4129 Spring Creek Dr",
    "city": "Houston",
    "state": "TX",
    "zip": "77373",
    "latitude": 30.0808232,
    "longitude": -95.3810607,
    "description": "Dog owners in Houston have made Bibi & Mini-Me Bush Dog Park at 4129 Spring Creek Dr a go-to spot, rating it 4.7 stars across 484 reviews. The steady stream of dog owner visits speaks to the park's appeal. The steady stream of positive reviews suggests dog owners consistently have good experiences here."
  },
  {
    "name": "Mandell Park",
    "street": "4399 Mandell St",
    "city": "Houston",
    "state": "TX",
    "zip": "77006",
    "latitude": 29.7371392,
    "longitude": -95.3993082,
    "description": "Mandell Park at 4399 Mandell St is well-regarded by Houston dog owners, holding 4.7 stars across 178 reviews. The steady stream of dog owner visits speaks to the park's appeal. More dog-friendly parks nearby include Ervan Chew Dog Park (0.4 miles) and Shiffick (Peggy H.) Park (1.2 miles)—perfect for pups who love adventure."
  },
  {
    "name": "Tom Bass Regional Park",
    "street": "",
    "city": "Houston",
    "state": "TX",
    "zip": "",
    "latitude": 29.7589382,
    "longitude": -95.3676974,
    "description": "Tom Bass Regional Park (4.7 stars from 166 reviews) is a popular destination for Houston dog owners. For dog owners in the area, this park has become a trusted spot for time with their pups. Dog owners exploring the neighborhood can also bring their furry friends to Cutten Green Dog Park (0.0 miles)."
  },
  {
    "name": "Trebly Park",
    "street": "1515 Fannin St",
    "city": "Houston",
    "state": "TX",
    "zip": "77002",
    "latitude": 29.7524726,
    "longitude": -95.3670637,
    "description": "At 1515 Fannin St in Houston, Trebly Park has built a loyal following—4.7 stars from 79 dog owner reviews. Open from 6am to 11pm daily, dog owners have plenty of flexibility to plan a visit. Dog owners can also take their pups to nearby Tom Bass Regional Park (0.4 miles) or Cutten Green Dog Park (0.4 miles)."
  },
  {
    "name": "Woodlake Dog Park",
    "street": "9660 Ella Lee Ln",
    "city": "Houston",
    "state": "TX",
    "zip": "77063",
    "latitude": 29.7424811,
    "longitude": -95.5378034,
    "description": "At 9660 Ella Lee Ln in Houston, Woodlake Dog Park has built a loyal following—4.7 stars from 6 dog owner reviews. Local dog owners appreciate what this park offers their four-legged friends. Dog owners exploring the neighborhood can also bring their furry friends to Sneed Dog Park (1.3 miles)."
  },
  {
    "name": "Cutten Green Dog Park",
    "street": "",
    "city": "Houston",
    "state": "TX",
    "zip": "",
    "latitude": 29.7589382,
    "longitude": -95.3676974,
    "description": "Houston dog owners rate Cutten Green Dog Park highly, with 4.6 stars from 85 visits. Local dog owners appreciate what this park offers their four-legged friends. For variety, the neighborhood offers more dog parks to explore: Tom Bass Regional Park (0.0 miles) and White Oak Bayou Greenway (0.0 miles)."
  },
  {
    "name": "Beverly Kaufman Dog Park",
    "street": "9114 Katy Hockley Rd",
    "city": "Houston",
    "state": "TX",
    "zip": "77493",
    "latitude": 29.8154929,
    "longitude": -95.8240346,
    "description": "For dog owners in the Houston area, Beverly Kaufman Dog Park (9114 Katy Hockley Rd) offers a 4.6-star experience based on 100 reviews. Open from 7am to 9pm daily, dog owners can plan visits around work or their pup's energy level. The reviews indicate this is a trusted destination for dog owners in the area."
  },
  {
    "name": "White Oak Bayou Greenway",
    "street": "",
    "city": "Houston",
    "state": "TX",
    "zip": "",
    "latitude": 29.7589382,
    "longitude": -95.3676974,
    "description": "White Oak Bayou Greenway is well-regarded by Houston dog owners, holding 4.6 stars across 316 reviews. Dog owners looking for a solid destination will find this park delivers. Looking for more places to take your pup? Tom Bass Regional Park is another popular dog park just 0.0 miles away."
  },
  {
    "name": "Lake Nassau Park",
    "street": "18900 Upper Bay Rd",
    "city": "Houston",
    "state": "TX",
    "zip": "77058",
    "latitude": 29.551247,
    "longitude": -95.0902038,
    "description": "At 18900 Upper Bay Rd in Houston, Lake Nassau Park has built a loyal following—4.6 stars from 331 dog owner reviews. Open from 7am to 11pm daily, the park works well for dog owners with different schedules. Other dog parks in the area include Lucky Leash Dog Park (1.7 miles) and Bay Area Park (1.7 miles)—both great for exploring with your four-legged friend."
  },
  {
    "name": "Gene Green Dog Park",
    "street": "6500 East Sam Houston Pkwy N",
    "city": "Houston",
    "state": "TX",
    "zip": "77049",
    "latitude": 29.8274333,
    "longitude": -95.1722551,
    "description": "At 6500 East Sam Houston Pkwy N in Houston, Gene Green Dog Park has built a loyal following—4.6 stars from 384 dog owner reviews. Local dog owners appreciate what this park offers their four-legged friends. Dog owners can also take their pups to nearby Gene Green All-Inclusive Park (0.0 miles) or Maxey Park (4.4 miles)."
  },
  {
    "name": "Purser Family Park",
    "street": "100 Mountain Lion Rd",
    "city": "Killeen",
    "state": "TX",
    "zip": "76548",
    "latitude": 31.059868,
    "longitude": -97.678627,
    "description": "Purser Family Park at 100 Mountain Lion Rd is well-regarded by Killeen dog owners, holding 4.5 stars across 719 reviews. Open from 5am to 11pm daily, the park works well for dog owners with different schedules. Looking for more places to take your pup? Mickey's Dog Park is another popular dog park just 4.0 miles away."
  },
  {
    "name": "Mickey's Dog Park",
    "street": "2201 E Veterans Memorial Blvd",
    "city": "Killeen",
    "state": "TX",
    "zip": "76543",
    "latitude": 31.108866,
    "longitude": -97.714221,
    "description": "With 4.3 stars from 519 reviews, Mickey's Dog Park at 2201 E Veterans Memorial Blvd has become a favorite among Killeen dog owners. For dog owners in the area, this park has become a trusted spot for time with their pups. For a change of scenery, Purser Family Park is another dog-friendly destination 4.0 miles from here."
  },
  {
    "name": "Independence Hills Park",
    "street": "N Merida Dr.",
    "city": "‍ Laredo",
    "state": "TX",
    "zip": "78046",
    "latitude": 27.4845637,
    "longitude": -99.4485581,
    "description": "Independence Hills Park is well-regarded by Laredo dog owners, holding 4.7 stars across 491 reviews. Dog owners in the area consistently choose this park as a go-to destination for their pups. Dog owners exploring the neighborhood can also bring their furry friends to Noon Lions Park (3.9 miles)."
  },
  {
    "name": "Noon Lions Park",
    "street": "",
    "city": "‍ Laredo",
    "state": "TX",
    "zip": "",
    "latitude": 27.5075005,
    "longitude": -99.5069922,
    "description": "For dog owners in the Laredo area, Noon Lions Park offers a 4.7-star experience based on 31 reviews. The steady stream of dog owner visits speaks to the park's appeal. Dog owners can also take their pups to nearby Rendon Park (2.0 miles) or Independence Hills Park (3.9 miles)."
  },
  {
    "name": "North Central Park",
    "street": "10202 International Blvd",
    "city": "‍ Laredo",
    "state": "TX",
    "zip": "78045",
    "latitude": 27.6029178,
    "longitude": -99.4754657,
    "description": "Dog owners in Laredo have embraced North Central Park (10202 International Blvd) as a top destination—4.6 stars from 1,132 visits. Open from 9am to 10pm daily, there's always time for dog owners to bring their pup for some quality time. Nearby, Duko's Dog Park (0.2 miles) is another dog park favorite where you can take your four-legged friend."
  },
  {
    "name": "Duko's Dog Park",
    "street": "10101 Montoya Dr",
    "city": "‍ Laredo",
    "state": "TX",
    "zip": "78045",
    "latitude": 27.599441,
    "longitude": -99.47502,
    "description": "Located at 10101 Montoya Dr in Laredo, Duko's Dog Park earns strong marks from local dog owners—4.5 stars from 35 reviews. Dog owners in the area consistently choose this park as a go-to destination for their pups. Nearby, North Central Park (0.2 miles) offers dog owners another great spot to explore with their pups."
  },
  {
    "name": "Rendon Park",
    "street": "4301 E San Francisco Ave",
    "city": "‍ Laredo",
    "state": "TX",
    "zip": "78041",
    "latitude": 27.535887,
    "longitude": -99.499811,
    "description": "At 4301 E San Francisco Ave, Rendon Park has 4.4 stars based on 97 reviews from Laredo dog owners. Open from 6am to 10:30pm daily, local dog owners have time to explore with their furry companions. For dog owners who like to explore, Noon Lions Park (2.0 miles) and Duko's Dog Park (4.6 miles) are both nearby parks to try with your dog."
  },
  {
    "name": "Robert Muller Park",
    "street": "13202 Atlanta Dr",
    "city": "‍ Laredo",
    "state": "TX",
    "zip": "78045",
    "latitude": 27.6184976,
    "longitude": -99.5325838,
    "description": "At 13202 Atlanta Dr in Laredo, Robert Muller Park carries 4.3 stars from 112 dog owner reviews. Dog owners in the area appreciate having a local spot to bring their pups. Dog owners looking for variety can also visit North Central Park (3.7 miles) or Duko's Dog Park (3.8 miles) with their four-legged friends."
  },
  {
    "name": "Prairie Dog Town",
    "street": "Mac",
    "city": "Lubbock",
    "state": "TX",
    "zip": "79401",
    "latitude": 33.5946365,
    "longitude": -101.8393915,
    "description": "In Lubbock, Prairie Dog Town earns strong marks from local dog owners—4.6 stars from 777 reviews. Open from 5am to 12am daily, dog owners can plan visits around work or their pup's energy level. For a change of scenery, MacKenzie Canyon Run Dog Park is another dog-friendly destination 0.9 miles from here."
  },
  {
    "name": "MacKenzie Canyon Run Dog Park",
    "street": "Cesar E. Chavez Dr",
    "city": "Lubbock",
    "state": "TX",
    "zip": "79401",
    "latitude": 33.6014181,
    "longitude": -101.8520329,
    "description": "For dog owners in the Lubbock area, MacKenzie Canyon Run Dog Park offers a 4.6-star experience based on 365 reviews. The steady stream of dog owner visits speaks to the park's appeal. Dog owners can also take their pups to nearby Prairie Dog Town (0.9 miles) or Mackenzie Main City Park (1.8 miles)."
  },
  {
    "name": "Tech Terrace Park",
    "street": "3107 23rd St",
    "city": "Lubbock",
    "state": "TX",
    "zip": "79410",
    "latitude": 33.573515,
    "longitude": -101.8815616,
    "description": "Dog owners in Lubbock have made Tech Terrace Park at 3107 23rd St a go-to spot, rating it 4.6 stars across 231 reviews. The park has earned its reputation among dog owners in the neighborhood as a reliable choice. Looking for more places to take your pup? Mackenzie Main City Park is another popular dog park just 2.4 miles away."
  },
  {
    "name": "McAlister Dog Park",
    "street": "",
    "city": "Lubbock",
    "state": "TX",
    "zip": "79401",
    "latitude": 33.5943717,
    "longitude": -101.9571539,
    "description": "McAlister Dog Park is well-regarded by Lubbock dog owners, holding 4.6 stars across 56 reviews. Dog owners frequent this park for its consistent quality and welcoming atmosphere. Nearby, Private Dog Park (2.1 miles) offers dog owners another great spot to explore with their pups."
  },
  {
    "name": "Bill & Ann Miller Park",
    "street": "S Loop 289",
    "city": "Lubbock",
    "state": "TX",
    "zip": "79423",
    "latitude": 33.5290047,
    "longitude": -101.8820228,
    "description": "Lubbock dog owners rate Bill & Ann Miller Park highly, with 4.5 stars from 264 visits. Open from 5am to 12am daily, there's plenty of opportunity for dog owners to find a time that works. Dog owners exploring the neighborhood can also bring their furry friends to Tech Terrace Park (3.1 miles)."
  },
  {
    "name": "Mackenzie Main City Park",
    "street": "",
    "city": "Lubbock",
    "state": "TX",
    "zip": "",
    "latitude": 33.577872,
    "longitude": -101.8405838,
    "description": "At 301 I-27 in Lubbock, Mackenzie Main City Park stands out with 4.5 stars from 1,958 happy dog owners. Open from 7am to 8pm daily, dog owners have plenty of flexibility to visit when it suits their schedule. Other popular dog parks nearby include Prairie Dog Town (1.2 miles) and MacKenzie Canyon Run Dog Park (1.8 miles)—both favorites among local pup parents."
  },
  {
    "name": "Preston Manor Private Dog Park",
    "street": "711 N 7th St",
    "city": "Lubbock",
    "state": "TX",
    "zip": "79382",
    "latitude": 33.5269972,
    "longitude": -102.0034218,
    "description": "Preston Manor Private Dog Park at 711 N 7th St in Lubbock has 4.4 stars from 9 dog owner reviews. The park serves as a gathering spot for dog owners and their four-legged friends in the area. Dog owners might also enjoy Private Dog Park, another dog park just 3.5 miles away."
  },
  {
    "name": "McAlister Park",
    "street": "5801 Milwaukee Ave",
    "city": "Lubbock",
    "state": "TX",
    "zip": "79424",
    "latitude": 33.4832417,
    "longitude": -101.9569571,
    "description": "Located at 5801 Milwaukee Ave, McAlister Park in Lubbock is rated 4.4 stars by 33 dog owners. Local dog owners use this park as a spot to spend time with their furry companions. Nearby dog parks worth exploring with your pup include Remington Park (1.8 miles) and Preston Manor Private Dog Park (4.0 miles)."
  },
  {
    "name": "‍ Private Dog Park",
    "street": "Oakridge Ave",
    "city": "Lubbock",
    "state": "TX",
    "zip": "79407",
    "latitude": 33.5639502,
    "longitude": -101.9611288,
    "description": "120 dog owners have reviewed Private Dog Park in Lubbock, averaging 4.3 stars. Open from 7am to 10pm daily, dog owners in the area can work a visit into their day. Dog owners looking for variety can also visit McAlister Dog Park (2.1 miles) or Preston Manor Private Dog Park (3.5 miles) with their four-legged friends."
  },
  {
    "name": "Remington Park",
    "street": "Atlanta Ave",
    "city": "Lubbock",
    "state": "TX",
    "zip": "79424",
    "latitude": 33.493685,
    "longitude": -101.9280285,
    "description": "Remington Park in Lubbock has 4.1 stars based on 62 reviews from dog owners. Open from 5am to 12am daily, local dog owners have time to explore with their furry companions. Looking to explore more? McAlister Park is another dog-friendly park 1.8 miles from here."
  },
  {
    "name": "McAllen Dog Park",
    "street": "400 Tamarack Ave",
    "city": "Mcallen",
    "state": "TX",
    "zip": "78501",
    "latitude": 26.220586,
    "longitude": -98.220257,
    "description": "McAllen Dog Park at 400 Tamarack Ave is well-regarded by McAllen dog owners, holding 4.5 stars across 629 reviews. Open from 6am to 11pm daily, dog owners can easily fit a visit into busy schedules. The steady stream of positive reviews suggests dog owners consistently have good experiences here."
  },
  {
    "name": "Scotti's Dog Park",
    "street": "Paradella Dr",
    "city": "Mckinney",
    "state": "TX",
    "zip": "75069",
    "latitude": 33.16804,
    "longitude": -96.6310373,
    "description": "In McKinney, Scotti's Dog Park has built a loyal following—5.0 stars from 9 dog owner reviews. The park serves dog owners well, providing a destination the community values. Nearby, K9 Corral at Craig Ranch (2.2 miles) offers dog owners another great spot to explore with their pups."
  },
  {
    "name": "Copeland Dog Park",
    "street": "2757 Creek Crossing Rd",
    "city": "Mesquite",
    "state": "TX",
    "zip": "75181",
    "latitude": 32.7472454,
    "longitude": -96.5619173,
    "description": "With 4.6 stars from 37 reviews, Copeland Dog Park at 2757 Creek Crossing Rd has become a favorite among Mesquite dog owners. For dog owners in the area, this park has become a trusted spot for time with their pups. Dog owners looking for a dependable spot will find this park lives up to its ratings."
  },
  {
    "name": "Centennial Park",
    "street": "200 W Wall St",
    "city": "Midland",
    "state": "TX",
    "zip": "79701",
    "latitude": 31.997568,
    "longitude": -102.075747,
    "description": "Centennial Park at 200 W Wall St is well-regarded by Midland dog owners, holding 4.7 stars across 368 reviews. Open from 8am to 10pm daily, there's room in the day for dog owners to bring their furry friends. Other dog parks in the area include Haley Park (0.1 miles) and Kiwanis Park (0.1 miles)—both great for exploring with your four-legged friend."
  },
  {
    "name": "Essex Park",
    "street": "",
    "city": "Midland",
    "state": "TX",
    "zip": "",
    "latitude": 31.9973662,
    "longitude": -102.077948,
    "description": "With 4.7 stars from 30 reviews, Essex Park has become a favorite among Midland dog owners. Open from 6am to 10pm daily, there's plenty of opportunity for dog owners to find a time that works. Other dog parks in the area include Haley Park (0.0 miles) and Kiwanis Park (0.0 miles)—both great for exploring with your four-legged friend."
  },
  {
    "name": "Wadley-Barron Park",
    "street": "1001 N A St",
    "city": "Midland",
    "state": "TX",
    "zip": "79701",
    "latitude": 32.0062904,
    "longitude": -102.0850737,
    "description": "With 4.6 stars from 518 reviews, Wadley-Barron Park at 1001 N A St has become a favorite among Midland dog owners. Open from 6am to 12am daily, dog owners have plenty of flexibility to plan a visit. For variety, the neighborhood offers more dog parks to explore: Haley Park (0.7 miles) and Kiwanis Park (0.7 miles)."
  },
  {
    "name": "Waggin’ Trail Beal Dog Park",
    "street": "5200 W Wall St",
    "city": "Midland",
    "state": "TX",
    "zip": "79701",
    "latitude": 31.9897871,
    "longitude": -102.1026688,
    "description": "For dog owners in the Midland area, Waggin’ Trail Beal Dog Park (5200 W Wall St) offers a 4.6-star experience based on 353 reviews. Dog owners in the area consistently choose this park as a go-to destination for their pups. For variety, the neighborhood offers more dog parks to explore: Wadley-Barron Park (1.5 miles) and Haley Park (1.5 miles)."
  },
  {
    "name": "Sibley Nature Center",
    "street": "1307 E Wadley Ave",
    "city": "Midland",
    "state": "TX",
    "zip": "79705",
    "latitude": 32.0333098,
    "longitude": -102.0708063,
    "description": "For dog owners in the Midland area, Sibley Nature Center (1307 E Wadley Ave) offers a 4.6-star experience based on 151 reviews. Open from 9am to 6pm weekdays, dog owners can plan visits around work or their pup's energy level. Nearby, Hogan's Run Dog Park (0.2 miles) offers dog owners another great spot to explore with their pups."
  },
  {
    "name": "Haley Park",
    "street": "",
    "city": "Midland",
    "state": "TX",
    "zip": "",
    "latitude": 31.9973662,
    "longitude": -102.077948,
    "description": "Haley Park is well-regarded by Midland dog owners, holding 4.7 stars across 11 reviews. Dog owners frequent this park for its consistent quality and welcoming atmosphere. For a change of scenery, Kiwanis Park is another dog-friendly destination 0.0 miles from here."
  },
  {
    "name": "C.J. Kelly Park",
    "street": "5500 League Dr",
    "city": "Midland",
    "state": "TX",
    "zip": "79707",
    "latitude": 32.0137225,
    "longitude": -102.162327,
    "description": "At 5500 League Dr in Midland, C.J. Kelly Park has built a loyal following—4.5 stars from 456 dog owner reviews. Open from 6am to 10pm daily, the park works well for dog owners with different schedules. Dog owners exploring the neighborhood can also bring their furry friends to Beal Park (3.7 miles)."
  },
  {
    "name": "Beal Park",
    "street": "5200 W Wall St",
    "city": "Midland",
    "state": "TX",
    "zip": "79703",
    "latitude": 31.972193,
    "longitude": -102.1211336,
    "description": "With 4.5 stars from 810 reviews, Beal Park at 5200 W Wall St has become a favorite among Midland dog owners. Open from 6am to 10pm daily, dog owners can easily fit a visit into busy schedules. Dog owners exploring the neighborhood can also bring their furry friends to Waggin’ Trail Beal Dog Park (1.6 miles)."
  },
  {
    "name": "Kiwanis Park",
    "street": "",
    "city": "Midland",
    "state": "TX",
    "zip": "",
    "latitude": 31.9973662,
    "longitude": -102.077948,
    "description": "Kiwanis Park holds a 4.4-star rating from 35 Midland dog owner visits. Dog owners looking for a local destination will find this park accessible. For dog owners who like to explore, Haley Park (0.0 miles) and Essex Park (0.0 miles) are both nearby parks to try with your dog."
  },
  {
    "name": "Hogan's Run Dog Park",
    "street": "1201 E Wadley Ave",
    "city": "Midland",
    "state": "TX",
    "zip": "79705",
    "latitude": 32.0317922,
    "longitude": -102.0731428,
    "description": "For dog owners in the Midland area, Hogan's Run Dog Park (1201 E Wadley Ave) offers a 4.3-star experience based on 650 reviews. Open from 8am to 9pm daily, there's room in the day for dog owners to bring their furry friends. Looking for more places to take your pup? Sibley Nature Center is another popular dog park just 0.2 miles away."
  },
  {
    "name": "Bark Park",
    "street": "",
    "city": "‍ Pasadena",
    "state": "TX",
    "zip": "",
    "latitude": 29.5074538,
    "longitude": -95.0949303,
    "description": "For dog owners in the Pasadena area, Bark Park offers a 4.8-star experience based on 464 reviews. Open from 7:30am to 6:30pm, Tuesday through Sunday, dog owners can plan visits around work or their pup's energy level. Other dog parks in the area include Lucky Leash Dog Park (1.5 miles) and Lake Nassau Park (3.0 miles)—both great for exploring with your four-legged friend."
  },
  {
    "name": "Bay Area Park",
    "street": "7500 Bay Area Blvd",
    "city": "‍ Pasadena",
    "state": "TX",
    "zip": "77058",
    "latitude": 29.5560995,
    "longitude": -95.1184376,
    "description": "1,760 dog owners have made Bay Area Park (7500 Bay Area Blvd) one of Pasadena's most trusted parks (4.7 stars). Open from 7am to 10pm daily, the park accommodates a variety of dog owner schedules and routines. Want to give your pup even more adventure? Bay Area Park is another beloved dog park just 0.0 miles away."
  },
  {
    "name": "Holly Bay Park",
    "street": "7102 Crenshaw Rd",
    "city": "‍ Pasadena",
    "state": "TX",
    "zip": "77505",
    "latitude": 29.6373345,
    "longitude": -95.1537026,
    "description": "For dog owners in the Pasadena area, Holly Bay Park (7102 Crenshaw Rd) offers a 4.7-star experience based on 367 reviews. Open from 6:30am to 11pm daily, dog owners can plan visits around work or their pup's energy level. Other dog parks in the area include Yellowstone Park (1.1 miles) and Burke Crenshaw Park (1.7 miles)—both great for exploring with your four-legged friend."
  },
  {
    "name": "Baybrook Park",
    "street": "4221 Todville Rd",
    "city": "‍ Pasadena",
    "state": "TX",
    "zip": "77586",
    "latitude": 29.5813508,
    "longitude": -95.0066688,
    "description": "With 4.7 stars from 80 reviews, Baybrook Park at 4221 Todville Rd has become a favorite among Pasadena dog owners. Open from 7am to 7pm daily, the park offers flexibility for dog owners with varying routines. Other dog parks in the area include El Jardin Beach Park (2.4 miles) and Little Cedar Bayou Park (4.8 miles)—both great for exploring with your four-legged friend."
  },
  {
    "name": "‍ Gene Green All-Inclusive Park",
    "street": "6500 East Sam Houston Pkwy N",
    "city": "‍ Pasadena",
    "state": "TX",
    "zip": "77049",
    "latitude": 29.8274333,
    "longitude": -95.1722551,
    "description": "Dog owners in Pasadena have embraced Gene Green All-Inclusive Park (6500 East Sam Houston Pkwy N) as a top destination—4.6 stars from 1,804 visits. For dog owners seeking a tried-and-true destination, this park delivers consistently. For more dog park adventures, explore Gene Green Dog Park (0.0 miles) or Maxey Park (4.4 miles) with your furry companion."
  },
  {
    "name": "Burke Crenshaw Park",
    "street": "4950 Burke Rd",
    "city": "‍ Pasadena",
    "state": "TX",
    "zip": "77504",
    "latitude": 29.6410253,
    "longitude": -95.1814083,
    "description": "Burke Crenshaw Park at 4950 Burke Rd in Pasadena is a community favorite, with 1,720 dog owners giving it 4.6 stars. Open from 6am to 11pm daily, dog owners have room to work around busy schedules. Keep the adventure going at other nearby dog parks like Pasadena Animal Shelter (0.5 miles) or Yellowstone Park (0.7 miles)."
  },
  {
    "name": "Armand Bayou Hike & Bike Trail",
    "street": "7202 Fairmont Pkwy",
    "city": "‍ Pasadena",
    "state": "TX",
    "zip": "77505",
    "latitude": 29.6505773,
    "longitude": -95.1290103,
    "description": "Pasadena dog owners rate Armand Bayou Hike & Bike Trail at 7202 Fairmont Pkwy highly, with 4.6 stars from 414 visits. Open from 6am to 10pm daily, dog owners can easily fit a visit into busy schedules. Nearby, Partnership Park (1.4 miles) offers dog owners another great spot to explore with their pups."
  },
  {
    "name": "‍ Red Bluff Park",
    "street": "415 Delta St",
    "city": "‍ Pasadena",
    "state": "TX",
    "zip": "77506",
    "latitude": 29.7062891,
    "longitude": -95.1786683,
    "description": "Red Bluff Park (4.5 stars from 59 reviews) is a popular destination for Pasadena dog owners, located at 415 Delta St. Open from 6am to 11pm daily, dog owners can easily fit a visit into busy schedules. Dog owners exploring the neighborhood can also bring their furry friends to Satsuma Park (0.7 miles)."
  },
  {
    "name": "Little Cedar Bayou Park",
    "street": "600 Little Cedar Bayou Dr",
    "city": "‍ Pasadena",
    "state": "TX",
    "zip": "77571",
    "latitude": 29.6484585,
    "longitude": -95.0275497,
    "description": "Little Cedar Bayou Park (4.5 stars from 67 reviews) is a popular destination for Pasadena dog owners, located at 600 Little Cedar Bayou Dr. Open from 7am to 11pm daily, the park works well for dog owners with different schedules. Looking for more places to take your pup? Baybrook Park is another popular dog park just 4.8 miles away."
  },
  {
    "name": "Yellowstone Park",
    "street": "4800 Yellowstone Dr",
    "city": "‍ Pasadena",
    "state": "TX",
    "zip": "77505",
    "latitude": 29.64412,
    "longitude": -95.170576,
    "description": "Pasadena dog owners rate Yellowstone Park at 4800 Yellowstone Dr highly, with 4.5 stars from 93 visits. Open from 8am to 8pm daily, there's room in the day for dog owners to bring their furry friends. Dog owners exploring the neighborhood can also bring their furry friends to Burke Crenshaw Park (0.7 miles)."
  },
  {
    "name": "El Jardin Beach Park",
    "street": "",
    "city": "‍ Pasadena",
    "state": "TX",
    "zip": "",
    "latitude": 29.5710406,
    "longitude": -95.0440812,
    "description": "With 4.5 stars from 345 reviews, El Jardin Beach Park has become a favorite among Pasadena dog owners. Open from 9am to 7pm daily, the park offers flexibility for dog owners with varying routines. Nearby, Baybrook Park (2.4 miles) offers dog owners another great spot to explore with their pups."
  },
  {
    "name": "Partnership Park",
    "street": "5150 Red Bluff Rd",
    "city": "‍ Pasadena",
    "state": "TX",
    "zip": "77503",
    "latitude": 29.6694265,
    "longitude": -95.1351075,
    "description": "Partnership Park at 5150 Red Bluff Rd is well-regarded by Pasadena dog owners, holding 4.5 stars across 407 reviews. Open from 7am to 7:30pm daily, the park accommodates early risers and evening visitors alike. Dog owners exploring the neighborhood can also bring their furry friends to Armand Bayou Hike & Bike Trail (1.4 miles)."
  },
  {
    "name": "Revelon Park",
    "street": "900 Foster Ave",
    "city": "‍ Pasadena",
    "state": "TX",
    "zip": "77506",
    "latitude": 29.700446,
    "longitude": -95.190622,
    "description": "At 900 Foster Ave, Revelon Park has 4.4 stars based on 38 reviews from Pasadena dog owners. Open from 6am to 10pm daily, the park gives dog owners in the neighborhood time to bring their pups. Looking to explore more? Satsuma Park is another dog-friendly park 0.8 miles from here."
  },
  {
    "name": "Golden Acres Park",
    "street": "5000 Oak Ave",
    "city": "‍ Pasadena",
    "state": "TX",
    "zip": "77503",
    "latitude": 29.672173,
    "longitude": -95.167027,
    "description": "Located at 5000 Oak Ave, Golden Acres Park in Pasadena is rated 4.4 stars by 60 dog owners. Open from 6am to 10pm daily, the park fits conveniently into different routines. For pups who want more adventure, Satsuma Park is a nearby dog park worth visiting (1.8 miles)."
  },
  {
    "name": "Strawberry Park",
    "street": "1104 Parkside Dr",
    "city": "‍ Pasadena",
    "state": "TX",
    "zip": "77504",
    "latitude": 29.6708609,
    "longitude": -95.1978797,
    "description": "Located at 1104 Parkside Dr in Pasadena, Strawberry Park earns strong marks from local dog owners—4.4 stars from 1,857 reviews. Open from 6am to 11pm daily, there's plenty of opportunity for dog owners to find a time that works. For variety, the neighborhood offers more dog parks to explore: Sherwood Park (0.8 miles) and Golden Acres Park (1.9 miles)."
  },
  {
    "name": "Windhaven Meadows Park",
    "street": "5400 Windhaven Pkwy",
    "city": "Plano",
    "state": "TX",
    "zip": "75093",
    "latitude": 33.057357,
    "longitude": -96.807809,
    "description": "For dog owners in the Plano area, Windhaven Meadows Park (5400 Windhaven Pkwy) offers a 4.8-star experience based on 572 reviews. Open from 5am to 11pm daily, the park offers flexibility for dog owners with varying routines. For variety, the neighborhood offers more dog parks to explore: The Shacks Dining & Dog Park (3.0 miles) and NorthBark Dog Park (3.3 miles)."
  },
  {
    "name": "K9 Corral at Craig Ranch",
    "street": "",
    "city": "Plano",
    "state": "TX",
    "zip": "",
    "latitude": 33.1976496,
    "longitude": -96.6154471,
    "description": "In Plano, K9 Corral at Craig Ranch has built a loyal following—4.5 stars from 249 dog owner reviews. Open from 7am to 9:30pm daily, dog owners can easily fit a visit into busy schedules. Dog owners exploring the neighborhood can also bring their furry friends to Scotti's Dog Park (2.2 miles)."
  },
  {
    "name": "Jack Carter Dog Park",
    "street": "2215 Pleasant Valley Dr",
    "city": "Plano",
    "state": "TX",
    "zip": "75023",
    "latitude": 33.0517464,
    "longitude": -96.7352199,
    "description": "At 2215 Pleasant Valley Dr in Plano, Jack Carter Dog Park has built a loyal following—4.5 stars from 693 dog owner reviews. For dog owners in the area, this park has become a trusted spot for time with their pups. More dog-friendly parks nearby include Bush Central Barkway (3.6 miles) and Windhaven Meadows Park (4.2 miles)—perfect for pups who love adventure."
  },
  {
    "name": "Levy Park",
    "street": "3801 Eastside St",
    "city": "Richmond",
    "state": "TX",
    "zip": "77098",
    "latitude": 29.7321072,
    "longitude": -95.4243449,
    "description": "Levy Park at 3801 Eastside St has become essential for Richmond dog owners, earning 4.8 stars from 5,526 visitors. The sheer volume of dog owner visits speaks to what makes this park exceptional. For dog owners wanting to explore more with their furry friends, Ervan Chew Dog Park is another great dog park just 1.3 miles away."
  },
  {
    "name": "Phil Hardberger Park",
    "street": "8400 NW Military Hwy",
    "city": "San Antonio",
    "state": "TX",
    "zip": "78231",
    "latitude": 29.5499796,
    "longitude": -98.5301475,
    "description": "Phil Hardberger Park at 8400 NW Military Hwy in San Antonio is a community favorite, with 1,080 dog owners giving it 4.8 stars. Open from 7:47am to 6:49pm daily, dog owners can easily fit a visit into their day, whether morning or evening. Nearby, Blanco Road Dog Park (1.0 miles) is another dog park favorite where you can take your four-legged friend."
  },
  {
    "name": "Brackenridge Park",
    "street": "3700 N St Mary's St",
    "city": "San Antonio",
    "state": "TX",
    "zip": "78209",
    "latitude": 29.4586699,
    "longitude": -98.4776784,
    "description": "For San Antonio dog owners, Brackenridge Park at 3700 N St Mary's St needs no introduction—4.7 stars, 16,326 reviews. Open from 5am to 11pm daily, dog owners have generous hours to visit with their pups. Nearby, Olmos Basin Park (1.4 miles) gives dog owners even more space to explore with their four-legged companions."
  },
  {
    "name": "Pearsall Park",
    "street": "4838 Old Pearsall Rd",
    "city": "San Antonio",
    "state": "TX",
    "zip": "78242",
    "latitude": 29.33909,
    "longitude": -98.624135,
    "description": "Pearsall Park at 4838 Old Pearsall Rd is one of the most beloved dog parks in San Antonio—4.7 stars from an incredible 5,239 reviews. Open from 6am to 11pm daily, visits fit naturally into any dog owner's routine. A park doesn't earn this many positive reviews without consistently delighting dog owners."
  },
  {
    "name": "McAllister Park",
    "street": "13102 Jones Maltsberger Rd",
    "city": "San Antonio",
    "state": "TX",
    "zip": "78247",
    "latitude": 29.5644639,
    "longitude": -98.455829,
    "description": "At 13102 Jones Maltsberger Rd in San Antonio, McAllister Park stands out with 4.7 stars from 4,576 happy dog owners. Open from 5am to 11pm daily, there's always time for dog owners to bring their pup for some quality time. Want to give your pup even more adventure? Lady Bird Johnson Park is another beloved dog park just 2.8 miles away."
  },
  {
    "name": "Blanco Road Dog Park",
    "street": "13203 Blanco Rd",
    "city": "San Antonio",
    "state": "TX",
    "zip": "78216",
    "latitude": 29.5617771,
    "longitude": -98.5208356,
    "description": "Dog owners in San Antonio have made Blanco Road Dog Park at 13203 Blanco Rd a go-to spot, rating it 4.7 stars across 411 reviews. Open from 7:30am to 7:30pm daily, dog owners have plenty of flexibility to plan a visit. Looking for more places to take your pup? Phil Hardberger Park is another popular dog park just 1.0 miles away."
  },
  {
    "name": "‍ Paw Park",
    "street": "8020 Dave Erwin Dr",
    "city": "San Antonio",
    "state": "TX",
    "zip": "78235",
    "latitude": 29.3442019,
    "longitude": -98.453762,
    "description": "San Antonio dog owners rate Paw Park at 8020 Dave Erwin Dr highly, with 4.7 stars from 194 visits. Open from 6am to 11pm daily, there's room in the day for dog owners to bring their furry friends. Other dog parks in the area include Kingsborough Park (2.6 miles) and South Side Lions Park (3.0 miles)—both great for exploring with your four-legged friend."
  },
  {
    "name": "The Dog Co. Icehouse",
    "street": "4302 Hyatt Pl Dr",
    "city": "San Antonio",
    "state": "TX",
    "zip": "78230",
    "latitude": 29.5383131,
    "longitude": -98.5671206,
    "description": "At 4302 Hyatt Pl Dr in San Antonio, The Dog Co. Icehouse has built a loyal following—4.6 stars from 399 dog owner reviews. Local dog owners appreciate what this park offers their four-legged friends. Other dog parks in the area include Phil Hardberger Park (2.4 miles) and Blanco Road Dog Park (3.2 miles)—both great for exploring with your four-legged friend."
  },
  {
    "name": "Panther Springs Dog Park",
    "street": "22635 Wilderness Oak",
    "city": "San Antonio",
    "state": "TX",
    "zip": "78260",
    "latitude": 29.6710738,
    "longitude": -98.4549741,
    "description": "Panther Springs Dog Park (4.6 stars from 506 reviews) is a popular destination for San Antonio dog owners, located at 22635 Wilderness Oak. Open from 6am to 8pm daily, dog owners can easily fit a visit into busy schedules. The positive feedback from local dog owners speaks to the park's consistent quality."
  },
  {
    "name": "Puppy Playland Dog Park",
    "street": "1240 Landa St",
    "city": "San Antonio",
    "state": "TX",
    "zip": "78132",
    "latitude": 29.6961717,
    "longitude": -98.1555297,
    "description": "San Antonio dog owners rate Puppy Playland Dog Park at 1240 Landa St highly, with 4.6 stars from 519 visits. Open from 6am to 9pm daily, the park works well for dog owners with different schedules. The positive feedback from local dog owners speaks to the park's consistent quality."
  },
  {
    "name": "Lady Bird Johnson Park",
    "street": "10700 Nacogdoches Rd",
    "city": "San Antonio",
    "state": "TX",
    "zip": "78217",
    "latitude": 29.5339899,
    "longitude": -98.4246371,
    "description": "At 10700 Nacogdoches Rd in San Antonio, Lady Bird Johnson Park has built a loyal following—4.6 stars from 776 dog owner reviews. Open from 5am to 11pm daily, there's room in the day for dog owners to bring their furry friends. Other dog parks in the area include McAllister Park (2.8 miles) and Monterrey Village Wildlife (4.5 miles)—both great for exploring with your four-legged friend."
  },
  {
    "name": "Woodlawn Lake Park",
    "street": "1103 Cincinnati Ave",
    "city": "San Antonio",
    "state": "TX",
    "zip": "78201",
    "latitude": 29.4498804,
    "longitude": -98.5272743,
    "description": "Dog owners have made Woodlawn Lake Park at 1103 Cincinnati Ave one of San Antonio's most popular destinations—4.6 stars from 7,608 visits. Open from 5am to 12am daily, dog owners rarely have to rush—there's time to let pups fully enjoy the space. For more dog park adventures, explore Woodlawn Lake Dog Park (0.1 miles) or Madison Square Park (2.5 miles) with your furry companion."
  },
  {
    "name": "Coyote Dog Park",
    "street": "5815 N Loop 1604 W",
    "city": "San Antonio",
    "state": "TX",
    "zip": "78257",
    "latitude": 29.5916422,
    "longitude": -98.6026509,
    "description": "Dog owners in San Antonio have made Coyote Dog Park at 5815 N Loop 1604 W a go-to spot, rating it 4.5 stars across 177 reviews. Open from 8am to 6pm daily, the park accommodates early risers and evening visitors alike. Nearby, The Dog Co. Icehouse (4.3 miles) offers dog owners another great spot to explore with their pups."
  },
  {
    "name": "Woodlawn Lake Dog Park",
    "street": "115 Alexander Ave",
    "city": "San Antonio",
    "state": "TX",
    "zip": "78201",
    "latitude": 29.4490049,
    "longitude": -98.5280844,
    "description": "Woodlawn Lake Dog Park at 115 Alexander Ave is well-regarded by San Antonio dog owners, holding 4.5 stars across 492 reviews. Open from 8am to 10pm daily, there's plenty of opportunity for dog owners to find a time that works. Nearby, Woodlawn Lake Park (0.1 miles) offers dog owners another great spot to explore with their pups."
  },
  {
    "name": "‍ Nani Falcone Community Park",
    "street": "8716 Mystic Park",
    "city": "San Antonio",
    "state": "TX",
    "zip": "78254",
    "latitude": 29.525524,
    "longitude": -98.6421126,
    "description": "Dog owners in San Antonio have embraced Nani Falcone Community Park (8716 Mystic Park) as a top destination—4.5 stars from 1,127 visits. Open from 5am to 11pm daily, dog owners can plan visits around their pup's favorite times to be active. For more dog park adventures, explore New Territories Park (1.8 miles) or The Dog Co. Icehouse (4.6 miles) with your furry companion."
  },
  {
    "name": "Hops & Hounds",
    "street": "1123 Avenue B",
    "city": "San Antonio",
    "state": "TX",
    "zip": "78215",
    "latitude": 29.4367406,
    "longitude": -98.4802612,
    "description": "For San Antonio dog owners, Hops & Hounds at 1123 Avenue B has become a reliable favorite—4.5 stars from 1,249 reviews. Dog owners in the area know they can count on this park for quality time with their pups. Nearby, Maverick Dog Park (0.1 miles) is another dog park favorite where you can take your four-legged friend."
  },
  {
    "name": "Olmos Basin Park",
    "street": "651 Devine Rd",
    "city": "San Antonio",
    "state": "TX",
    "zip": "78209",
    "latitude": 29.4795226,
    "longitude": -98.4792144,
    "description": "With 4.5 stars across 1,665 reviews, Olmos Basin Park at 651 Devine Rd has clearly won over San Antonio dog owners. Open from 5am to 11pm daily, the park accommodates a variety of dog owner schedules and routines. For variety, many dog owners also bring their furry friends to Brackenridge Park (1.4 miles)—another great dog park in the area."
  },
  {
    "name": "North Waco Park",
    "street": "2128 Edna Ave",
    "city": "Waco",
    "state": "TX",
    "zip": "76708",
    "latitude": 31.5725421,
    "longitude": -97.1711847,
    "description": "North Waco Park at 2128 Edna Ave in Waco has 4.2 stars from 284 dog owner reviews. This park provides dog owners in the community with a place to visit with their dogs. For dog owners considering a visit, the reviews offer firsthand accounts from other visitors."
  }
]