[
  {
    "name": "Layton City Vietnam Memorial",
    "street": "508 Constitution Cir",
    "city": "Layton",
    "state": "UT",
    "zip": "84041",
    "latitude": 41.0673442,
    "longitude": -111.959159,
    "description": "Layton dog owners rate Layton City Vietnam Memorial at 508 Constitution Cir highly, with 4.9 stars from 270 visits. Open from 5am to 11pm daily, there's plenty of opportunity for dog owners to find a time that works. Dog owners can also take their pups to nearby Layton Commons Park (0.3 miles) or Andy Adams Park (0.5 miles)."
  },
  {
    "name": "‍ Pioneer Park",
    "street": "1285 S Angel StKaysville",
    "city": "Layton",
    "state": "UT",
    "zip": "84037",
    "latitude": 41.0214931,
    "longitude": -111.961242,
    "description": "With 4.8 stars from 155 reviews, Pioneer Park at 1285 S Angel St has become a favorite among Layton dog owners. The steady stream of dog owner visits speaks to the park's appeal. Looking for more places to take your pup? The Gailey Trail at Nicholls is another popular dog park just 2.5 miles away."
  },
  {
    "name": "The Gailey Trail at Nicholls",
    "street": "1105 E Nicholls RdFruit Heights",
    "city": "Layton",
    "state": "UT",
    "zip": "84037",
    "latitude": 41.0263615,
    "longitude": -111.9136826,
    "description": "Located at 1105 E Nicholls Rd in Layton, The Gailey Trail at Nicholls earns strong marks from local dog owners—4.8 stars from 115 reviews. Open from 6am to 10pm daily, the park works well for dog owners with different schedules. For variety, the neighborhood offers more dog parks to explore: Wilderness Park (1.4 miles) and Moon Park (1.7 miles)."
  },
  {
    "name": "Adams Canyon Trailhead",
    "street": "600 N Eastside Dr",
    "city": "Layton",
    "state": "UT",
    "zip": "84041",
    "latitude": 41.0751048,
    "longitude": -111.9741925,
    "description": "Adams Canyon Trailhead at 600 N Eastside Dr in Layton is a community favorite, with 1,022 dog owners giving it 4.7 stars. For dog owners seeking a tried-and-true destination, this park delivers consistently. For more dog park adventures, explore Red Park (0.0 miles) or Woodward Park (0.7 miles) with your furry companion."
  },
  {
    "name": "Harmony Place Park",
    "street": "2525 W 225 S",
    "city": "Layton",
    "state": "UT",
    "zip": "84041",
    "latitude": 41.0570266,
    "longitude": -111.9763902,
    "description": "Layton dog owners rate Harmony Place Park at 2525 W 225 S highly, with 4.9 stars from 22 visits. The steady stream of dog owner visits speaks to the park's appeal. For a change of scenery, Veterans Park is another dog-friendly destination 0.5 miles from here."
  },
  {
    "name": "Fernwood Recreation Site",
    "street": "3333 Fernwood Cir",
    "city": "Layton",
    "state": "UT",
    "zip": "84040",
    "latitude": 41.0894106,
    "longitude": -111.9023783,
    "description": "At 3333 Fernwood Cir in Layton, Fernwood Recreation Site has built a loyal following—4.7 stars from 346 dog owner reviews. Open from 7am to 10pm daily, there's plenty of opportunity for dog owners to find a time that works. For variety, the neighborhood offers more dog parks to explore: Fernwood trail (0.8 miles) and Oak Forest Park (1.1 miles)."
  },
  {
    "name": "‍ Great Salt Lake Shorelands",
    "street": "1002 S 3200 W",
    "city": "Layton",
    "state": "UT",
    "zip": "84041",
    "latitude": 41.0638113,
    "longitude": -112.0262898,
    "description": "Dog owners in Layton have made Great Salt Lake Shorelands at 1002 S 3200 W a go-to spot, rating it 4.7 stars across 288 reviews. Open from 6am to 9pm daily, the park offers flexibility for dog owners with varying routines. For variety, the neighborhood offers more dog parks to explore: Legacy Park (0.1 miles) and Bluff Ridge Park (1.1 miles)."
  },
  {
    "name": "‍ Valley View RV Resort",
    "street": "100 E 2650 N",
    "city": "Layton",
    "state": "UT",
    "zip": "84041",
    "latitude": 41.0977106,
    "longitude": -111.9652024,
    "description": "Valley View RV Resort (4.7 stars from 207 reviews) is a popular destination for Layton dog owners, located at 100 E 2650 N. Open from 11am to 6pm daily, the park offers flexibility for dog owners with varying routines. Dog owners can also take their pups to nearby Woodward Park (1.0 miles) or Sand Ridge Park (1.3 miles)."
  },
  {
    "name": "Fernwood trail",
    "street": "Bonneville Shoreline Trail",
    "city": "Layton",
    "state": "UT",
    "zip": "84040",
    "latitude": 41.0773718,
    "longitude": -111.9021852,
    "description": "With 4.9 stars from 11 reviews, Fernwood trail has become a favorite among Layton dog owners. The steady stream of dog owner visits speaks to the park's appeal. For variety, the neighborhood offers more dog parks to explore: Fernwood Recreation Site (0.8 miles) and Oak Forest Park (1.6 miles)."
  },
  {
    "name": "Layton Commons Park",
    "street": "437 N Wasatch Dr",
    "city": "Layton",
    "state": "UT",
    "zip": "84041",
    "latitude": 41.0667899,
    "longitude": -111.9538903,
    "description": "Layton Commons Park at 437 N Wasatch Dr is a favorite among Layton dog owners, earning 4.6 stars from 3,085 reviews. Open from 5am to 11pm daily, the park is convenient for before work, after work, or weekend adventures. Other popular dog parks nearby include Layton City Vietnam Memorial (0.3 miles) and Andy Adams Park (0.5 miles)—both favorites among local pup parents."
  },
  {
    "name": "‍ Grey Hawk Park",
    "street": "3500 Redtail Way",
    "city": "Layton",
    "state": "UT",
    "zip": "84040",
    "latitude": 41.1054484,
    "longitude": -111.9304546,
    "description": "Layton dog owners rate Grey Hawk Park at 3500 Redtail Way highly, with 4.6 stars from 404 visits. Open from 8am to 5pm weekdays, the park offers flexibility for dog owners with varying routines. Dog owners exploring the neighborhood can also bring their furry friends to Kays Creek Parkway Park (0.5 miles)."
  },
  {
    "name": "Kays Creek Parkway Park",
    "street": "2370 Canyon View Dr",
    "city": "Layton",
    "state": "UT",
    "zip": "84040",
    "latitude": 41.1011672,
    "longitude": -111.9218258,
    "description": "With 4.6 stars from 272 reviews, Kays Creek Parkway Park at 2370 Canyon View Dr has become a favorite among Layton dog owners. Open from 6am to 10pm daily, the park accommodates early risers and evening visitors alike. For a change of scenery, Oak Forest Park is another dog-friendly destination 0.5 miles from here."
  },
  {
    "name": "Wilderness Park",
    "street": "1625 E 650 NKaysville",
    "city": "Layton",
    "state": "UT",
    "zip": "84037",
    "latitude": 41.0459851,
    "longitude": -111.9050894,
    "description": "Layton dog owners rate Wilderness Park at 1625 E 650 N highly, with 4.6 stars from 242 visits. Open from 9am to 8pm daily, dog owners have plenty of flexibility to plan a visit. Other dog parks in the area include The Gailey Trail at Nicholls (1.4 miles) and Fernwood trail (2.2 miles)—both great for exploring with your four-legged friend."
  },
  {
    "name": "Uintah City Park",
    "street": "2105 E 6550 SUintah",
    "city": "Layton",
    "state": "UT",
    "zip": "84405",
    "latitude": 41.1441829,
    "longitude": -111.9248749,
    "description": "With 4.6 stars from 82 reviews, Uintah City Park at 2105 E 6550 S has become a favorite among Layton dog owners. The park has earned its reputation among dog owners in the neighborhood as a reliable choice. Looking for more places to take your pup? Cedar Cove Park is another popular dog park just 1.0 miles away."
  },
  {
    "name": "Old Fort Road Dog Park",
    "street": "",
    "city": "Layton",
    "state": "UT",
    "zip": "",
    "latitude": 41.1344398,
    "longitude": -111.943354,
    "description": "In Layton, Old Fort Road Dog Park earns strong marks from local dog owners—4.6 stars from 20 reviews. Open from 7am to 8pm daily, dog owners can plan visits around work or their pup's energy level. For variety, the neighborhood offers more dog parks to explore: Cedar Cove Park (0.8 miles) and Uintah City Park (1.2 miles)."
  },
  {
    "name": "Kay's Creek Trailhead",
    "street": "2210 N 1450 E",
    "city": "Layton",
    "state": "UT",
    "zip": "84040",
    "latitude": 41.0918197,
    "longitude": -111.9386492,
    "description": "Kay's Creek Trailhead at 2210 N 1450 E is well-regarded by Layton dog owners, holding 4.6 stars across 8 reviews. The park serves dog owners well, providing a destination the community values. Dog owners can also take their pups to nearby Sand Ridge Park (0.5 miles) or Oak Forest Park (0.9 miles)."
  },
  {
    "name": "‍ Saratoga Ridge Park",
    "street": "Mount Saratoga BlvdSaratoga Springs",
    "city": "Lehi",
    "state": "UT",
    "zip": "84045",
    "latitude": 40.3621906,
    "longitude": -111.9562143,
    "description": "In Lehi, Saratoga Ridge Park earns strong marks from local dog owners—4.6 stars from 62 reviews. Open from 6am to 10pm daily, dog owners can plan visits around work or their pup's energy level. Looking for more places to take your pup? Regal Park is another popular dog park just 2.3 miles away."
  },
  {
    "name": "‍ The Exchange Park",
    "street": "9814 N 3600 W",
    "city": "Lehi",
    "state": "UT",
    "zip": "84043",
    "latitude": 40.4086614,
    "longitude": -111.9067437,
    "description": "At 9814 N 3600 W in Lehi, The Exchange Park has built a loyal following—4.6 stars from 36 dog owner reviews. Dog owners frequent this park for its consistent quality and welcoming atmosphere. Other dog parks in the area include Dog Park (1.2 miles) and Fox Hollow Park (1.6 miles)—both great for exploring with your four-legged friend."
  },
  {
    "name": "Harvest Park",
    "street": "Peppercorn Rd N",
    "city": "Lehi",
    "state": "UT",
    "zip": "84043",
    "latitude": 40.4410665,
    "longitude": -111.8871483,
    "description": "With 4.5 stars from 57 reviews, Harvest Park has become a favorite among Lehi dog owners. Open from 6am to 10pm daily, dog owners have plenty of flexibility to plan a visit. For variety, the neighborhood offers more dog parks to explore: The Exchange Park (2.5 miles) and Dog Park (3.3 miles)."
  },
  {
    "name": "Dog Park",
    "street": "2998 W 300 N",
    "city": "Lehi",
    "state": "UT",
    "zip": "84043",
    "latitude": 40.3934797,
    "longitude": -111.8975596,
    "description": "Located at 2998 W 300 N in Lehi, Dog Park earns strong marks from local dog owners—4.6 stars from 16 reviews. The park serves dog owners well, providing a destination the community values. Looking for more places to take your pup? Fox Hollow Park is another popular dog park just 1.0 miles away."
  },
  {
    "name": "Eagle Mountain Dog Park",
    "street": "4550 Lehi-Fairfield RdEagle Mountain",
    "city": "Lehi",
    "state": "UT",
    "zip": "84005",
    "latitude": 40.2872118,
    "longitude": -112.0614959,
    "description": "Dog owners in the Lehi area will find Eagle Mountain Dog Park at 4550 Lehi-Fairfield Rd—a local option for spending time with their pups. The neighborhood benefits from having this park as an option for dog owners and their pups. The reviews from fellow dog owners offer helpful insights about this park."
  },
  {
    "name": "Willow Glen Home Owners Associ",
    "street": "783 Crystal Crk RdAmerican Fork",
    "city": "Lehi",
    "state": "UT",
    "zip": "84003",
    "latitude": 40.3674411,
    "longitude": -111.8197036,
    "description": "Lehi dog owners have access to Willow Glen Home Owners Associ at 783 Crystal Crk Rd for outings with their four-legged friends. Dog owners in the area appreciate having a local spot to bring their pups. More dog parks in the area include American Fork Dog Park (1.4 miles) and Shoreline Park (2.3 miles)—great options for mixing up your pup's routine."
  },
  {
    "name": "Merlin Olsen Central Park",
    "street": "280 E Center St",
    "city": "Logan",
    "state": "UT",
    "zip": "84321",
    "latitude": 41.7313584,
    "longitude": -111.8336768,
    "description": "Merlin Olsen Central Park at 280 E Center St is well-regarded by Logan dog owners, holding 4.7 stars across 979 reviews. Open from 5am to 10pm daily, there's plenty of opportunity for dog owners to find a time that works. Other dog parks in the area include Dog Park (0.1 miles) and Jens Johansen Park (0.3 miles)—both great for exploring with your four-legged friend."
  },
  {
    "name": "‍ Willow Horseshoe Park",
    "street": "500 W 700 S",
    "city": "Logan",
    "state": "UT",
    "zip": "84321",
    "latitude": 41.7187884,
    "longitude": -111.8477528,
    "description": "Willow Horseshoe Park (4.7 stars from 51 reviews) is a popular destination for Logan dog owners, located at 500 W 700 S. The park has earned its reputation among dog owners in the neighborhood as a reliable choice. Dog owners exploring the neighborhood can also bring their furry friends to Willow Park (0.0 miles)."
  },
  {
    "name": "Kilowatt Park",
    "street": "331 S 300 W",
    "city": "Logan",
    "state": "UT",
    "zip": "84321",
    "latitude": 41.7223428,
    "longitude": -111.843059,
    "description": "At 331 S 300 W in Logan, Kilowatt Park has built a loyal following—4.6 stars from 25 dog owner reviews. Open from 6am to 10pm daily, the park works well for dog owners with different schedules. For a change of scenery, Willow Horseshoe Park is another dog-friendly destination 0.3 miles from here."
  },
  {
    "name": "The Barking Lot",
    "street": "88 S 950 WBrigham City",
    "city": "Logan",
    "state": "UT",
    "zip": "84302",
    "latitude": 41.5084074,
    "longitude": -112.0318982,
    "description": "With 4.6 stars from 95 reviews, The Barking Lot at 88 S 950 W has become a favorite among Logan dog owners. Open from 8am to 8pm daily, dog owners can easily fit a visit into busy schedules. Based on the reviews, dog owners can expect a reliable spot for spending time with their pup."
  },
  {
    "name": "Willow Park",
    "street": "450 W 700 S",
    "city": "Logan",
    "state": "UT",
    "zip": "84321",
    "latitude": 41.7187884,
    "longitude": -111.8477528,
    "description": "At 450 W 700 S in Logan, Willow Park stands out with 4.6 stars from 1,228 happy dog owners. Open from 5am to 10pm daily, dog owners can plan visits around their pup's favorite times to be active. Dog owners in the area also love bringing their pups to Willow Horseshoe Park (0.0 miles) and Kilowatt Park (0.3 miles)."
  },
  {
    "name": "Jens Johansen Park",
    "street": "850 E 100 N",
    "city": "Logan",
    "state": "UT",
    "zip": "84321",
    "latitude": 41.7332011,
    "longitude": -111.8293725,
    "description": "Jens Johansen Park (4.5 stars from 75 reviews) is a popular destination for Logan dog owners, located at 850 E 100 N. Open from 7am to 10:30pm daily, the park works well for dog owners with different schedules. Dog owners can also take their pups to nearby Merlin Olsen Central Park (0.3 miles) or Dog Park (0.3 miles)."
  },
  {
    "name": "Blacksmith Fork Dog Park",
    "street": "1570 Hyrum BlvdHyrum",
    "city": "Logan",
    "state": "UT",
    "zip": "84319",
    "latitude": 41.6285686,
    "longitude": -111.813988,
    "description": "Located at 1570 Hyrum Blvd, Blacksmith Fork Dog Park in Logan is rated 4.4 stars by 26 dog owners. Local dog owners use this park as a spot to spend time with their furry companions. Dog owners new to the area may find the visitor reviews useful for learning about this park."
  },
  {
    "name": "Rendezvous Park",
    "street": "US-91",
    "city": "Logan",
    "state": "UT",
    "zip": "84321",
    "latitude": 41.7173339,
    "longitude": -111.8355976,
    "description": "With 4.5 stars from 290 reviews, Rendezvous Park has become a favorite among Logan dog owners. Open from 7am to 10pm daily, the park offers flexibility for dog owners with varying routines. Nearby, Kilowatt Park (0.5 miles) offers dog owners another great spot to explore with their pups."
  },
  {
    "name": "‍ Canyon Rim Park",
    "street": "3100 S Grace St",
    "city": "Millcreek",
    "state": "UT",
    "zip": "84109",
    "latitude": 40.7043151,
    "longitude": -111.8054447,
    "description": "With 4.7 stars from 574 reviews, Canyon Rim Park at 3100 S Grace St has become a favorite among Millcreek dog owners. Open from 8am to 5pm daily, the park offers flexibility for dog owners with varying routines. Dog owners can also take their pups to nearby Tanner Park (0.7 miles) or Parleys Historic Nature Park (0.7 miles)."
  },
  {
    "name": "Big Cottonwood Regional Park",
    "street": "",
    "city": "Millcreek",
    "state": "UT",
    "zip": "",
    "latitude": 40.6992918,
    "longitude": -111.855583,
    "description": "In Millcreek, Big Cottonwood Regional Park earns strong marks from local dog owners—4.7 stars from 11 reviews. For dog owners in the area, this park has become a trusted spot for time with their pups. More dog-friendly parks nearby include Fitts Park (1.1 miles) and Evergreen Park (1.5 miles)—perfect for pups who love adventure."
  },
  {
    "name": "Laird Park",
    "street": "",
    "city": "Millcreek",
    "state": "UT",
    "zip": "",
    "latitude": 40.7596198,
    "longitude": -111.886797,
    "description": "Dog owners in Millcreek have made Laird Park a go-to spot, rating it 4.5 stars across 169 reviews. Open from 5am to 10pm daily, the park offers flexibility for dog owners with varying routines. More dog-friendly parks nearby include Riverside Park (0.0 miles) and Stratford Park (0.0 miles)—perfect for pups who love adventure."
  },
  {
    "name": "‍ Woodstock Meadows Park",
    "street": "",
    "city": "Millcreek",
    "state": "UT",
    "zip": "",
    "latitude": 40.6667841,
    "longitude": -111.888417,
    "description": "Woodstock Meadows Park (4.5 stars from 213 reviews) is a popular destination for Millcreek dog owners. Open from 6am to 11pm daily, there's plenty of opportunity for dog owners to find a time that works. Other dog parks in the area include Murray Park (0.5 miles) and Grant Park (0.9 miles)—both great for exploring with your four-legged friend."
  },
  {
    "name": "Evergreen Park",
    "street": "2266 E Evergreen Ave",
    "city": "Millcreek",
    "state": "UT",
    "zip": "84109",
    "latitude": 40.6962,
    "longitude": -111.8267,
    "description": "With 4.5 stars from 313 reviews, Evergreen Park at 2266 E Evergreen Ave has become a favorite among Millcreek dog owners. Dog owners looking for a solid destination will find this park delivers. For a change of scenery, Tanner Park is another dog-friendly destination 1.2 miles from here."
  },
  {
    "name": "Whitlock Park",
    "street": "201 E Whitlock AveSouth Salt Lake",
    "city": "Millcreek",
    "state": "UT",
    "zip": "84115",
    "latitude": 40.7158737,
    "longitude": -111.8925366,
    "description": "Located at 201 E Whitlock Ave, Whitlock Park offers Millcreek dog owners a neighborhood destination for their four-legged friends. Open from 6am to 10pm daily, dog owners can stop by when it fits their schedule. Looking to explore more? South Salt Lake Dog Park is another dog-friendly park 0.3 miles from here."
  },
  {
    "name": "Ogden City Dog Park",
    "street": "2450 A Ave",
    "city": "Ogden",
    "state": "UT",
    "zip": "84401",
    "latitude": 41.2219125,
    "longitude": -111.9897728,
    "description": "With 4.4 stars from 737 reviews, Ogden City Dog Park at 2450 A Ave has become a favorite among Ogden dog owners. Open from 5am to 9pm daily, the park offers flexibility for dog owners with varying routines. Dog owners exploring the neighborhood can also bring their furry friends to Club Heights Park (2.4 miles)."
  },
  {
    "name": "Rock Canyon Park",
    "street": "2620 N 1200 E",
    "city": "Provo",
    "state": "UT",
    "zip": "84604",
    "latitude": 40.2444787,
    "longitude": -111.6376488,
    "description": "1,235 dog owners have made Rock Canyon Park (2620 N 1200 E) one of Provo's most trusted parks (4.7 stars). Open from 7am to 11pm daily, there's always time for dog owners to bring their pup for some quality time. For more dog park adventures, explore Joaquin Park (0.8 miles) or Paul Ream Wilderness Park (1.0 miles) with your furry companion."
  },
  {
    "name": "South Fork Park",
    "street": "4988 S Fork Rd",
    "city": "Provo",
    "state": "UT",
    "zip": "84604",
    "latitude": 40.2184327,
    "longitude": -111.6286871,
    "description": "At 4988 S Fork Rd in Provo, South Fork Park has built a loyal following—4.7 stars from 787 dog owner reviews. Open from 7am to 11pm daily, there's plenty of opportunity for dog owners to find a time that works. For a change of scenery, Bicentennial Park is another dog-friendly destination 0.4 miles from here."
  },
  {
    "name": "Canyon Glen Park",
    "street": "1501 E Provo Canyon Rd",
    "city": "Provo",
    "state": "UT",
    "zip": "84604",
    "latitude": 40.3134869,
    "longitude": -111.6552555,
    "description": "With 4.7 stars from 710 reviews, Canyon Glen Park at 1501 E Provo Canyon Rd has become a favorite among Provo dog owners. Open from 7am to 11pm daily, there's room in the day for dog owners to bring their furry friends. For a change of scenery, Orem Dog Park is another dog-friendly destination 0.3 miles from here."
  },
  {
    "name": "Lakeshore Bridge Trailhead",
    "street": "488 Lakeshore Dr",
    "city": "Provo",
    "state": "UT",
    "zip": "84601",
    "latitude": 40.24039,
    "longitude": -111.710716,
    "description": "With 4.7 stars from 217 reviews, Lakeshore Bridge Trailhead at 488 Lakeshore Dr has become a favorite among Provo dog owners. Open from 7am to 11pm daily, dog owners can plan visits around work or their pup's energy level. Nearby, Riverside Park (0.5 miles) offers dog owners another great spot to explore with their pups."
  },
  {
    "name": "Spring Creek Park",
    "street": "1140 S State St",
    "city": "Provo",
    "state": "UT",
    "zip": "84606",
    "latitude": 40.219168,
    "longitude": -111.6386606,
    "description": "At 1140 S State St in Provo, Spring Creek Park has built a loyal following—4.7 stars from 205 dog owner reviews. Open from 7am to 11pm daily, there's room in the day for dog owners to bring their furry friends. For variety, the neighborhood offers more dog parks to explore: Provost Park (0.4 miles) and Bicentennial Park (0.4 miles)."
  },
  {
    "name": "Slate Canyon Trail",
    "street": "Slate Canyon Trail 061",
    "city": "Provo",
    "state": "UT",
    "zip": "84606",
    "latitude": 40.2246073,
    "longitude": -111.6232008,
    "description": "For dog owners in the Provo area, Slate Canyon Trail offers a 4.7-star experience based on 104 reviews. The park serves dog owners well, providing a destination the community values. More dog-friendly parks nearby include South Fork Park (0.5 miles) and Bicentennial Park (0.9 miles)—perfect for pups who love adventure."
  },
  {
    "name": "Bicentennial Park",
    "street": "1600 E 1440 S",
    "city": "Provo",
    "state": "UT",
    "zip": "84606",
    "latitude": 40.2144911,
    "longitude": -111.633412,
    "description": "Located at 1600 E 1440 S in Provo, Bicentennial Park earns strong marks from local dog owners—4.8 stars from 24 reviews. Open from 7am to 11pm daily, the park accommodates early risers and evening visitors alike. Looking for more places to take your pup? Bicentennial Park is another popular dog park just 0.0 miles away."
  },
  {
    "name": "Provo River Walk",
    "street": "Provo River Pkwy",
    "city": "Provo",
    "state": "UT",
    "zip": "84604",
    "latitude": 40.285402,
    "longitude": -111.6591702,
    "description": "In Provo, Provo River Walk has built a loyal following—4.7 stars from 39 dog owner reviews. Dog owners frequent this park for its consistent quality and welcoming atmosphere. Dog owners exploring the neighborhood can also bring their furry friends to Riverview Park (0.2 miles)."
  },
  {
    "name": "Stutz Park",
    "street": "531 W 3700 N",
    "city": "Provo",
    "state": "UT",
    "zip": "84604",
    "latitude": 40.2826504,
    "longitude": -111.6672796,
    "description": "With 4.7 stars from 23 reviews, Stutz Park at 531 W 3700 N has become a favorite among Provo dog owners. Open from 7am to 11pm daily, there's plenty of opportunity for dog owners to find a time that works. For a change of scenery, Riverview Park is another dog-friendly destination 0.3 miles from here."
  },
  {
    "name": "Paul Ream Wilderness Park",
    "street": "1600 500 N",
    "city": "Provo",
    "state": "UT",
    "zip": "84601",
    "latitude": 40.255864,
    "longitude": -111.649693,
    "description": "For dog owners in the Provo area, Paul Ream Wilderness Park (1600 500 N) offers a 4.6-star experience based on 867 reviews. Open from 7am to 11pm daily, the park offers flexibility for dog owners with varying routines. Other dog parks in the area include Rock Canyon Park (1.0 miles) and Joaquin Park (1.2 miles)—both great for exploring with your four-legged friend."
  },
  {
    "name": "Spanish Fork Dog Park",
    "street": "400 S 600 E StSpanish Fork",
    "city": "Provo",
    "state": "UT",
    "zip": "84660",
    "latitude": 40.104352,
    "longitude": -111.644298,
    "description": "Spanish Fork Dog Park (4.6 stars from 489 reviews) is a popular destination for Provo dog owners, located at 400 S 600 E St. Open from 7am to 8pm daily, there's plenty of opportunity for dog owners to find a time that works. For variety, the neighborhood offers more dog parks to explore: Spanish Fork Dog Park (0.1 miles) and Community Park (3.8 miles)."
  },
  {
    "name": "‍ North Park",
    "street": "500 N 500 W",
    "city": "Provo",
    "state": "UT",
    "zip": "84604",
    "latitude": 40.2404105,
    "longitude": -111.6687799,
    "description": "At 500 N 500 W in Provo, North Park has built a loyal following—4.6 stars from 467 dog owner reviews. Open from 7am to 11pm daily, the park offers flexibility for dog owners with varying routines. Nearby, Exchange Park (0.2 miles) offers dog owners another great spot to explore with their pups."
  },
  {
    "name": "Riverside Park",
    "street": "1260 West 600",
    "city": "Provo",
    "state": "UT",
    "zip": "84601",
    "latitude": 40.242216,
    "longitude": -111.7009755,
    "description": "For dog owners in the Provo area, Riverside Park (1260 West 600 North) offers a 4.5-star experience based on 133 reviews. Open from 7am to 11pm daily, there's plenty of opportunity for dog owners to find a time that works. Dog owners can also take their pups to nearby Lakeshore Bridge Trailhead (0.5 miles) or Grandview Park (1.0 miles)."
  },
  {
    "name": "The Y",
    "street": "Slide Canyon Trail 062",
    "city": "Provo",
    "state": "UT",
    "zip": "84604",
    "latitude": 40.2449502,
    "longitude": -111.6130755,
    "description": "Dog owners in Provo have made The Y a go-to spot, rating it 4.5 stars across 177 reviews. The park has earned its reputation among dog owners in the neighborhood as a reliable choice. Other dog parks in the area include Rock Canyon Park (1.3 miles) and Slate Canyon Trail (1.5 miles)—both great for exploring with your four-legged friend."
  },
  {
    "name": "Carterville Park",
    "street": "2400 N Carterville Rd",
    "city": "Provo",
    "state": "UT",
    "zip": "84604",
    "latitude": 40.2612271,
    "longitude": -111.6715753,
    "description": "Located at 2400 N Carterville Rd in Provo, Carterville Park earns strong marks from local dog owners—4.5 stars from 209 reviews. Open from 7am to 11pm daily, there's room in the day for dog owners to bring their furry friends. Nearby, Grandview Park (1.1 miles) offers dog owners another great spot to explore with their pups."
  },
  {
    "name": "Joaquin Park",
    "street": "378 N 400 E",
    "city": "Provo",
    "state": "UT",
    "zip": "84606",
    "latitude": 40.2386976,
    "longitude": -111.651573,
    "description": "For dog owners in the Provo area, Joaquin Park (378 N 400 E) offers a 4.5-star experience based on 245 reviews. Open from 7am to 11pm daily, dog owners can easily fit a visit into busy schedules. More dog-friendly parks nearby include Rock Canyon Park (0.8 miles) and Maeser Park (0.9 miles)—perfect for pups who love adventure."
  },
  {
    "name": "Willow Creek Dog Park",
    "street": "4460 Split Rail LnPark City",
    "city": "Salt Lake City",
    "state": "UT",
    "zip": "84098",
    "latitude": 40.8072072,
    "longitude": -111.9451398,
    "description": "Willow Creek Dog Park at 4460 Split Rail Ln is well-regarded by Salt Lake City dog owners, holding 4.9 stars across 259 reviews. Open from 6am to 8pm, every day except Wednesday, there's plenty of opportunity for dog owners to find a time that works. For variety, the neighborhood offers more dog parks to explore: Modesto Park (0.3 miles) and Rosewood Park (0.6 miles)."
  },
  {
    "name": "Run-a-Muk Dog Park",
    "street": "2387 Olympic PkwyPark City",
    "city": "Salt Lake City",
    "state": "UT",
    "zip": "84098",
    "latitude": 40.6767631,
    "longitude": -111.5222753,
    "description": "Salt Lake City dog owners rate Run-a-Muk Dog Park at 2387 Olympic Pkwy highly, with 4.9 stars from 248 visits. The park has earned its reputation among dog owners in the neighborhood as a reliable choice. The steady stream of positive reviews suggests dog owners consistently have good experiences here."
  },
  {
    "name": "Memory Grove Park",
    "street": "300 N Canyon Rd",
    "city": "Salt Lake City",
    "state": "UT",
    "zip": "84103",
    "latitude": 40.776471,
    "longitude": -111.885331,
    "description": "3,147 dog owners have made Memory Grove Park (300 N Canyon Rd) one of Salt Lake City's most trusted parks (4.8 stars). Open from 8am to 10pm daily, the park is convenient for before work, after work, or weekend adventures. Keep the adventure going at other nearby dog parks like City Creek Park (0.2 miles) or Lindsey Gardens Park (1.1 miles)."
  },
  {
    "name": "PupTub Club",
    "street": "208 Lucy Ave",
    "city": "Salt Lake City",
    "state": "UT",
    "zip": "84101",
    "latitude": 40.7426141,
    "longitude": -111.8972616,
    "description": "PupTub Club at 208 Lucy Ave is well-regarded by Salt Lake City dog owners, holding 4.9 stars across 30 reviews. Open from 10am to 7pm daily, the park accommodates early risers and evening visitors alike. Dog owners can also take their pups to nearby Liberty Park (0.8 miles) or Jordan Park (1.1 miles)."
  },
  {
    "name": "Murray Park",
    "street": "296 E Murray Park AveMurray",
    "city": "Salt Lake City",
    "state": "UT",
    "zip": "84107",
    "latitude": 40.6596795,
    "longitude": -111.8840793,
    "description": "At 296 E Murray Park Ave in Salt Lake City, Murray Park draws dog owners from across the area—4.7 stars from 6,368 reviews. Open from 6am to 11pm daily, dog owners rarely have to rush—there's time to let pups fully enjoy the space. Dog owners in the area also frequent Woodstock Meadows Park (0.5 miles)—another top dog park worth visiting with your pup."
  },
  {
    "name": "‍ Sugar House Park",
    "street": "1330 2100 S",
    "city": "Salt Lake City",
    "state": "UT",
    "zip": "84106",
    "latitude": 40.7254375,
    "longitude": -111.8438035,
    "description": "At 1330 2100 S in Salt Lake City, Sugar House Park draws dog owners from across the area—4.7 stars from 6,023 reviews. Open from 7am to 9pm daily, dog owners can visit during quieter hours or join the regular crowd. Dog owners in this area are lucky to have more great dog parks nearby: Hidden Hollow (0.1 miles) and Fairmont Park (0.9 miles)."
  },
  {
    "name": "Parleys Historic Nature Park",
    "street": "2667 Heritage Way",
    "city": "Salt Lake City",
    "state": "UT",
    "zip": "84109",
    "latitude": 40.7112321,
    "longitude": -111.8157403,
    "description": "At 2667 Heritage Way in Salt Lake City, Parleys Historic Nature Park has built a loyal following—4.7 stars from 697 dog owner reviews. Open from 5am to 10pm daily, the park offers flexibility for dog owners with varying routines. Dog owners can also take their pups to nearby Tanner Park (0.0 miles) or Canyon Rim Park (0.7 miles)."
  },
  {
    "name": "Crestwood Park",
    "street": "1673 ESiesta Dr",
    "city": "Cottonwood Heights",
    "state": "UT",
    "zip": "84093",
    "latitude": 40.6064418,
    "longitude": -111.8371486,
    "description": "Located at 1673 E in Salt Lake City, Crestwood Park earns strong marks from local dog owners—4.7 stars from 584 reviews. Open from 7am to 10pm daily, the park offers flexibility for dog owners with varying routines. More dog-friendly parks nearby include Sandy City Dog Park (3.4 miles) and Friendship Park (3.6 miles)—perfect for pups who love adventure."
  },
  {
    "name": "Bonneville Shoreline Access",
    "street": "919 Hilltop Rd",
    "city": "Salt Lake City",
    "state": "UT",
    "zip": "84103",
    "latitude": 40.7896336,
    "longitude": -111.8704203,
    "description": "Located at 919 Hilltop Rd in Salt Lake City, Bonneville Shoreline Access earns strong marks from local dog owners—4.7 stars from 186 reviews. Open from 5am to 10pm daily, the park works well for dog owners with different schedules. Looking for more places to take your pup? Lindsey Gardens Park is another popular dog park just 0.8 miles away."
  },
  {
    "name": "Deer Ridge Off-Leash Dog Trail",
    "street": "Deer Ridge DrDraper",
    "city": "Salt Lake City",
    "state": "UT",
    "zip": "84020",
    "latitude": 40.4784904,
    "longitude": -111.8402297,
    "description": "Salt Lake City dog owners rate Deer Ridge Off-Leash Dog Trail highly, with 4.7 stars from 152 visits. The park has earned its reputation among dog owners in the neighborhood as a reliable choice. Looking for more places to take your pup? Draper Dayland Dog Park is another popular dog park just 2.4 miles away."
  },
  {
    "name": "Parley's Way Park",
    "street": "",
    "city": "Salt Lake City",
    "state": "UT",
    "zip": "",
    "latitude": 40.7596198,
    "longitude": -111.886797,
    "description": "Parley's Way Park is well-regarded by Salt Lake City dog owners, holding 4.7 stars across 73 reviews. Open from 6:30am to 10pm daily, dog owners can plan visits around work or their pup's energy level. Other dog parks in the area include Riverside Park (0.0 miles) and Stratford Park (0.0 miles)—both great for exploring with your four-legged friend."
  },
  {
    "name": "Rotary Glen Dog Park",
    "street": "65 Emigration Canyon Rd",
    "city": "Salt Lake City",
    "state": "UT",
    "zip": "84108",
    "latitude": 40.750803,
    "longitude": -111.8120777,
    "description": "Dog owners in Salt Lake City have made Rotary Glen Dog Park at 65 Emigration Canyon Rd a go-to spot, rating it 4.7 stars across 52 reviews. The park has earned its reputation among dog owners in the neighborhood as a reliable choice. Looking for more places to take your pup? Rotary Glen Park is another popular dog park just 0.1 miles away."
  },
  {
    "name": "Liberty Park",
    "street": "600 Harvey Milk Blvd",
    "city": "Salt Lake City",
    "state": "UT",
    "zip": "84105",
    "latitude": 40.74984,
    "longitude": -111.909955,
    "description": "Liberty Park at 600 Harvey Milk Blvd in Salt Lake City has earned its reputation with 4.6 stars from 11,407 dog owner reviews. Open from 5am to 11pm daily, visits fit naturally into any dog owner's routine. While you're in the area, dog owners also recommend taking your pup to Joseph F. Steenblik Park, another excellent dog park 0.7 miles away."
  },
  {
    "name": "‍ Tanner Park",
    "street": "2660 Heritage Way",
    "city": "Salt Lake City",
    "state": "UT",
    "zip": "84109",
    "latitude": 40.7110911,
    "longitude": -111.8158897,
    "description": "At 2660 Heritage Way in Salt Lake City, Tanner Park stands out with 4.6 stars from 1,624 happy dog owners. Open from 7am to 10pm daily, dog owners can plan visits around their pup's favorite times to be active. Keep the adventure going at other nearby dog parks like Parleys Historic Nature Park (0.0 miles) or Canyon Rim Park (0.7 miles)."
  },
  {
    "name": "Draper Dayland Dog Park",
    "street": "300 E 13400 SDraper",
    "city": "Salt Lake City",
    "state": "UT",
    "zip": "84020",
    "latitude": 40.5079615,
    "longitude": -111.8650175,
    "description": "Draper Dayland Dog Park at 300 E 13400 S in Salt Lake City is a community favorite, with 1,408 dog owners giving it 4.6 stars. Dog owners in the area know they can count on this park for quality time with their pups. Looking to mix things up? Galena Hills Dog Park is a nearby dog park 1.4 miles away that's worth exploring with your pup."
  },
  {
    "name": "‍ West Jordan Off-Leash Dog Park",
    "street": "5982 New Bingham HwyWest Jordan",
    "city": "Salt Lake City",
    "state": "UT",
    "zip": "84081",
    "latitude": 40.5841207,
    "longitude": -112.044121,
    "description": "West Jordan Off-Leash Dog Park at 5982 New Bingham Hwy is well-regarded by Salt Lake City dog owners, holding 4.6 stars across 874 reviews. Open from 7am to 8pm daily, there's plenty of opportunity for dog owners to find a time that works. For variety, the neighborhood offers more dog parks to explore: Ewok Park (2.0 miles) and Maples Park (2.1 miles)."
  },
  {
    "name": "Fox Hollow Park",
    "street": "",
    "city": "Saratoga Springs",
    "state": "UT",
    "zip": "",
    "latitude": 40.3862792,
    "longitude": -111.9130188,
    "description": "With 4.7 stars from 140 reviews, Fox Hollow Park has become a favorite among Saratoga Springs dog owners. Open from 8am to 10pm daily, the park works well for dog owners with different schedules. For a change of scenery, Dog Park is another dog-friendly destination 1.0 miles from here."
  },
  {
    "name": "Shoreline Park",
    "street": "2182 E Lakeview Dr",
    "city": "Saratoga Springs",
    "state": "UT",
    "zip": "84043",
    "latitude": 40.3617666,
    "longitude": -111.8636974,
    "description": "With 4.6 stars from 48 reviews, Shoreline Park at 2182 E Lakeview Dr has become a favorite among Saratoga Springs dog owners. For dog owners in the area, this park has become a trusted spot for time with their pups. Other dog parks in the area include Willow Glen Home Owners Associ (2.3 miles) and Dog Park (2.8 miles)—both great for exploring with your four-legged friend."
  },
  {
    "name": "Regal Park",
    "street": "1397 S Allison Way",
    "city": "Saratoga Springs",
    "state": "UT",
    "zip": "84045",
    "latitude": 40.3367991,
    "longitude": -111.929236,
    "description": "39 dog owners have reviewed Regal Park at 1397 S Allison Way in Saratoga Springs, averaging 4.4 stars. Open from 6am to 10pm daily, dog owners have a window to spend time with their pups. Nearby dog parks worth exploring with your pup include Saratoga Ridge Park (2.3 miles) and Fox Hollow Park (3.5 miles)."
  },
  {
    "name": "Oquirrh Shadows Park",
    "street": "10300 4000 W",
    "city": "South Jordan",
    "state": "UT",
    "zip": "84095",
    "latitude": 40.5616568,
    "longitude": -111.9863614,
    "description": "Dog owners in South Jordan have made Oquirrh Shadows Park at 10300 4000 W a go-to spot, rating it 4.7 stars across 94 reviews. Local dog owners appreciate what this park offers their four-legged friends. Dog owners exploring the neighborhood can also bring their furry friends to Finch Park (0.4 miles)."
  },
  {
    "name": "Brookside Park",
    "street": "4863 Fish Hook Rd",
    "city": "South Jordan",
    "state": "UT",
    "zip": "84095",
    "latitude": 40.5610308,
    "longitude": -112.0071308,
    "description": "With 4.6 stars from 515 reviews, Brookside Park at 4863 Fish Hook Rd has become a favorite among South Jordan dog owners. Open from 7am to 10pm daily, the park accommodates early risers and evening visitors alike. Other dog parks in the area include Heights Park (0.2 miles) and Bowstring Park (0.4 miles)—both great for exploring with your four-legged friend."
  },
  {
    "name": "Jordan Ridge Park",
    "street": "9548 Providence Way",
    "city": "South Jordan",
    "state": "UT",
    "zip": "84095",
    "latitude": 40.5768573,
    "longitude": -111.9503945,
    "description": "At 9548 Providence Way in South Jordan, Jordan Ridge Park has built a loyal following—4.6 stars from 227 dog owner reviews. Open from 5am to 10pm daily, the park offers flexibility for dog owners with varying routines. More dog-friendly parks nearby include Veterans Memorial Park (0.4 miles) and South Jordan City Park (1.1 miles)—perfect for pups who love adventure."
  },
  {
    "name": "Founders' Park",
    "street": "11428 S Kestrel Rise Rd",
    "city": "South Jordan",
    "state": "UT",
    "zip": "84009",
    "latitude": 40.5421987,
    "longitude": -111.9984484,
    "description": "With 4.6 stars from 118 reviews, Founders' Park at 11428 S Kestrel Rise Rd has become a favorite among South Jordan dog owners. The park has earned its reputation among dog owners in the neighborhood as a reliable choice. Dog owners exploring the neighborhood can also bring their furry friends to Hillside Park (0.3 miles)."
  },
  {
    "name": "‍ Friendship Park",
    "street": "5701 S Fashion BlvdMurray",
    "city": "South Jordan",
    "state": "UT",
    "zip": "84107",
    "latitude": 40.6459211,
    "longitude": -111.8813064,
    "description": "Friendship Park (4.6 stars from 96 reviews) is a popular destination for South Jordan dog owners, located at 5701 S Fashion Blvd. Open from 7am to 10pm, Monday through Saturday, dog owners can plan visits around work or their pup's energy level. More dog-friendly parks nearby include Murray Park (1.0 miles) and Woodstock Meadows Park (1.5 miles)—perfect for pups who love adventure."
  },
  {
    "name": "Stonebridge Park",
    "street": "150 Stonebridge DrDraper",
    "city": "South Jordan",
    "state": "UT",
    "zip": "84020",
    "latitude": 40.5224641,
    "longitude": -111.8857253,
    "description": "Dog owners in South Jordan have made Stonebridge Park at 150 Stonebridge Dr a go-to spot, rating it 4.6 stars across 66 reviews. Open from 6am to 10pm daily, dog owners can easily fit a visit into busy schedules. Other dog parks in the area include Galena Hills Dog Park (0.9 miles) and Draper Dayland Dog Park (1.5 miles)—both great for exploring with your four-legged friend."
  },
  {
    "name": "River Heights Park",
    "street": "3594 Vista Pradera Way",
    "city": "South Jordan",
    "state": "UT",
    "zip": "84095",
    "latitude": 40.5500679,
    "longitude": -111.9742774,
    "description": "River Heights Park at 3594 Vista Pradera Way is well-regarded by South Jordan dog owners, holding 4.6 stars across 30 reviews. Dog owners frequent this park for its consistent quality and welcoming atmosphere. Dog owners can also take their pups to nearby Rushton Meadows Park (0.6 miles) or Oquirrh Shadows Park (1.0 miles)."
  },
  {
    "name": "Bowstring Park",
    "street": "5147 Longbow Dr",
    "city": "South Jordan",
    "state": "UT",
    "zip": "84095",
    "latitude": 40.5607346,
    "longitude": -112.0139807,
    "description": "South Jordan dog owners rate Bowstring Park at 5147 Longbow Dr highly, with 4.6 stars from 25 visits. Open from 6am to 10pm daily, dog owners can easily fit a visit into busy schedules. Other dog parks in the area include Heights Park (0.3 miles) and Brookside Park (0.4 miles)—both great for exploring with your four-legged friend."
  },
  {
    "name": "Finch Park",
    "street": "4352 Clarks Hill Dr",
    "city": "South Jordan",
    "state": "UT",
    "zip": "84009",
    "latitude": 40.5609877,
    "longitude": -111.9942685,
    "description": "For dog owners in the South Jordan area, Finch Park (4352 Clarks Hill Dr) offers a 4.6-star experience based on 11 reviews. Open from 7am to 10pm daily, the park offers flexibility for dog owners with varying routines. More dog-friendly parks nearby include Oquirrh Shadows Park (0.4 miles) and Brookside Park (0.7 miles)—perfect for pups who love adventure."
  },
  {
    "name": "Hillside Park",
    "street": "4400 Open Hill Dr",
    "city": "South Jordan",
    "state": "UT",
    "zip": "84095",
    "latitude": 40.5452017,
    "longitude": -111.9945923,
    "description": "South Jordan dog owners rate Hillside Park at 4400 Open Hill Dr highly, with 4.5 stars from 153 visits. Open from 5am to 10pm daily, the park accommodates early risers and evening visitors alike. For a change of scenery, Founders' Park is another dog-friendly destination 0.3 miles from here."
  },
  {
    "name": "K9 Memorial Dog Park",
    "street": "",
    "city": "South Jordan",
    "state": "UT",
    "zip": "",
    "latitude": 40.5139784,
    "longitude": -112.0329086,
    "description": "K9 Memorial Dog Park is well-regarded by South Jordan dog owners, holding 4.5 stars across 109 reviews. Open from 7:30am to 10:30pm daily, there's room in the day for dog owners to bring their furry friends. For a change of scenery, Herriman dog park is another dog-friendly destination 1.7 miles from here."
  },
  {
    "name": "Shields Lane Park",
    "street": "Jordan River Pkwy Trl",
    "city": "South Jordan",
    "state": "UT",
    "zip": "84095",
    "latitude": 40.5457558,
    "longitude": -111.916511,
    "description": "Shields Lane Park (4.5 stars from 86 reviews) is a popular destination for South Jordan dog owners. Open from 6am to 10pm daily, there's room in the day for dog owners to bring their furry friends. More dog-friendly parks nearby include Beckstead Park (1.2 miles) and Crescent Community Park (1.3 miles)—perfect for pups who love adventure."
  },
  {
    "name": "Heights Park",
    "street": "10664 Mellow Wy",
    "city": "South Jordan",
    "state": "UT",
    "zip": "84009",
    "latitude": 40.5582382,
    "longitude": -112.0084717,
    "description": "Heights Park (4.5 stars from 78 reviews) is a popular destination for South Jordan dog owners, located at 10664 Mellow Wy. For dog owners in the area, this park has become a trusted spot for time with their pups. Nearby, Brookside Park (0.2 miles) offers dog owners another great spot to explore with their pups."
  },
  {
    "name": "Sunstone Park",
    "street": "5620 W 11800 S",
    "city": "South Jordan",
    "state": "UT",
    "zip": "84095",
    "latitude": 40.5369644,
    "longitude": -112.0630842,
    "description": "At 5620 W 11800 S in South Jordan, Sunstone Park has built a loyal following—4.5 stars from 48 dog owner reviews. Open from 5am to 10pm daily, there's plenty of opportunity for dog owners to find a time that works. Dog owners exploring the neighborhood can also bring their furry friends to K9 Memorial Dog Park (2.2 miles)."
  },
  {
    "name": "Beckstead Park",
    "street": "10760 Beckstead Ln",
    "city": "South Jordan",
    "state": "UT",
    "zip": "84095",
    "latitude": 40.5531643,
    "longitude": -111.9371909,
    "description": "Located at 10760 Beckstead Ln, Beckstead Park in South Jordan is rated 4.4 stars by 20 dog owners. Open from 5am to 10pm daily, dog owners have a window to spend time with their pups. Dog owners looking for variety can also visit West Beach Park (0.4 miles) or South Jordan City Park (0.7 miles) with their four-legged friends."
  },
  {
    "name": "Firmont Park",
    "street": "4823 Firmont Dr",
    "city": "South Jordan",
    "state": "UT",
    "zip": "84095",
    "latitude": 40.5392362,
    "longitude": -112.0058186,
    "description": "Firmont Park at 4823 Firmont Dr holds a 4.4-star rating from 71 South Jordan dog owner visits. Local dog owners use this park as a spot to spend time with their furry companions. Dog owners might also enjoy Peek-a-Boo Park, another dog park just 0.2 miles away."
  },
  {
    "name": "Vernon Worthen Park",
    "street": "300 S 400 E",
    "city": "St. George",
    "state": "UT",
    "zip": "84770",
    "latitude": 37.102956,
    "longitude": -113.574914,
    "description": "Vernon Worthen Park at 300 S 400 E is a favorite among St. George dog owners, earning 4.7 stars from 1,617 reviews. Dog owners in the area know they can count on this park for quality time with their pups. Nearby, JC Snow Park (0.8 miles) is another dog park favorite where you can take your four-legged friend."
  },
  {
    "name": "Dog Town Dog Park",
    "street": "450 S 200 E",
    "city": "St. George",
    "state": "UT",
    "zip": "84780",
    "latitude": 37.124758,
    "longitude": -113.506652,
    "description": "Located at 450 S 200 E in St. George, Dog Town Dog Park earns strong marks from local dog owners—4.6 stars from 452 reviews. Open from 6am to 10pm daily, the park works well for dog owners with different schedules. For a change of scenery, Forest Park is another dog-friendly destination 2.1 miles from here."
  },
  {
    "name": "‍ Springs Park",
    "street": "2395 E Springs Dr",
    "city": "St. George",
    "state": "UT",
    "zip": "84790",
    "latitude": 37.0868824,
    "longitude": -113.5349204,
    "description": "Located at 2395 E Springs Dr in St. George, Springs Park earns strong marks from local dog owners—4.6 stars from 152 reviews. Open from 6am to 10pm daily, dog owners can plan visits around work or their pup's energy level. Nearby, Saint James Park (1.9 miles) offers dog owners another great spot to explore with their pups."
  },
  {
    "name": "Saint James Park",
    "street": "741 St James Ln",
    "city": "St. George",
    "state": "UT",
    "zip": "84790",
    "latitude": 37.0791782,
    "longitude": -113.5687612,
    "description": "With 4.6 stars from 86 reviews, Saint James Park at 741 St James Ln has become a favorite among St. George dog owners. Dog owners frequent this park for its consistent quality and welcoming atmosphere. More dog-friendly parks nearby include JC Snow Park (1.0 miles) and Vernon Worthen Park (1.7 miles)—perfect for pups who love adventure."
  },
  {
    "name": "Black Hill View Park",
    "street": "265 S Tech Ridge Dr",
    "city": "St. George",
    "state": "UT",
    "zip": "84770",
    "latitude": 37.1034985,
    "longitude": -113.5940131,
    "description": "Black Hill View Park (4.6 stars from 76 reviews) is a popular destination for St. George dog owners, located at 265 S Tech Ridge Dr. Open from 6am to 10pm daily, the park works well for dog owners with different schedules. Dog owners exploring the neighborhood can also bring their furry friends to Vernon Worthen Park (1.1 miles)."
  },
  {
    "name": "Sun River Veterans Memorial",
    "street": "1766 Wide River Dr",
    "city": "St. George",
    "state": "UT",
    "zip": "84790",
    "latitude": 37.033616,
    "longitude": -113.620498,
    "description": "Located at 1766 Wide River Dr in St. George, Sun River Veterans Memorial earns strong marks from local dog owners—4.5 stars from 36 reviews. The steady stream of dog owner visits speaks to the park's appeal. Nearby, Saint James Park (4.2 miles) offers dog owners another great spot to explore with their pups."
  },
  {
    "name": "Forest Park",
    "street": "1030 N 1800 E",
    "city": "St. George",
    "state": "UT",
    "zip": "84770",
    "latitude": 37.1243855,
    "longitude": -113.5452852,
    "description": "With 4.5 stars from 101 reviews, Forest Park at 1030 N 1800 E has become a favorite among St. George dog owners. Open from 6am to 10pm daily, the park offers flexibility for dog owners with varying routines. Other dog parks in the area include Dog Town Dog Park (2.1 miles) and Vernon Worthen Park (2.2 miles)—both great for exploring with your four-legged friend."
  },
  {
    "name": "Firehouse Park",
    "street": "1917 W 1800 N",
    "city": "St. George",
    "state": "UT",
    "zip": "84770",
    "latitude": 37.13937,
    "longitude": -113.6256544,
    "description": "Firehouse Park at 1917 W 1800 N is well-regarded by St. George dog owners, holding 4.5 stars across 385 reviews. Open from 6am to 10pm daily, dog owners have plenty of flexibility to plan a visit. For a change of scenery, Sunset Park is another dog-friendly destination 1.7 miles from here."
  },
  {
    "name": "Sunset Park",
    "street": "495 Westridge Dr",
    "city": "St. George",
    "state": "UT",
    "zip": "84770",
    "latitude": 37.1170375,
    "longitude": -113.6143586,
    "description": "Sunset Park at 495 Westridge Dr in St. George has 4.4 stars from 75 dog owner reviews. Open from 6am to 10pm daily, dog owners in the area can work a visit into their day. Looking to explore more? Black Hill View Park is another dog-friendly park 1.5 miles from here."
  },
  {
    "name": "JC Snow Park",
    "street": "275 E 900 S",
    "city": "St. George",
    "state": "UT",
    "zip": "84770",
    "latitude": 37.0920935,
    "longitude": -113.5768591,
    "description": "Located at 275 E 900 S, JC Snow Park in St. George is rated 4.4 stars by 303 dog owners. Open from 6am to 10pm daily, dog owners have flexibility to plan a visit with their four-legged friends. For dog owners who like to explore, Vernon Worthen Park (0.8 miles) and Saint James Park (1.0 miles) are both nearby parks to try with your dog."
  },
  {
    "name": "Hurricane Dog Park",
    "street": "320 N 750Hurricane",
    "city": "St. George",
    "state": "UT",
    "zip": "84737",
    "latitude": 37.187136,
    "longitude": -113.3313941,
    "description": "For dog owners in St. George, Hurricane Dog Park at 320 N 750 has a 4.3-star rating (128 reviews). Open from 8am to 10pm daily, dog owners have a window to spend time with their pups. Dog owners new to the area may find the visitor reviews useful for learning about this park."
  },
  {
    "name": "Herriman dog park",
    "street": "5105 Herriman Main StHerriman",
    "city": "West Jordan",
    "state": "UT",
    "zip": "84096",
    "latitude": 40.5360436,
    "longitude": -112.0185135,
    "description": "Herriman dog park at 5105 Herriman Main St is well-regarded by West Jordan dog owners, holding 4.8 stars across 34 reviews. The steady stream of dog owner visits speaks to the park's appeal. More dog-friendly parks nearby include Peek-a-Boo Park (0.5 miles) and Firmont Park (0.7 miles)—perfect for pups who love adventure."
  },
  {
    "name": "Country Crossing Park",
    "street": "4288 Harvest Moon DrSouth Jordan",
    "city": "West Jordan",
    "state": "UT",
    "zip": "84095",
    "latitude": 40.5388956,
    "longitude": -111.9932658,
    "description": "Country Crossing Park at 4288 Harvest Moon Dr is well-regarded by West Jordan dog owners, holding 4.8 stars across 14 reviews. Local dog owners appreciate what this park offers their four-legged friends. Dog owners can also take their pups to nearby Founders' Park (0.4 miles) or Hillside Park (0.4 miles)."
  },
  {
    "name": "‍ Veterans Memorial Park",
    "street": "1985 W 7800 S",
    "city": "West Jordan",
    "state": "UT",
    "zip": "84088",
    "latitude": 40.6094516,
    "longitude": -111.9570971,
    "description": "With 4.7 stars across 3,192 reviews, Veterans Memorial Park at 1985 W 7800 S has clearly won over West Jordan dog owners. Open from 6am to 11pm daily, the park accommodates a variety of dog owner schedules and routines. Nearby, Harvest Estates Park (0.8 miles) is another dog park favorite where you can take your four-legged friend."
  },
  {
    "name": "Veterans Memorial Park",
    "street": "2200 W",
    "city": "West Jordan",
    "state": "UT",
    "zip": "84088",
    "latitude": 40.5823288,
    "longitude": -111.9482432,
    "description": "Veterans Memorial Park (4.7 stars from 303 reviews) is a popular destination for West Jordan dog owners, located at 2200 W. Open from 7am to 10pm daily, the park accommodates early risers and evening visitors alike. Looking for more places to take your pup? Jordan Ridge Park is another popular dog park just 0.4 miles away."
  },
  {
    "name": "Harvest Estates Park",
    "street": "6255 S 2300 W",
    "city": "West Jordan",
    "state": "UT",
    "zip": "84084",
    "latitude": 40.6196374,
    "longitude": -111.9499379,
    "description": "Harvest Estates Park (4.6 stars from 49 reviews) is a popular destination for West Jordan dog owners, located at 6255 S 2300 W. Open from 7am to 10pm daily, the park offers flexibility for dog owners with varying routines. For a change of scenery, Veterans Memorial Park is another dog-friendly destination 0.8 miles from here."
  },
  {
    "name": "Maples Park",
    "street": "7498 Valley Maple Dr",
    "city": "West Jordan",
    "state": "UT",
    "zip": "84081",
    "latitude": 40.6146983,
    "longitude": -112.0509506,
    "description": "Maples Park at 7498 Valley Maple Dr holds a 4.3-star rating from 32 West Jordan dog owner visits. Open from 8am to 10pm daily, dog owners can stop by when it fits their schedule. More dog parks in the area include West Jordan Off-Leash Dog Park (2.1 miles) and Barney's Creek Park (2.5 miles)—great options for mixing up your pup's routine."
  },
  {
    "name": "‍ Grant Park",
    "street": "6150 S Main StMurray",
    "city": "West Jordan",
    "state": "UT",
    "zip": "84107",
    "latitude": 40.6789455,
    "longitude": -111.8912508,
    "description": "At 6150 S Main St, Grant Park has 4.4 stars based on 133 reviews from West Jordan dog owners. Open from 7am to 10pm daily, local dog owners have time to explore with their furry companions. Nearby dog parks worth exploring with your pup include Woodstock Meadows Park (0.9 miles) and Murray Park (1.4 miles)."
  },
  {
    "name": "Barney's Creek Park",
    "street": "4800 W 8030 S",
    "city": "West Jordan",
    "state": "UT",
    "zip": "84081",
    "latitude": 40.6021725,
    "longitude": -112.0052984,
    "description": "Barney's Creek Park at 4800 W 8030 S holds a 4.3-star rating from 69 West Jordan dog owner visits. Open from 7am to 10pm daily, the park fits conveniently into different routines. For dog owners who like to explore, West Jordan Off-Leash Dog Park (2.4 miles) and Maples Park (2.5 miles) are both nearby parks to try with your dog."
  },
  {
    "name": "Terrace Ridge Park",
    "street": "Zeus Dr",
    "city": "West Valley City",
    "state": "UT",
    "zip": "84128",
    "latitude": 40.679724,
    "longitude": -112.0407849,
    "description": "103 dog owners have reviewed Terrace Ridge Park in West Valley City, averaging 4.4 stars. For dog owners in the neighborhood, this park offers a place to take their pups. Dog owners looking for variety can also visit Fassio Farm Park (1.5 miles) or Pleasant Green Park (2.8 miles) with their four-legged friends."
  },
  {
    "name": "Redwood Nature Area",
    "street": "2632 Hempstead St",
    "city": "West Valley City",
    "state": "UT",
    "zip": "84119",
    "latitude": 40.7139014,
    "longitude": -111.9279744,
    "description": "Located at 2632 Hempstead St in West Valley City, Redwood Nature Area earns strong marks from local dog owners—4.5 stars from 12 reviews. Open from 6am to 11pm daily, dog owners can easily fit a visit into busy schedules. Nearby, Decker Lake Park (1.4 miles) offers dog owners another great spot to explore with their pups."
  },
  {
    "name": "Ironwood Park",
    "street": "",
    "city": "West Valley City",
    "state": "UT",
    "zip": "",
    "latitude": 40.6967891,
    "longitude": -111.9866954,
    "description": "For dog owners in West Valley City, Ironwood Park has a 4.4-star rating (16 reviews). The park gives neighborhood dog owners a destination for outings with their four-legged friends. More dog parks in the area include Hillsdale Park (1.0 miles) and Fairbourne Station Promenade (1.4 miles)—great options for mixing up your pup's routine."
  },
  {
    "name": "Fairbourne Station Promenade",
    "street": "3590 Market St",
    "city": "West Valley City",
    "state": "UT",
    "zip": "84119",
    "latitude": 40.6957739,
    "longitude": -111.9603478,
    "description": "Fairbourne Station Promenade at 3590 Market St holds a 4.2-star rating from 110 West Valley City dog owner visits. Open from 6am to 11pm daily, dog owners have flexibility to plan a visit with their four-legged friends. For dog owners who like to explore, Hillsdale Park (0.5 miles) and Decker Lake Park (1.2 miles) are both nearby parks to try with your dog."
  },
  {
    "name": "Pleasant Green Park",
    "street": "3250 S 8400 WMagna",
    "city": "West Valley City",
    "state": "UT",
    "zip": "84044",
    "latitude": 40.6911937,
    "longitude": -112.0917632,
    "description": "Pleasant Green Park at 3250 S 8400 W in West Valley City has 4.1 stars from 257 dog owner reviews. Open from 5am to 11pm daily, dog owners have a window to spend time with their pups. More dog parks in the area include Terrace Ridge Park (2.8 miles) and Fassio Farm Park (4.0 miles)—great options for mixing up your pup's routine."
  },
  {
    "name": "Fassio Farm Park",
    "street": "Fassio Farm Park",
    "city": "West Valley City",
    "state": "UT",
    "zip": "84120",
    "latitude": 40.6913147,
    "longitude": -112.0157572,
    "description": "Dog owners in the West Valley City area will find Fassio Farm Park—a local option for spending time with their pups. Local dog owners use this park as a spot to spend time with their furry companions. For dog owners who like to explore, Terrace Ridge Park (1.5 miles) and Ironwood Park (1.6 miles) are both nearby parks to try with your dog."
  },
  {
    "name": "Decker Lake Park",
    "street": "2300 Parkway Blvd",
    "city": "West Valley City",
    "state": "UT",
    "zip": "84119",
    "latitude": 40.712313,
    "longitude": -111.954034,
    "description": "Decker Lake Park (2300 Parkway Blvd) serves dog owners in the West Valley City neighborhood looking for a place to visit with their pups. Open from 6am to 9pm daily, dog owners can stop by when it fits their schedule. Dog owners in the neighborhood can also take their furry friends to Hillsdale Park, 1.1 miles away."
  }
]