[
  {
    "name": "Cacapon State Park",
    "street": "WV-9",
    "city": "Berkeley Springs",
    "state": "WV",
    "zip": "25411",
    "latitude": 39.6236991,
    "longitude": -78.2291552,
    "description": "Cacapon State Park is well-regarded by Berkeley Springs dog owners, holding 4.8 stars across 49 reviews. Dog owners in the area consistently choose this park as a go-to destination for their pups. The positive feedback from local dog owners speaks to the park's consistent quality."
  },
  {
    "name": "The TailYard",
    "street": "617 Raleigh St",
    "city": "Bluefield",
    "state": "WV",
    "zip": "24701",
    "latitude": 37.2693588,
    "longitude": -81.2214428,
    "description": "The TailYard at 617 Raleigh St in Bluefield has 4.4 stars from 51 dog owner reviews. The neighborhood benefits from having this park as an option for dog owners and their pups. The reviews from fellow dog owners offer helpful insights about this park."
  },
  {
    "name": "Pringle Tree Park",
    "street": "Pringle Tree Park Rd",
    "city": "Buckhannon",
    "state": "WV",
    "zip": "26201",
    "latitude": 39.0193091,
    "longitude": -80.206727,
    "description": "Buckhannon dog owners rate Pringle Tree Park highly, with 4.7 stars from 59 visits. Open from 6am to 9pm daily, the park accommodates early risers and evening visitors alike. Looking for more places to take your pup? Buckhannon Dog Park is another popular dog park just 2.2 miles away."
  },
  {
    "name": "Buckhannon River Walk Trail",
    "street": "21 Camden Ave",
    "city": "Buckhannon",
    "state": "WV",
    "zip": "26201",
    "latitude": 38.987531,
    "longitude": -80.2173549,
    "description": "Buckhannon River Walk Trail (4.5 stars from 152 reviews) is a popular destination for Buckhannon dog owners, located at 21 Camden Ave. The park serves dog owners well, providing a destination the community values. Looking for more places to take your pup? Buckhannon Dog Park is another popular dog park just 0.9 miles away."
  },
  {
    "name": "Upshur County Recreation Park",
    "street": "",
    "city": "Buckhannon",
    "state": "WV",
    "zip": "",
    "latitude": 38.9939426,
    "longitude": -80.2322698,
    "description": "Dog owners in Buckhannon have rated Upshur County Recreation Park 4.4 stars across 34 reviews. Dog owners looking for a local destination will find this park accessible. For pups who want more adventure, Buckhannon Dog Park is a nearby dog park worth visiting (0.0 miles)."
  },
  {
    "name": "Clarksburg Dog Park",
    "street": "100 Freedom Way",
    "city": "Chesapeake",
    "state": "WV",
    "zip": "26301",
    "latitude": 39.2681105,
    "longitude": -80.3620082,
    "description": "With 4.6 stars from 43 reviews, Clarksburg Dog Park at 100 Freedom Way has become a favorite among Chesapeake dog owners. Dog owners frequent this park for its consistent quality and welcoming atmosphere. The steady stream of positive reviews suggests dog owners consistently have good experiences here."
  },
  {
    "name": "‍ Buckhannon Dog Park",
    "street": "",
    "city": "Chesapeake",
    "state": "WV",
    "zip": "",
    "latitude": 38.9939426,
    "longitude": -80.2322698,
    "description": "Buckhannon Dog Park (4.5 stars from 108 reviews) is a popular destination for Chesapeake dog owners. Dog owners frequent this park for its consistent quality and welcoming atmosphere. Dog owners can also take their pups to nearby Upshur County Recreation Park (0.0 miles) or Buckhannon River Walk Trail (0.9 miles)."
  },
  {
    "name": "FIDO's Backyard",
    "street": "City View Terrace",
    "city": "Chesapeake",
    "state": "WV",
    "zip": "26554",
    "latitude": 39.4708893,
    "longitude": -80.1299744,
    "description": "In Chesapeake, FIDO's Backyard has built a loyal following—4.5 stars from 92 dog owner reviews. Open from 6am to 9:30pm daily, there's plenty of opportunity for dog owners to find a time that works. The consistent ratings suggest dog owners know what to expect here."
  },
  {
    "name": "Krepps Dog Park",
    "street": "1235 Parkview Dr",
    "city": "Chesapeake",
    "state": "WV",
    "zip": "26505",
    "latitude": 39.6510452,
    "longitude": -79.977301,
    "description": "At 1235 Parkview Dr in Chesapeake, Krepps Dog Park carries 4.3 stars from 131 dog owner reviews. Open from 6am to 9pm daily, dog owners in the area can work a visit into their day. Looking to explore more? Stanley's Spot Dog Park is another dog-friendly park 1.8 miles from here."
  },
  {
    "name": "Stanley's Spot Dog Park",
    "street": "Deckers Creek Trail",
    "city": "Chesapeake",
    "state": "WV",
    "zip": "26501",
    "latitude": 39.6285727,
    "longitude": -79.9602266,
    "description": "In Chesapeake, Stanley's Spot Dog Park carries 4.2 stars from 157 dog owner reviews. The neighborhood benefits from having this park as an option for dog owners and their pups. Dog owners might also enjoy Krepps Dog Park, another dog park just 1.8 miles away."
  },
  {
    "name": "Ruth Rafferty Peyton Dog Park",
    "street": "1596 Washington St ECharleston",
    "city": "Chesapeake",
    "state": "WV",
    "zip": "25311",
    "latitude": 38.3406383,
    "longitude": -81.616727,
    "description": "Located at 1596 Washington St E, Ruth Rafferty Peyton Dog Park in Chesapeake is rated 4.1 stars by 128 dog owners. For dog owners in the neighborhood, this park offers a place to take their pups. Reading what other dog owners have experienced here can help with planning a visit."
  },
  {
    "name": "‍ Huntington PetSafe Dog Park",
    "street": "12th St",
    "city": "Huntington",
    "state": "WV",
    "zip": "25701",
    "latitude": 38.4189583,
    "longitude": -82.4379316,
    "description": "Huntington PetSafe Dog Park (4.5 stars from 68 reviews) is a popular destination for Huntington dog owners, located at 12th St. For dog owners in the area, this park has become a trusted spot for time with their pups. The consistent ratings suggest dog owners know what to expect here."
  },
  {
    "name": "Oak Hill Dog Park",
    "street": "235 Central Ave",
    "city": "Oak Hill",
    "state": "WV",
    "zip": "25901",
    "latitude": 37.9746539,
    "longitude": -81.1477986,
    "description": "Oak Hill Dog Park (4.6 stars from 16 reviews) is a popular destination for Oak Hill dog owners, located at 235 Central Ave. The park serves dog owners well, providing a destination the community values. The positive feedback from local dog owners speaks to the park's consistent quality."
  }
]