[
  {"name":"Dog Park at Capital Springs Recreation Area","street":"3398 Lake Farm Rd","city":"Madison","state":"WI","zip":"53711","latitude":43.0268428,"longitude":-89.3485262,"description":"Bring Fido to blow off some steam at the dog park at Capital Springs Recreation Area in Madison, WI.  This fenced off-leash pup recreation space features separate sections for small and large dogs, trees and trails. An annual park permit or a small daily fee is required.","bringfido_id":"11136"},
  {"name":"Granville Dog Park","street":"11745 Fond du Lac Ave","city":"Milwaukee","state":"WI","zip":"53224","latitude":43.1506249,"longitude":-88.0580315,"description":"Granville Dog Park in Milwaukee, WI is a fee-based park. With the purchase of a day pass or annual membership, Fido can explore this expansive park which features grassy hills, wooded areas and narrow walking trails along the Menomonee River. Unlike many off-leash areas, Granville Dog Park does not have wide open spaces for Fido to run around in clear sight of his owner.","bringfido_id":"1589"},
  {"name":"Kaukauna Dog Park","street":"366 Farmland Ct","city":"Kaukauna","state":"WI","zip":"54130","latitude":44.3027764,"longitude":-88.2437066,"description":"The 13-acre Kaukauna Dog Park, located in Kaukauna, WI, contains three separate grassy areas. There is a fenced-in small dog area, a very large fenced-in area for all dogs and a fenced-in pond where dogs can swim. You can also check out the walking trail around the perimeter of the pond, which includes two bridges built by local Boy Scouts. The park is well-lit after dark and there are soda machines available for thirsty dog owners.","bringfido_id":"294"},
  {"name":"Dog Park at Prairie Moraine County Park","street":"6679 Wesner Ln","city":"Verona","state":"WI","zip":"53593","latitude":42.9624095,"longitude":-89.5179244,"description":"Bring Fido to the dog park at Prairie Moraine County Park in Verona, WI. This 79-acre off-leash pup recreation area is known for being the best in the surrounding area, as it features tons of trails, grassy meadows with big hills, prairie grass, beautiful wildflowers and open space for your pup to run and explore. There are disposal bags, benches and picnic tables available for humans. A permit is required.","bringfido_id":"10962"},
  {"name":"White River Dog Park","street":"600 Waverly St","city":"Lake Geneva","state":"WI","zip":"53147","latitude":42.5946199,"longitude":-88.4300187,"description":"Bring Fido to expend his energy with friends at White River Dog Park in Lake Geneva, WI. The park is located behind Eastview Elementary School and opposite Lake Geneva Skatepark. The dog park is fully fenced and features water fountains for both humans and dogs, a bone shaped bench, shaded areas and pet waste stations.","bringfido_id":"19388"},
  {"name":"Room to Roam Dog Park of Rome","street":"1351 Apache Ave","city":"Nekoosa","state":"WI","zip":"54457","latitude":44.1987464,"longitude":-89.8308057,"description":"Fido is invited to play at Room To Roam Dog Park of Rome in Nekoosa, WI. Dogs of all sizes are welcome to play in this 9.8-acre space. Amenities include a walking path, benches, water and waste stations, and agility equipment.","bringfido_id":"10725"},
  {"name":"Minooka Dog Park","street":"1927 E Sunset Dr","city":"Waukesha","state":"WI","zip":"53189","latitude":42.9788701,"longitude":-88.1956261,"description":"Bring Fido to Minooka Dog Park, a large 19-acre off-leash park in Waukesha, WI. This fenced park has two separate enclosed areas for large and small breeds. There is no water on site, so owners should bring water and a bowl for Fido. Please note that this park can become muddy after periods of wet weather.","bringfido_id":"12237"},
  {"name":"The Boneyard","street":"1018 Walsh Rd","city":"Madison","state":"WI","zip":"53714","latitude":43.112771,"longitude":-89.310317,"description":"The Boneyard in Madison, WI, is a dog park with the joys of a biergarten, featuring on-and-off-leash recreation for dogs and humans to enjoy together. While you hang out, the Boneyard's \"Barktenders\" will pull you a pint from 16 taps that include beer, coffee, wine and more. A day pass or annual membership is required. Dog owners must sign an electronic waiver on the website before bringing Fido to the beer garden.","bringfido_id":"25496"},
  {"name":"Tails & Trails Off-Leash Dog Park","street":"E1595 County Rd Q","city":"Waupaca","state":"WI","zip":"54981","latitude":44.3307488,"longitude":-89.1514477,"description":"Dogs can enjoy off-leash play with paid admission at the Tails & Trails Off-Leash Dog Park in Waupaca, WI. The park offers walking trails and a large swimming pond. Annual memberships and day passes are available.","bringfido_id":"14856"},
  {"name":"The Hounds & Tap","street":"W175N5645 Technology Dr","city":"Menomonee Falls","state":"WI","zip":"53051","latitude":43.1197442,"longitude":-88.1318117,"description":"With a daily or monthly dog membership, dogs can play year-round in an off-leash, 2,500 sq ft. indoor or 5,500 sq ft outdoor dog park while you relax with friends, drink with your furry friend, watch the game, relax and meet other dog lovers. There are separate large and small dog areas for playing. Pups can get their sniff on in the exclusive K9Grass area or romp on the play equipment. Doggie pools available during the summer. Beer, wine, fun cocktails, water and soda are available for the humans.","bringfido_id":"25099"},
  {"name":"Shiloh Road Bark Park","street":"1660 Shiloh Rd","city":"Sturgeon Bay","state":"WI","zip":"54235","latitude":44.8061814,"longitude":-87.3772019,"description":"Bring Fido to the Shiloh Road Bark Park in Sturgeon Bay, WI, which features separate areas for large and small dogs and benches for humans.","bringfido_id":"12964"},
  {"name":"Chippewa Falls HappyTails Dog Park","street":"841 Chippewa Xing Blvd","city":"Chippewa Falls","state":"WI","zip":"54729","latitude":44.9369054,"longitude":-91.3929348,"description":"Fido is invited to play at Chippewa Falls HappyTails Dog Park in Wisconsin. The off-leash facility has over 53 acres with three different sections for dogs of all sizes. Amenities include a watering hole, benches with shade and pathways surrounding the area. The park is maintained and run by volunteers who operate on donations.","bringfido_id":"9651"},
  {"name":"McFarland Dog Park","street":"6300 Elvehjem Rd","city":"McFarland","state":"WI","zip":"53558","latitude":43.004977,"longitude":-89.2733753,"description":"Bring Fido to McFarland Dog Park, an off-leash fenced space in McFarland, WI. The park features an enclosed shelter, a heated, indoor washing station, a seasonal outdoor washing station, restrooms, and plenty of shade from mature trees. Your dog must be licensed, and a permit is required, which to use the park.","bringfido_id":"30713"},
  {"name":"Brown County Dog Park","street":"1000 Pleasant Ln","city":"Hobart","state":"WI","zip":"54301","latitude":44.5244922,"longitude":-88.1343313,"description":"Brown County Dog Park is a great place for Fido run and play off leash in Hobart, WI. It's fully fenced with and grass covered with dirt patches, wooded areas, and water access. The park features separate spaces for large and small dogs, as well as one combined. Amenities include trails, a creek, agility obstacles, handicap access, benches, water fountains, waste stations, and restrooms nearby. Park passes are required. Dog owners may walk their dogs on-leash through the rest of the park.","bringfido_id":"3864"},
  {"name":"Shepard Dog Park","street":"808-844 Boyce Dr","city":"Rhinelander","state":"WI","zip":"54501","latitude":45.6301204,"longitude":-89.4242659,"description":"Dogs love playing off-leash at Shepard Dog Park in Rhinelander, WI. The fenced-in area is great for bringing your pup to socialize and exercise. Two separate sections for small and large dogs include waste and water stations, toy boxes and benches. There is also a walking path within the park that is shaded by large evergreen trees.","bringfido_id":"14898"},
  {"name":"Three Lakes Dog Park","street":"1921 Epler Ct","city":"Three Lakes","state":"WI","zip":"54562","latitude":45.7983817,"longitude":-89.1789118,"description":"Three Lakes Dog Park in Three Lakes, WI, is 2 acres is size and has separate areas for small and large dogs. Dogs must be vaccinated to use the park. Visitors will find running water during the warmer months, restrooms, a dog wash area, a pavilion, and dog waste stations.","bringfido_id":"25619"},
  {"name":"Auggie Land","street":"871 24 1/2 St","city":"Chetek","state":"WI","zip":"54728","latitude":45.332615,"longitude":-91.6558916,"description":"Bring Fido to blow off some steam at the Auggie Land dog park in Chetek, WI. This pup recreation space features separate sections for small and large dogs, plenty of space to run, agility equipment, a pavilion and a dog wash.","bringfido_id":"33802"},
  {"name":"Terri Tinsley Dog Exercise Area","street":"W5098 Canine Dr","city":"Johnson Creek","state":"WI","zip":"53038","latitude":43.065815,"longitude":-88.777857,"description":"Fido is invited to play at Terri Tinsley Dog Exercise Area, off Highway 26, in Johnson Creek, WI. The park is 109 acres and has two large and small dog areas. A daily permit or annual tag is required to entire the off-leash facility. Please refer to their website on how to become a member.","bringfido_id":"9585"},
  {"name":"Viking County Park Dog Park","street":"1582 County Hwy N","city":"Stoughton","state":"WI","zip":"53589","latitude":42.9334288,"longitude":-89.2025772,"description":"Your pet will go wild for the fenced-in and off-leash dog park at Viking County Park in Stoughton, WI, which includes a dock and beach where your pet can go for a dip, as well as paths and picnic tables.","bringfido_id":"3703"},
  {"name":"Northland Dog Park","street":"2830 French Rd","city":"Appleton","state":"WI","zip":"54911","latitude":44.28783,"longitude":-88.351493,"description":"Fido is invited to play at Northland Dog Park in Appleton, WI. This fenced off-leash facility provides three separate sections, including a wooded 12 acres with walking trails and a small and large dog area. Waste stations are offered on-site, but it's encouraged to bring your own along with water for your pup.","bringfido_id":"3863"},
  {"name":"Platteville Community Dog Park","street":"946 Valley Rd","city":"Platteville","state":"WI","zip":"53818","latitude":42.7323588,"longitude":-90.4648979,"description":"Nestled against the Rountree Branch stream in Platteville, WI, the five-acre Platteville Community Dog Park provides a safe and spacious area for dogs to frolic and play. It's a fenced-in off-leash area, with separate sections for small and large dogs, a wooded walking path, poop disposal stations, picnic tables, parking and a porta-potty.","bringfido_id":"3866"},
  {"name":"Waupaca County Dog Park","street":"601 Lakeside Pkwy","city":"Waupaca","state":"WI","zip":"54981","latitude":44.3455096,"longitude":-89.0965865,"description":"Shade trees, benches, picnic tables, and agility equipment are amenities of the Waupaca County Dog Park. This two-acre fenced-in recreation space is a local favorite among the Waupaca, WI, community.","bringfido_id":"3758"},
  {"name":"Dog Park at Yahara Heights County Park","street":"5488 Catfish Ct","city":"Waunakee","state":"WI","zip":"53597","latitude":43.1546004,"longitude":-89.40536,"description":"Dogs can play off leash in the 20-acre dog park at Yahara Heights County Park in Waunakee, WI, which features ample grassy space and water for Fido to dip his paws into. Please note dog permits are required.","bringfido_id":"3856"},
  {"name":"Tails n Trails Dog Park","street":"862 W High St","city":"Milton","state":"WI","zip":"53563","latitude":42.7735835,"longitude":-88.9666275,"description":"Fido is invited to play at the Tails n Trails Dog Park in Milton, WI. This off-leash facility has two separate areas for small and large dogs. Amenities include water, a walking trail and off-street parking.","bringfido_id":"3010"},
  {"name":"Burlington Dog Park","street":"480 S Calumet St","city":"Burlington","state":"WI","zip":"53105","latitude":42.669813,"longitude":-88.2671306,"description":"Fido is invited to play at Burlington Dog Park in Wisconsin. Dogs of all sizes are welcome to join for socialization. Amenities include chairs along with a waste and water station.","bringfido_id":"14463"},
  {"name":"Merrill Dog Park at the MARC","street":"1100 Marc Dr","city":"Merrill","state":"WI","zip":"54452","latitude":45.1915025,"longitude":-89.7259475,"description":"Fido is invited to play at the Merrill Dog Park at the MARC in Wisconsin. The off-leash area is 2.5 acres and features a separate section for small dogs. If the park is busy, they have pathways connecting to Council Grounds State Park.","bringfido_id":"11302"},
  {"name":"Laura & Peter Mossakowski Family Dog Park","street":"2282 Bellevue St","city":"Bellevue","state":"WI","zip":"54311","latitude":44.460631,"longitude":-88.011728,"description":"Fido will love playing at the Laura & Peter Mossakowski Family Dog Park in Bellevue, WI. This 6.5-acre recreation space is a place where furry friends have a place to run, roll around in the mud, meet new four-legged friends and even catch a ball or a Frisbee. Note that permits are required to use this dog park.","bringfido_id":"15106"},
  {"name":"Paws & Play Dog Park","street":"E 21st St & S Peach Ave","city":"Marshfield","state":"WI","zip":"54449","latitude":44.6493446,"longitude":-90.1722062,"description":"Paws & Play Dog Park is a 4.5-acre fenced-in area in Marshfield, WI. The park is relied on donations and has two separate areas for small and large dogs. Amenities include waste stations, picnic tables and water during the warmer months.","bringfido_id":"13964"},
  {"name":"Off-Leash Dog Area at Mead Park","street":"1201 W Whitney St","city":"Stevens Point","state":"WI","zip":"54481","latitude":44.5217524,"longitude":-89.5931195,"description":"Fido is invited to play at the off-leash dog area at Mead Park in Stevens Point, WI. The beach opens 30 minutes before sunrise, and your furry friend can play until 11:00 PM daily. Owners must be within the fenced-in area with a leash readily available while watching their pup. Park users without an animal may also use this beach.","bringfido_id":"22970"},
  {"name":"Hudson Dog Park","street":"908 Carmichael Rd","city":"Hudson","state":"WI","zip":"54016","latitude":44.9789803,"longitude":-92.7217686,"description":"Bring Fido to blow off some steam at the Hudson Dog Park in Hudson, WI. This two-acre pup recreation area is fully fenced and has waste bags on site. All dogs must be licensed in the municipality where the owner and pet reside.","bringfido_id":"14974"},
  {"name":"The City of Superior Dog Park","street":"N 28th St","city":"Superior","state":"WI","zip":"54880","latitude":46.7050166,"longitude":-92.1236832,"description":"Fido is invited to play at The City of Superior Dog Park near the Millennium Trailhead in Wisconsin. This off-leash area has a two-way entrance and various trees spread throughout for shade. Amenities also include benches and waste stations.","bringfido_id":"18607"},
  {"name":"Bark & Brew","street":"2514 Glendale Ave","city":"Howard","state":"WI","zip":"54313","latitude":44.5644788,"longitude":-88.0799234,"description":"Bark & Brew is a pet-friendly spot in Howard, WI. The first of its kind, this off-leash, indoor/outdoor, climate-controlled establishment has a dog menu and delicious beverages for humans. Though they do not sell human food, you can bring in your own or have it delivered from your favorite takeout spot!","bringfido_id":"20044"},
  {"name":"Sister Bay Dog Park","street":"2124 Autumn Ct","city":"Sister Bay","state":"WI","zip":"54234","latitude":45.18901,"longitude":-87.1101437,"description":"If Fido needs a place to stretch his legs, bring him for a romp at the Sister Bay Dog Park in Sister Bay, WI. Entirely fenced in and equipped with picnic tables and mutt mitts, the park is open year-round, from dawn until dusk, and is free to the public.","bringfido_id":"11793"},
  {"name":"River Falls Dog Park","street":"W10225 County Rd FF","city":"River Falls","state":"WI","zip":"54022","latitude":44.8323622,"longitude":-92.6482193,"description":"Bring your pup to socialize and get some exercise at the River Falls Dog Park in River Falls, WI. This 16-acre fenced off-leash pup recreation area features separate sections for small and large dogs, picnic tables, benches and dog waste stations. No running water is available, so make sure to bring some for Fido! There is plenty of parking on site.","bringfido_id":"16422"},
  {"name":"Point Dog Park","street":"601 Mason St","city":"Stevens Point","state":"WI","zip":"54481","latitude":44.5096973,"longitude":-89.5810604,"description":"Fido is invited to play at Point Dog Park in Stevens Point, WI. The off-leash facility contains two separate sections that are approximately 30 acres. Amenities include trails, wooded areas, benches and waste stations.","bringfido_id":"12769"},
  {"name":"Spring Green Dog Park","street":"S12947 Shifflet Rd","city":"Spring Green","state":"WI","zip":"53588","latitude":43.1738239,"longitude":-90.081069,"description":"Bring Fido to blow off some steam at the Spring Green Dog Park in Spring Green, WI. This off-leash pup recreation area features separate sections for small and large dogs, and is a great place to bring your pooch to play, have fun and make some new friends. Dog owners are reminded to keep an eye on their pup as they play and to clean up any mess that they leave behind.","bringfido_id":"19681"},
  {"name":"Florence Bark Park","street":"5628 Forestry Dr","city":"Florence","state":"WI","zip":"54121","latitude":45.9224395,"longitude":-88.2639785,"description":"Bring your pup to the Florence Bark Park, a one-acre fenced-in off-leash dog park in Florence, WI. There are benches for humans and plenty of space for your pup to run, socialize and get some exercise.","bringfido_id":"13026"},
  {"name":"Webster Community Dog Park","street":"27383 Hwy 35 N","city":"Webster","state":"WI","zip":"54893","latitude":45.8676535,"longitude":-92.3647619,"description":"Fido is invited to play at the Webster Community Dog Park in Wisconsin. This off-leash facility has two separate sections for small and large dogs and a training area. Amenities include waste stations and double-gated entrances for safety.","bringfido_id":"13701"},
  {"name":"Viroqua Bark Park","street":"700 Power Dr","city":"Viroqua","state":"WI","zip":"54665","latitude":43.5717494,"longitude":-90.8797659,"description":"Fido is invited to play at Viroqua Bark Park in Wisconsin. The off-leash facility is separated into two sections for large and small dogs. Amenities include solar lights, picnic tables and benches. Please note there is no water source in this park, so pack some for your pup.","bringfido_id":"18181"},
  {"name":"Marvin & Marie Schweer's Dog Park","street":"700 Stevenson St","city":"De Forest","state":"WI","zip":"53532","latitude":43.2600591,"longitude":-89.3381002,"description":"Marvin & Marie Schweer's Dog Park is an off-leash recreation space in DeForest, WI. The park ensures pups play safely and comfortably with two separate fenced-in areas for large and small dogs. The park is free for residents, but visitors may pay a one-time or annual fee to let Fido play.","bringfido_id":"22710"},
  {"name":"Dog Exercise Area at Standing Rocks Park","street":"7695 Standing Rocks Rd","city":"Stevens Point","state":"WI","zip":"54481","latitude":44.4309716,"longitude":-89.402045,"description":"If a member, Fido is welcome to play at the dog exercise area at Standing Rocks Park in Stevens Point, WI. Your pup will go wild for the chance to run and play off-leash on the 32 fenced-in acres. Please refer to their website on how to become a member.","bringfido_id":"3541"},
  {"name":"Bark & Brew","street":"2514 Glendale Ave","city":"Green Bay","state":"WI","zip":"54313","latitude":44.5646097,"longitude":-88.0799983,"description":"The pet-friendly Bark & Brew in Green Bay, WI, is the state's first dog bar, featuring off-leash indoor fun and a spacious fenced outdoor area for pups. Humans 21 and up can enjoy over 70 craft beers, cocktails, wine, and more, while Dog Butlers keep tails wagging with playtime, fresh water, and treats from the Bone Bar.","bringfido_id":"41907"},
  {"name":"West Bend Dog Park","street":"1150 S 18th Ave","city":"West Bend","state":"WI","zip":"53095","latitude":43.3898599,"longitude":-88.2008558,"description":"If a member, Fido is invited to play at West Bend Dog Park in Wisconsin. Your leashed furry friend will love exploring 10 acres that is completely fenced in. Amenities include ample parking, waste stations, hiking trails, benches and trees. Please note you must pack your own water.","bringfido_id":"9569"},
  {"name":"Estabrook Dog Park","street":"Estabrook Pkwy","city":"Milwaukee","state":"WI","zip":"53217","latitude":43.0993909,"longitude":-87.9052973,"description":"Estabrook Dog Park in Milwaukee, WI is a fee-based park. With purchase of a day pass or annual membership, Fido can explore Estabrook Dog Park and enjoy playing off leash with his friends. The park is situated within Estabrook Park and sits alongside the Oak Leaf Trail. This 3-acre park has a separate area for small dogs, and the ground is a mixture of grass and wood chips.","bringfido_id":"905"},
  {"name":"Nashotah Dog Park","street":"W330 N5113 County Trunk Hwy C","city":"Nashotah","state":"WI","zip":"53058","latitude":43.103051,"longitude":-88.411467,"description":"Fido is invited to play at Nashotah Dog Park in Wisconsin. The off-leash section is separated for large and small breeds. Each area contains walking trails and watering stations for your pup.","bringfido_id":"3068"},
  {"name":"Mukwonago Dog Exercise Park","street":"W325 S9925 Beulah Rd","city":"Mukwonago","state":"WI","zip":"53149","latitude":42.862765,"longitude":-88.3992254,"description":"Mukwonago Dog Exercise Park is a spacious 34-acre area in Mukwonago, WI, which is designated for off leash play. There are dog watering stations on the site, and three separately-fenced areas for large and small breeds, and a 'Lazy Bones Zone' for senior, shy, disabled or low energy pets.","bringfido_id":"18605"},
  {"name":"Bay View Dog Park","street":"E Lincoln Ave at S Bay St","city":"Milwaukee","state":"WI","zip":"53207","latitude":43.0037673,"longitude":-87.8993264,"description":"Bay View Dog Park is a fee-based park in Milwaukee, WI. With purchase of a day pass or annual membership, Fido can explore Bay View Dog Park and enjoy playing off leash with his friends. The park comprises of one fenced area for dogs of all sizes, and there is communal watering area on site.","bringfido_id":"11861"},
  {"name":"Palmer Park Off-Leash Dog Area","street":"2201 E Raccine St","city":"Janesville","state":"WI","zip":"53545","latitude":42.6764174,"longitude":-88.9950285,"description":"Fido is welcome to play, exercise, and explore within the off-leash dog area at Palmer Park in Janesville, WI. From 5:00 AM - 11:00 PM year-round, this designated area welcomes pups to visit with their owners. Except in established dog exercise areas, pets are prohibited from Janesville parks and trails between May 15th and September 15th of each year. Note that this space is not fully fenced.","bringfido_id":"3170"},
  {"name":"City of New Richmond Off Leash Dog Park","street":"2202 185th Ave","city":"New Richmond","state":"WI","zip":"54017","latitude":45.1297725,"longitude":-92.5822906,"description":"The City of New Richmond Off Leash Dog Park, located in New Richmond, WI, is an 11.5-acre fenced recreation spot with mowed trails and benches. Make sure to bring water!","bringfido_id":"11186"},
  {"name":"Katherine Kearney Carpenter Park","street":"801 W Zedler Ln","city":"Mequon","state":"WI","zip":"53092","latitude":43.1993869,"longitude":-87.917675,"description":"Fido is invited to play at the pet-friendly Katherine Kearney Carpenter Park in Mequon, WI. Your pup is welcome to explore off-leash around the various trails. The park, in total, is 35 acres.","bringfido_id":"2764"},
  {"name":"Zander Dog Park","street":"1423 River Pl","city":"Two Rivers","state":"WI","zip":"54241","latitude":44.1464979,"longitude":-87.5758851,"description":"Bring Fido out for a day of play at Zander Dog Park in Two Rivers, WI! The area is fully fenced and grass covered with shady trees, picnic tables, benches, and waste stations. Don't forget water for your pup.","bringfido_id":"3363"},
  {"name":"Otter Creek Off-Leash Dog Park","street":"4503 House Rd","city":"Eau Claire","state":"WI","zip":"54701","latitude":44.7697537,"longitude":-91.4223883,"description":"If a member, Fido is invited to play at the Otter Creek Off-Leash Dog Park in Eau Claire, WI. The large off-leash area welcomes dogs of all sizes to play. Amenities include benches, trees for shade and water available for dogs from May until October. Please refer to their website for acquiring a membership or daily permit.","bringfido_id":"2371"},
  {"name":"Northwoods Humane Society Bark Park","street":"10812 N O'Brien Hill Rd","city":"Hayward","state":"WI","zip":"54843","latitude":46.0238785,"longitude":-91.4025017,"description":"The Northwoods Humane Society in Hayward, WI, features 87 beautiful acres that include two miles of walking trails, an outdoor pavilion for meetings, picnics and gatherings, and the Bark Park.  The Bark Park consists of two outdoor dog parks, one park for large dogs and a separate park for small dogs.  Both are open to the community.","bringfido_id":"13481"},
  {"name":"Paws & Play Dog Park","street":"495 Maritime Dr","city":"Manitowoc","state":"WI","zip":"54220","latitude":44.097265,"longitude":-87.6537394,"description":"Dogs are welcome to run and play off leash in the grassy, fenced Paws & Play Dog Park in Manitowoc, WI. From this location, visitors and their pups can also enjoy beach access or take a path out to Manitowoc North Breakwater Lighthouse which is close by.","bringfido_id":"2928"},
  {"name":"Karen A. Nelson Memorial Dog Park","street":"3800 Northwestern Ave","city":"Racine","state":"WI","zip":"53404","latitude":42.7493887,"longitude":-87.823622,"description":"Karen A. Nelson Memorial Dog Park is located off Highway 38, just north of Racine, WI. Allow Fido to play at this fenced 4-acre off-leash park. The park has two separate areas for large and small dogs, picnic tables, and pet waste stations. There is no water on site so bringing water and a bowl for your dog is recommended.","bringfido_id":"13805"},
  {"name":"Love's Travel Stop","street":"100 Commerce Ct","city":"Elkhorn","state":"WI","zip":"53121","latitude":42.6525679,"longitude":-88.5442137,"description":"Love's Travel Stop in Elkhorn, WI, is a dog-friendly gas station and rest area. Across America, you'll find Love's Travel Stops that offer facilities for traveling canines. This location has a fully-fenced dog park with a convenient waste station.","bringfido_id":"26542"},
  {"name":"Lakeland Area Dog Park","street":"9863 Plaza Dr","city":"Minocqua","state":"WI","zip":"54548","latitude":45.8878092,"longitude":-89.7237968,"description":"Fido is invited to play at Lakeland Area Dog Park in Minocqua, WI. This off-leash facility has two separate areas for small and large dogs, totaling 1.65 acres. Amenities include benches, trees for shade and a water fountain. Donations are appreciated to help maintain the park.","bringfido_id":"13937"},
  {"name":"FIDO Dog Park","street":"Satterlee St & W Amdt St","city":"Fond du Lac","state":"WI","zip":"54935","latitude":43.7826137,"longitude":-88.4596935,"description":"Dogs are welcome to play at FIDO Dog Park in Fond du Lac, WI. This off-leash facility was donated to the City by a power company for dogs of all sizes, with amenities such as benches, picnic tables and chairs. Please note this area is not entirely fenced in.","bringfido_id":"9604"},
  {"name":"East Troy Dog Park","street":"2015 Energy Dr","city":"East Troy","state":"WI","zip":"53120","latitude":42.7889983,"longitude":-88.3911527,"description":"East Troy Dog Park is located next to the municipal building in East Troy, WI. The park is open from sunrise to sunset and there are separate areas for small and large dogs. Please bring your own water.","bringfido_id":"28095"},
  {"name":"Sunnyside Dog Park","street":"5564 Irish Ln","city":"Fitchburg","state":"WI","zip":"53711","latitude":42.9870482,"longitude":-89.4282964,"description":"Sunnyside Dog Park is a dog-friendly park in Fitchburg, WI. The large, grassy park is the perfect place for Fido enjoy a myriad of new scents or play endless rounds of fetch. There is ample parking and paths are accessible to wheelchairs. Benches and picnic tables are available. Additional features are planned as funds are raised, including agility equipment, leash holders, and hydration stations.","bringfido_id":"26038"},
  {"name":"Ripon Dog Park","street":"N8863 S Koro Rd","city":"Ripon","state":"WI","zip":"54971","latitude":43.865324,"longitude":-88.871156,"description":"Ripon Dog Park is a fully-fenced off-leash recreation space in Ripon, WI, where Fido can play with his furry companions. The park is about five acres with separate areas for small and large dogs, providing plenty of room to run and play.","bringfido_id":"9645"},
  {"name":"Warner Park Dog Park","street":"2301 Sheridan Dr","city":"Madison","state":"WI","zip":"53704","latitude":43.1287926,"longitude":-89.3721002,"description":"Bring your pet to play at the 8-acre, partially fenced and off-leash dog park at Warner Park in Madison, WI. A daily or annual dog permit is required and may be purchased online or by calling (608) 266-4711.","bringfido_id":"3741"},
  {"name":"Harris Family Dog Park","street":"24100 75th St","city":"Kenosha","state":"WI","zip":"53168","latitude":42.5699638,"longitude":-88.1038631,"description":"Harris Family Dog Park is a fee-based park in Kenosha, WI. With the purchase of an annual or day pass, Fido can access all off-leash parks in the Kenosha County Parks system. Harris Family Dog Park is a large grassy area within Old Settlers Park and features a water fountain, bench seating and shaded spaces.","bringfido_id":"10448"},
  {"name":"Dog Park at Quann Park","street":"204 Bram St","city":"Madison","state":"WI","zip":"53713","latitude":43.0456821,"longitude":-89.3871431,"description":"Dogs will find loads of room to run and play off leash at the dog park at Quann Park in Madison, WI. Waste bag dispensers and water fountains are available on site. Be careful as the area is not fenced, and dog park permits are required.","bringfido_id":"3301"},
  {"name":"Rice Lake Dog Park","street":"2601 S Main St","city":"Rice Lake","state":"WI","zip":"54868","latitude":45.474186,"longitude":-91.734681,"description":"Fido is invited to play at Rice Lake Dog Park in WI. Dogs of all sizes are welcome to roam off-leash in this 11.64-acre area. The park was created with the help of the Girl Scouts of Rice Lake.","bringfido_id":"9697"},
  {"name":"Lakeside Park Dog Park","street":"555 N Park Ave","city":"Fond du Lac","state":"WI","zip":"54935","latitude":43.7942096,"longitude":-88.4467496,"description":"Fido is invited to play at the dog park at Lakeside Park in Fond du Lac, WI. This fenced-in area is located inside the 400-acre park, where your pup will love the chance to socialize off leash. Just remember to pack plenty of water for your outing.","bringfido_id":"2829"},
  {"name":"Currie Dog Park","street":"3535 N Mayfair Rd","city":"Wauwatosa","state":"WI","zip":"53222","latitude":43.0879619,"longitude":-88.0520344,"description":"Currie Dog Park in Wauwatosa, WI is a fee-based park. With the purchase of a day pass or annual membership, Fido can explore Currie Dog Park and enjoy playing off leash with his friends. The park has enclosed separate areas for large and small dogs, as well as bench seating and pet waste stations. There is no water on site so bringing water and a bowl for your dog is recommended. A cash/self-pay station is located at the park entrance.","bringfido_id":"10650"},
  {"name":"Dog Park at Badger Prairie County Park","street":"4654 Maple Grove Dr","city":"Verona","state":"WI","zip":"53593","latitude":42.9979229,"longitude":-89.5175802,"description":"The nine-acre, fenced, off-leash dog park at Badger Prairie County Park in Verona, WI is known for being clean and well-maintained. It also includes an agility area with two jumps and a tunnel. Please note permits are required for park use.","bringfido_id":"1888"},
  {"name":"Howard Dog Park","street":"1653 Wietor Dr","city":"Green Bay","state":"WI","zip":"54303","latitude":44.5622307,"longitude":-88.0571045,"description":"Located in the Gordon Nauman Conservation Area in Green Bay, WI, the Howard Dog Park features a fully enclosed fenced area, a semi-fenced area in the woods, and a walking trail. The space is grass covered with dirt paths and wooded areas. Waste stations are available, but remember to bring water and a bowl for your pup.","bringfido_id":"15899"},
  {"name":"Caledonia Dog Park","street":"4649 WI-38 Trunk","city":"Racine","state":"WI","zip":"53405","latitude":42.7811722,"longitude":-87.8715883,"description":"Caledonia Dog Park in Racine, WI is a spacious 28-acre off-leash dog park. Let Fido explore the wooded areas, splash in the pond, dart through the open fields, and cool off in the Root River with his canine companions.","bringfido_id":"1626"},
  {"name":"Homestead Howl Dog Park","street":"N120W19809 Freistadt Rd","city":"Village of Germantown","state":"WI","zip":"53022","latitude":43.2327714,"longitude":-88.1579436,"description":"Fido is invited to play at Homestead Howl Dog Park in the Village of Germantown, WI. The off-leash facility features two separate sections for small and large dogs. The large dog area has an open field and a trail into the woods. Please note a fee is involved when entering the park.","bringfido_id":"16227"},
  {"name":"Warren Close Bark Park","street":"35610 89th St","city":"Twin Lakes","state":"WI","zip":"53181","latitude":42.5470507,"longitude":-88.2465636,"description":"Warren Close Bark Park is a fee-based park in Twin Lakes, WI. With the purchase of an annual or day pass, Fido can access all off-leash parks in the Kenosha County Parks system. Warren Close Bark Park is located within Kenosha County Veterans Memorial Park and features separate enclosed areas for large and small dogs.","bringfido_id":"10447"},
  {"name":"Menomonee Park Dog Exercise Area","street":"W220 N7884 Town Line Rd","city":"Menomonee Falls","state":"WI","zip":"53051","latitude":43.158165,"longitude":-88.1705952,"description":"Take Fido for a day of fun at the off-leash at the Menomonee Park Dog Exercise Area in Menomonee Falls, WI. The dog park is separated into three fenced sections providing dedicated areas for small, larger and senior dogs to play safely. Combined, the three areas cover more than 30 acres of land with maintained trails and water fountains.","bringfido_id":"29327"},
  {"name":"Captain Bailey's Dog Park","street":"2567 Summit Rd","city":"Baileys Harbor","state":"WI","zip":"54202","latitude":45.05305,"longitude":-87.1362712,"description":"Bring Fido to burn off some energy at Captain Bailey's Dog Park in Baileys Harbor, WI. This pup recreation area features small and large dog areas and is open from dawn until dusk.","bringfido_id":"15598"},
  {"name":"Sun Prairie Pet Exercise Area","street":"1025 S Bird St","city":"Sun Prairie","state":"WI","zip":"53590","latitude":43.1584446,"longitude":-89.226918,"description":"Your pet will thank you for the chance to play off leash at the fenced Sun Prairie Pet Exercise Area in Sun Prairie, WI, which includes a separate section for smaller dogs. Remember to bring water, and dog park permits are required. Dog park tags can be purchased at the City Clerk's Office.","bringfido_id":"3567"},
  {"name":"Two Hearts Dog Park","street":"224 S 4th St","city":"Wausau","state":"WI","zip":"54403","latitude":44.9564296,"longitude":-89.6293848,"description":"Two Hearts Dog Park is a pet-friendly recreation area in Wasau, WI. This pretty park is divided into two separate sections, one for small pups and another for large dogs. Amenities include a drinking fountain, a pavilion, dog waste stations, agility equipment and ample parking. Two Hearts Dog Park is open every day of the week from dawn until dusk.","bringfido_id":"25178"},
  {"name":"Paw Print Park","street":"2701 S Oakhill Ave","city":"Janesville","state":"WI","zip":"53548","latitude":42.6443956,"longitude":-89.0410125,"description":"If a member, Fido is invited to play at Paw Print Park within Prairie Knoll Park in Janesville, WI. This off-leash facility is 16 acres and has two separate sections for small and large dogs. Amenities include waste stations, benches and a water hose. Please refer to their website on how to become a member.","bringfido_id":"278"},
  {"name":"Dog Park at Syverson Park","street":"331 Bekkedahl St","city":"Westby","state":"WI","zip":"54667","latitude":43.6496968,"longitude":-90.8559827,"description":"Bring Fido out for a day of play and exercise at Syverson Park's dog park in Westby, WI. It's fully fenced and grass covered with a couple shady trees, plus separate areas for large and small dogs. Benches and waste stations are available inside, and the surrounding park includes restrooms and a water fountain.","bringfido_id":"36257"},
  {"name":"Van Riper Dog Park","street":"1311 Van Riper Park Rd","city":"Onalaska","state":"WI","zip":"54650","latitude":43.9033907,"longitude":-91.2414164,"description":"If a member, Fido is invited to play at the Van Riper Dog Park in Onalaska, WI. The off-leash spacious facility provides a two-way gate system to help prevent accidental escapes. Amenities include a shaded seating area, agility equipment, water, doggie bags and various toys. Please refer to their website on how to become a member.","bringfido_id":"19026"},
  {"name":"Harbor Hounds Dog Park","street":"7780 Church St","city":"Egg Harbor","state":"WI","zip":"54209","latitude":45.04823,"longitude":-87.275265,"description":"Bring Fido to Harbor Hounds Dog Park in Egg Harbor, WI. This fenced recreation area welcomes four-legged companions to play and exercise off leash in one of the two separate spaces for small and large dogs. Amenities of the park include a sizeable parking lot, pet waste stations and many shade trees.","bringfido_id":"39784"},
  {"name":"Liston Dog Park","street":"702 Hill St","city":"Baraboo","state":"WI","zip":"53913","latitude":43.4588914,"longitude":-89.7336848,"description":"Bring your pup to blow off some steam at the Liston Dog Park in Baraboo, WI. This pup recreation area features separate sections for small and large dogs, agility equipment and a water fountain. A permit is required.","bringfido_id":"22265"},
  {"name":"Winnabago County Dog Park","street":"501 E County Rd Y","city":"Oshkosh","state":"WI","zip":"54901","latitude":44.0830576,"longitude":-88.5311128,"description":"Fido is invited to play at Winnabago County Dog Park in Oshkosh, WI. This off-leash facility has 9-acres of space with a separate section for small dogs. Amenities include walking paths, waste stations and a water source available in the summer.","bringfido_id":"284"},
  {"name":"Bark Park","street":"Jefferson St at Starin Rd","city":"Whitewater","state":"WI","zip":"53190","latitude":42.837879,"longitude":-88.7119663,"description":"Bring Fido to Bark Park, an enclosed off-leash area at the northwest corner of Jefferson Street and Starin Road in Whitewater, WI. The park has two separate sections for large and small dogs, on-site parking, picnic tables, benches, trash receptacles, and convenient Mutt Mitts for easy clean up.","bringfido_id":"3796"},
  {"name":"Dog Park at Sycamore Park","street":"4517 Sycamore Ave","city":"Madison","state":"WI","zip":"53704","latitude":43.1132151,"longitude":-89.3046088,"description":"Dogs will find loads of room to run and play off leash in the large dog park at Sycamore Park in Madison, WI. Be careful as the area is not fenced, and dog park permits are required.","bringfido_id":"3581"},
  {"name":"Carlisle Family Dog Park","street":"4700 Hwy JR","city":"Kenosha","state":"WI","zip":"53144","latitude":42.645321,"longitude":-87.8683019,"description":"Carlisle Family Dog Park is a fee-based park in Kenosha, WI. With the purchase of an annual or day pass, Fido can access all off-leash parks in the Kenosha County Parks system. Carlisle Family Dog Park is a large grassy area within Petrifying Springs Park and features a separate enclosed space for small dogs, agility obstacles, seating, and large shade trees.","bringfido_id":"10446"},
  {"name":"Bark Park at Indian Creek Park","street":"701 Albert Dr","city":"Manitowoc","state":"WI","zip":"54220","latitude":44.124373,"longitude":-87.659186,"description":"Pets love to play off leash at the Bark Park at Indian Creek Park in Manitowoc, WI. This pup recreation area features an agility course, trees and a creek to splash in. Be careful as the area is not fenced.","bringfido_id":"2704"},
  {"name":"Dog Park at Brittingham Park","street":"326 S Broom St","city":"Madison","state":"WI","zip":"53703","latitude":43.0658617,"longitude":-89.3972401,"description":"Pets will love to play off leash at the dog park at Brittingham Park in Madison, WI. Though, be careful, as it is not fenced. A permit is required.","bringfido_id":"2022"},
  {"name":"Anderson Farm County Park Dog Park","street":"804 Union Road","city":"Oregon","state":"WI","zip":"53575","latitude":42.8977953,"longitude":-89.3883062,"description":"Anderson Farm County Park Dog Park is pet-friendly. Mutts of Madison and the surrounding areas have a spot to trot in the nearby Village of Oregon. Anderson Farm County Park Dog Park is a 35-acre off-leash dog park divided into separate areas for small and large dogs. Walkers can enjoy the limestone trails that wind through the large fenced space and can pause for a snack at the edible orchard. You and your pooch can even stroll all the way to the park along a paved trail from the village.","bringfido_id":"27272"},
  {"name":"Tomahawk Dog Park","street":"900 W Somo Ave","city":"Tomahawk","state":"WI","zip":"54487","latitude":45.4724529,"longitude":-89.7416431,"description":"Fido is invited to play at Tomahawk Dog Park in Wisconsin. The off-leash area contains 3-acres for large dogs and half an acre for small or shy dogs. Donations are appreciated to maintain the dog park.","bringfido_id":"3644"},
  {"name":"Love's Travel Stop","street":"6710 S Business Dr","city":"Sheboygan","state":"WI","zip":"53081","latitude":43.6772261,"longitude":-87.7602443,"description":"Love's Travel Stop in Sheboygan, WI, is a dog-friendly gas station and rest area. Across America, you'll find Love's Travel Stops that offer facilities for traveling canines. This location has a fully-fenced dog park with a convenient waste station.","bringfido_id":"26556"},
  {"name":"Millston Cenex","street":"W6575 County Rd O","city":"Millston","state":"WI","zip":"54643","latitude":44.1917552,"longitude":-90.643934,"description":"The Millston Cenex is a gas station in Millston, WI, with an off-leash dog park to the left of the building. The station is just off I-94, about an hour east of Eau Claire.","bringfido_id":"30515"},
  {"name":"Ashland Dog Park","street":"901 N 14th Ave E","city":"Ashland","state":"WI","zip":"54806","latitude":46.59205,"longitude":-90.863671,"description":"Four-legged friends are invited to play and socialize off leash at the Ashland Dog Park in Ashland, WI. This fenced recreation area features an approximately 2-acre grassy space with shade trees, picnic tables, double-gated entry, waste bags and trash receptacles.","bringfido_id":"40477"},
  {"name":"Dog Park at Indian Lake County Park","street":"8183 Hwy 19","city":"Cross Plains","state":"WI","zip":"53528","latitude":43.196991,"longitude":-89.623008,"description":"The by-permit-only dog park at Indian Lake County Park in Cross Plains, WI, is a 42-acre recreation space where Fido can play with his pet companions. Located near the boat launch, this designated off-leash area for your furry friend welcomes pups of all sizes to explore together. Note that dogs require a permit before visiting the park. Dogs must be leashed when transitioning in and out of the space.","bringfido_id":"2705"},
  {"name":"Dog Park at Token Creek County Park","street":"6200 US Hwy 51","city":"Madison","state":"WI","zip":"53532","latitude":43.1863097,"longitude":-89.3242138,"description":"Token Creek County Park in Madison, WI, features a by-permit-only, 38-acre dog park for Fido to play off-leash. The area includes a 5-acre area for small dogs. Walking trails and agility equipment are available in the park. Ensure dogs are leashed when entering and exiting the park, and note that permits are required to visit.","bringfido_id":"3640"},
  {"name":"Dog Exercise Area at Mitchell Park","street":"19900 River Rd","city":"Brookfield","state":"WI","zip":"53045","latitude":43.0723787,"longitude":-88.1595276,"description":"Fido is invited to play at the Dog Exercise Area at Mitchell Park in Brookfield, WI. This off-leash facility has two separate sections for small and large dogs. Your furry friend will also have access to a creek to dip in.","bringfido_id":"3024"},
  {"name":"Doggieland Play Park LLC","street":"4233 W Beltline Hwy","city":"Madison","state":"WI","zip":"53711","latitude":43.0342167,"longitude":-89.4452192,"description":"Doggieland Play Park LLC is an indoor dog park where Fido can play with his pet companions! This play area in Madison, WI, allows owners to bring dogs to socialize off-leash in a safe and controlled environment. They also offer agility training, birthday parties, a pet wash station and more.","bringfido_id":"32551"},
  {"name":"Ingram park","street":"5726 93rd St","city":"Pleasant Prairie","state":"WI","zip":"53158","latitude":42.541746,"longitude":-87.8774169,"description":"Bring Fido to the enclosed dog park within Ingram Park, located in Pleasant Prairie, WI. To access the park, Fido requires a daily or annual dog tag. A pay station on site can be used by those wishing to buy a daily tag for each visit, and annual passes can be purchased at the Village Hall. The dog park has separate areas for small and large dogs and is open from dawn until dusk.","bringfido_id":"29591"},
  {"name":"Off-Leash Dog Area at Oak Island Park","street":"500 River Dr","city":"Wausau","state":"WI","zip":"54403","latitude":44.9539791,"longitude":-89.6281522,"description":"Fido is invited to play during the off-leash dog area at Oakside Park in Wausau, WI. From 6:00 AM until 9:00 AM and 6:00 PM until 9:00 PM, your pup can run in the non-fenced area next to their boat launch. Various signs with maps are posted at the park indicating the boundaries.","bringfido_id":"10157"},
  {"name":"Houska Dog Park","street":"1011 Joseph Houska Dr","city":"La Crosse","state":"WI","zip":"54601","latitude":43.8028058,"longitude":-91.2576363,"description":"Fido is invited to play at Houska Dog Park in La Crosse, WI. The off-leash facility is 5 acres and welcomes dogs of all sizes. Amenities include drinking fountains, restrooms, adequate parking, agility equipment and bag dispensers.","bringfido_id":"18489"},
  {"name":"Weston Dog Park","street":"6001 Rogan Ln","city":"Weston","state":"WI","zip":"54476","latitude":44.9105776,"longitude":-89.5472937,"description":"Fido is invited to play at Weston Dog Park in Wisconsin. The off-leash area is about 40 acres and offers a section for dog training. Amenities include an agility course, waste and watering stations, and walking paths.","bringfido_id":"3781"},
  {"name":"Off-Leash Area at Rock River Parkway","street":"S County Rd D & W Rockport Park Dr","city":"Janesville","state":"WI","zip":"53548","latitude":42.661111,"longitude":-89.0595342,"description":"Fido is invited to play at the off-leash area at Rock River Parkway in Janesville, WI. This designated spot allows you to train your pup without violating the leash law. Please note you must always have your dog under your control, clean up after them and ensure they have a license from your municipality.","bringfido_id":"3387"},
  {"name":"Shamrock Dog Park","street":"E11340 Co Rd PF","city":"Prairie du Sac","state":"WI","zip":"53578","latitude":43.2938289,"longitude":-89.7592259,"description":"The shady and fenced two-acre Shamrock Dog Park has views of the river and is a beautiful place to take your pet for some off-leash exercise in Prairie du Sac, WI. A monthly or annual membership is required.","bringfido_id":"3477"},
  {"name":"Muttland Meadows","street":"2020 S Green Bay Rd","city":"Grafton","state":"WI","zip":"53024","latitude":43.3062437,"longitude":-87.9554619,"description":"Fido is invited to play at Muttland Meadows in Grafton, WI. This off-leash facility is 7 acres with authentic fire hydrants, original dog houses and trails. Dogs of all sizes are welcome.","bringfido_id":"3064"},
  {"name":"Vital Essentials Dog Park","street":"325 N Broadway","city":"Green Bay","state":"WI","zip":"54303","latitude":44.520187,"longitude":-88.0222929,"description":"Vital Essentials Dog Park is a fenced space for Fido and fellow canines to play off leash in Green Bay, WI. Located in the Broadway District, this convenient park is a great space for you and your pup to socialize with other dogs and pet parents.","bringfido_id":"39480"},
  {"name":"Dog Park at Myrick Park","street":"2000 La Crosse St","city":"La Crosse","state":"WI","zip":"54601","latitude":43.817198,"longitude":-91.2257659,"description":"Fido is invited to play at the dog park at Myrick Park in La Crosse, WI. The fenced-in area is relatively small but welcomes dogs of all sizes. After hitting the trails, it's a great stop to let your pup run off leash.","bringfido_id":"3065"},
  {"name":"New London Jaycees Dog Park","street":"740 River Rd","city":"New London","state":"WI","zip":"54961","latitude":44.4029158,"longitude":-88.7348866,"description":"The three-acre New London Jaycees Dog Park has two fenced-in areas to leisurely exercise your dog. There is a small dog area for dogs 25 pounds or less and a large fenced area suitable for dogs over 25 pounds. This recreation space is a local favorite amongst dog owners in New London, WI, community. The park features waste stations, shade trees and benches for humans.","bringfido_id":"11220"},
  {"name":"Off-Leash Dog Area at Riverside Park","street":"100 Sherman St","city":"Wausau","state":"WI","zip":"54401","latitude":44.953088,"longitude":-89.636928,"description":"Fido is invited to play at the off-leash dog area at Riverside Park in Wausau, WI. From 6:00 AM until 9:00 AM and 6:00 PM until 9:00 PM, your pup can run in the non-fenced area next to the Wisconsin River and their picnic island. Various signs with maps are posted at the park indicating the boundaries.","bringfido_id":"10156"},
  {"name":"Sandy Paws Dog Park","street":"2064 Wallace Lake Rd","city":"West Bend","state":"WI","zip":"53090","latitude":43.4513744,"longitude":-88.1329419,"description":"Fido is invited to play at Sandy Paws Dog Park in West Bend, WI. This off-leash area contains two separate sections for small and large dogs and a back entrance leading to trails. The park is 9 acres and provides shelter and seating areas for pet parents.","bringfido_id":"22369"},
  {"name":"Dog Park at Demetral Park","street":"601 N 6th St","city":"Madison","state":"WI","zip":"53704","latitude":43.1068103,"longitude":-89.3537463,"description":"The dog park at Demetral Park, located in Madison, WI, is an approximately one-acre off-leash play space for dogs of all sizes.","bringfido_id":"11134"},
  {"name":"City of Beloit Dog Park","street":"2422 Springbrook Ct","city":"Beloit","state":"WI","zip":"53511","latitude":42.5114251,"longitude":-88.9989416,"description":"City Of Beloit Dog Park is a great place to let your dog off the leash to run, play, and socialize. Located in Beloit, WI, the park is 2.5 acres and has two separately-fenced areas for large and small dogs. Dog owners are required to either pay the daily fee that will be placed in a drop-box at the entrance gate or purchase an Annual Dog Tag that can be worn by their pet.","bringfido_id":"15225"},
  {"name":"City of Chetek Dog Park","street":"401 City Park Dr","city":"Chetek","state":"WI","zip":"54728","latitude":45.3118464,"longitude":-91.6397702,"description":"Fido is invited to play at the City of Chetek Dog Park in Wisconsin. The off-leash facility features a separate small dog area. Amenities include trees for shade and picnic tables. The park relies on donations for maintenance.","bringfido_id":"16267"},
  {"name":"Ripp Park Pet Exercise Area","street":"951 W Main St","city":"Waunakee","state":"WI","zip":"53597","latitude":43.1911399,"longitude":-89.4738296,"description":"Bring your pup to the fenced Ripp Park Pet Exercise Area in Waunakee, WI to get some off-leash exercise. Dog owners are reminded to clean up any mess that is left behind by their pups.","bringfido_id":"22711"},
  {"name":"Off-Leash Dog Area at Memorial Park","street":"505 Memorial Park Rd","city":"Wausau","state":"WI","zip":"54403","latitude":44.942049,"longitude":-89.625778,"description":"Fido is invited to play during the off-leash dog area at Memorial Park in Wausau, WI. From 6:00 AM until 9:00 AM, your pup can run in the non-fenced area behind the skate park. Various signs with maps are posted at the park indicating the boundaries.","bringfido_id":"10158"},
  {"name":"Love's Travel Stop","street":"9650 S 20th St","city":"Oak Creek","state":"WI","zip":"53154","latitude":42.8711052,"longitude":-87.9430793,"description":"Love's Travel Stop in Oak Creek, WI, is a dog-friendly gas station and rest area. Across America, you'll find Love's Travel Stops that offer facilities for traveling canines. This location has a fully-fenced dog park with a convenient waste station.","bringfido_id":"26543"},
  {"name":"Love's Truck Stop","street":"5930 Badger Dr","city":"Menomonie","state":"WI","zip":"54751","latitude":44.9069161,"longitude":-91.8583752,"description":"Love's Travel Stop in Menomonie, WI, is a dog-friendly gas station and rest area. Across America, you'll find Love's Travel Stops that offer facilities for traveling canines. This location has a fully-fenced dog park with a convenient waste station.","bringfido_id":"26602"},
  {"name":"Merry Mutts Play Yard","street":"E2962 County Rd K","city":"Casco","state":"WI","zip":"54205","latitude":44.58953,"longitude":-87.618006,"description":"Merry Mutts Play Yard is an off-leash space for you and your dog in Casco, WI. The park runs on a self-service scheduling system. You and your pooch can enjoy a play session at this pleasant park, which includes agility equipment, a fence around the outside and luscious grassy patches. Dog owners are reminded to clean up after their pups, and there is an admission fee to access the park.","bringfido_id":"22955"},
  {"name":"Sundet Off-Leash Dog Park","street":"4703 Robin Rd","city":"Eau Claire","state":"WI","zip":"54703","latitude":44.87172,"longitude":-91.45807,"description":"Sundet Off-Leash Dog Park in Eau Claire, WI, welcomes licensed dogs to run and play between dawn and dusk daily. Annual dog licenses and dog park licenses are required and can be purchased in person or online. Passes are also valid at Otter Creek Off-Leash Dog Park. Larger dogs will love the 8.2 acre fenced play area and smaller dogs have a separate 1 acre fenced plot.","bringfido_id":"27052"},
  {"name":"Antigo Dog Park","street":"2000 Hwy 64","city":"Antigo","state":"WI","zip":"54409","latitude":45.160132,"longitude":-89.161756,"description":"Fido is invited to play at Antigo Dog Park in Wisconsin. This off-leash area is 17 acres and provides a separate small dog area. Amenities include various access gates to enter and exit the park, along with trails and open spaces that are mowed throughout the summer.","bringfido_id":"14942"},
  {"name":"Racine Petro","street":"717 S Sylvania Ave","city":"Sturtevant","state":"WI","zip":"53177","latitude":42.7250352,"longitude":-87.9579374,"description":"Conveniently located right alongside Highway 94 in Sturtevant, WI, is pet-friendly gas station Racine Petro. Fido is welcome to be off leash in the small fully-fenced dog park on the east side of the truck stop. Let you dog expend their energy before resuming your travels. Leashes are not required but dogs must be wearing a collar or harness, remain under control, and be supervised when in the dog park.","bringfido_id":"26257"},
  {"name":"Ladysmith Leash-Free Dog Park","street":"Phillips Ave E","city":"Ladysmith","state":"WI","zip":"54848","latitude":45.4549694,"longitude":-91.1009769,"description":"Fido is invited to play at Ladysmith Leash-Free Dog Park in Wisconsin. Dogs of all sizes are welcome to join to socialize and burn off energy. A picnic table is available on site.","bringfido_id":"612"},
  {"name":"Anderson Farm County Park","street":"914 Union Rd","city":"Oregon","state":"WI","zip":"53575","latitude":42.9036642,"longitude":-89.3886911,"description":"More than 300 acres of prairies, agriculture fields and woodland trails make up Anderson Farm County Park in Oregon, WI. This pet-friendly recreation area has a network of trails that connects Memorial Woods and the Village of Oregon with a large dog park. Fido is welcome to join you as your hiking buddy, but dogs must be kept on a leash.","bringfido_id":"27886"},
  {"name":"Catalano Square","street":"138 N Broadway","city":"Milwaukee","state":"WI","zip":"53202","latitude":43.0313052,"longitude":-87.9072355,"description":"Leashed dogs are welcome to join you for a picnic at pet-friendly Catalano Square in Milwaukee, WI. This small but beloved community park, located in the popular Historic Third Ward, features a grassy lawn, benches and a fountain. It's also home to a refurbished vintage bus shelter and an urban amphitheater.","bringfido_id":"31578"},
  {"name":"Zoila's Zone","street":"3064 Helsan Dr","city":"Richfield","state":"WI","zip":"53076","latitude":43.2852414,"longitude":-88.1904853,"description":"Richfield, WI, is home to Zoila's Zone, a private indoor dog park where four-legged friends can play and socialize. Visitors can reserve 30- or 60-minute play sessions in the 1,200 sq ft, climate-controlled play space to ensure their furry companion gets some exercise. Note that an entrance fee does apply.","bringfido_id":"38429"},
  {"name":"Wells Point Dog Park","street":"103 Underwood Ave","city":"Montello","state":"WI","zip":"53949","latitude":43.7934496,"longitude":-89.3404773,"description":"Wells Point Dog Park welcomes small and large dogs in Montello, WI. The fenced park is available for off-leash play. There is a dog waste station on site.","bringfido_id":"28233"},
  {"name":"Mac's Bark Park","street":"346 E Ward St","city":"Milwaukee","state":"WI","zip":"53207","latitude":43.0044112,"longitude":-87.90605,"description":"Fido is invited to play Mac's Bark Park, an indoor off-leash facility in Milwaukee, WI. They aim to provide a safe place, tools and resources to deepen your bond with your dog. The park includes an agility course, toys, balls and more. Open or private play is available. Please note only two dogs per adult.","bringfido_id":"39006"},
  {"name":"Love's Travel Stop","street":"191 W Rolling Meadows Dr","city":"Fond du Lac","state":"WI","zip":"54937","latitude":43.7487835,"longitude":-88.4646513,"description":"Love's Travel Stop in Fond du Lac, WI, is a dog-friendly gas station and rest area. Across America, you'll find Love's Travel Stops that offer facilities for traveling canines. This location has a fully-fenced dog park with a convenient waste station.","bringfido_id":"26562"},
  {"name":"Maunesha River Dog Park","street":"315 Henricks St","city":"Waterloo","state":"WI","zip":"53594","latitude":43.1853127,"longitude":-88.988739,"description":"Maunesha River Dog Park is a fenced recreation area in Waterloo, WI. Within this community dog park, furry friends can enjoy off-leash fun in separate areas for small and large canines. Other access points include off Mill St or the public parking lot located off Madison St.","bringfido_id":"33095"},
  {"name":"Cassville Dog Park","street":"","city":"Cassville","state":"WI","zip":"53806","latitude":42.7028108,"longitude":-90.959002,"description":"Take Fido to run, play and make new friends at Cassville Dog Park in Cassville, WI. This off-leash park features plenty of room and fluffy grass. The dog park is furnished with a large, covered pavilion, water stations and a ramp for agility. Please bring your own waste bags and clean up after Fido.","bringfido_id":"28813"},
  {"name":"Penni Klein Dog Exercise Area","street":"8780 Airport Rd","city":"Middleton","state":"WI","zip":"53562","latitude":43.1132435,"longitude":-89.5419436,"description":"Bring Fido to blow off some steam at the Penni Klein Dog Exercise Area in Middleton, WI. This pet-friendly pup recreation area is fenced-in and features plenty of grassy space for your pup to run and play.","bringfido_id":"34735"},
  {"name":"Spooner Dog Park","street":"1300 Roundhouse Rd","city":"Spooner","state":"WI","zip":"54801","latitude":45.8341835,"longitude":-91.8815851,"description":"Bring Fido to Spooner Dog Park, a dog-friendly open space in Spooner, WI. Located across from Washburn County Humane Society and alongside the Wild Rivers Trail, dogs can enjoy off-leash exercise in a fully-fenced area. The enclosed space has agility equipment, dog waste stations, and a bench for owners to rest while Fido is at play.","bringfido_id":"26949"},
  {"name":"River Run Dog Park","street":"Thoma Rd","city":"Columbus","state":"WI","zip":"53925","latitude":43.3533703,"longitude":-89.0000725,"description":"Bring Fido to River Run Dog Park in Columbus, WI. This local recreation area spans six acres and features wooded areas, benches, and gated river access for dogs to swim and play. A separate gated section is available for pets with special needs, making it a welcoming space for all pups to enjoy.","bringfido_id":"42111"},
  {"name":"Jerry Finch Winnebago County Dog Park","street":"1111 Ehlers Rd","city":"Neenah","state":"WI","zip":"54956","latitude":44.2127136,"longitude":-88.4726543,"description":"Bring Fido to enjoy some off-leash fun at the Jerry Finch Winnebago County Dog Park in Neenah, WI.   Amenities of this 4.5-acre park include an open field, a wooded section, walking paths, waste bags, benches, and a porta-potty. This recreation space also offers a separate area for small pups.","bringfido_id":"42511"},
  {"name":"Rapids Room to Zoom Dog Park","street":"2550 Saratoga St","city":"Wisconsin Rapids","state":"WI","zip":"54494","latitude":44.390102,"longitude":-89.794897,"description":"Dogs can play, run, and explore at Rapids Room to Zoom Dog Park in Wisconsin Rapids, WI. The 10-acre recreation space features separate areas for small and large pups, as well as shade trees, picnic tables, water, waste stations, and a walking trail. Dogs should be leashed when entering and exiting the park.","bringfido_id":"42177"},
  {"name":"Menomonie Dog Park","street":"Brickyard Rd","city":"Menomonie","state":"WI","zip":"54751","latitude":44.8800505,"longitude":-91.940565,"description":"Fido is invited to play at Menomonie Dog Park in Wisconsin. This off-leash facility has two separate sections for large and small dogs. Amenities include benches, a walking path and a trash can.","bringfido_id":"34216"},
  {"name":"Dog Park at Halvorsen Park","street":"3110 Mero St","city":"Manitowoc","state":"WI","zip":"54220","latitude":44.0908601,"longitude":-87.6870904,"description":"Fido is invited to play at the dog park at Halvorsen Park in Manitowoc, WI. The area offers two fenced-in areas separated by pups under 35 lbs and one for larger dogs. Each section includes training structures, such as ramps and tunnels. A dog bubbler and waste bags are also available at the park.","bringfido_id":"38982"},
  {"name":"Dog Park at McCormick Park","street":"702 N McCormick Ave","city":"Madison","state":"WI","zip":"53704","latitude":43.1074862,"longitude":-89.3420791,"description":"Bring Fido to blow off some steam at the dog park at McCormick Park in Madison, WI. This fenced off-leash pup recreation area features waste bag dispensers and benches for humans.","bringfido_id":"11135"},
  {"name":"Warnimont Park Dog Park","street":"5400 S Lake Dr","city":"Cudahy","state":"WI","zip":"53110","latitude":42.9477369,"longitude":-87.846678,"description":"If a member, Fido is invited to play at Warnimont Park Dog Park in Cudahy, WI. This off-leash area is 5 acres and has two separate sections for small and large dogs. Amenities include wooded trails, waste stations and trees for shade.","bringfido_id":"10653"},
  {"name":"Love's Travel Stop","street":"W9493 County Rd CS","city":"Poynette","state":"WI","zip":"53955","latitude":43.3891277,"longitude":-89.4701929,"description":"Love's Travel Stop in Poynette, WI, is a dog-friendly gas station and rest area. Across America, you'll find Love's Travel Stops that offer facilities for traveling canines. This location has a fully-fenced dog park with a convenient waste station.","bringfido_id":"33017"}
]
