[
  {
    "name": "Outagamie County Dog Park",
    "street": "2830 French Rd",
    "city": "‍ Appleton",
    "state": "WI",
    "zip": "54911",
    "latitude": 44.2876434,
    "longitude": -88.353223,
    "description": "Located at 2830 French Rd in Appleton, Outagamie County Dog Park earns strong marks from local dog owners—4.6 stars from 666 reviews. Open from 7am to 9pm daily, dog owners have plenty of flexibility to plan a visit. The consistent ratings suggest dog owners know what to expect here."
  },
  {
    "name": "Otter Creek Off-Leash Dog Park",
    "street": "4503 House Rd",
    "city": "Eau Claire",
    "state": "WI",
    "zip": "54701",
    "latitude": 44.7743011,
    "longitude": -91.4224717,
    "description": "Otter Creek Off-Leash Dog Park (4.6 stars from 515 reviews) is a popular destination for Eau Claire dog owners, located at 4503 House Rd. Open from 4am to 9pm daily, dog owners can plan visits around work or their pup's energy level. The steady stream of positive reviews suggests dog owners consistently have good experiences here."
  },
  {
    "name": "Southwest Dog Park",
    "street": "1000 Ferry St",
    "city": "Eau Claire",
    "state": "WI",
    "zip": "54703",
    "latitude": 44.7874848,
    "longitude": -91.5391229,
    "description": "Dog owners in Eau Claire have made Southwest Dog Park at 1000 Ferry St a go-to spot, rating it 4.6 stars across 38 reviews. Dog owners looking for a solid destination will find this park delivers. Local dog owners have clearly found this to be a worthwhile destination."
  },
  {
    "name": "‍ Bay Beach Wildlife Sanctuary",
    "street": "1660 E Shore Dr",
    "city": "Green Bay",
    "state": "WI",
    "zip": "54302",
    "latitude": 44.5285485,
    "longitude": -87.9785992,
    "description": "Dog owners in Green Bay have embraced Bay Beach Wildlife Sanctuary (1660 E Shore Dr) as a top destination—4.7 stars from 2,705 visits. Open from 8am to 4:30pm daily, dog owners have plenty of flexibility to visit when it suits their schedule. For variety, many dog owners also bring their furry friends to Kennedy Park (1.1 miles)—another great dog park in the area."
  },
  {
    "name": "Bellevue Dog Park",
    "street": "",
    "city": "Green Bay",
    "state": "WI",
    "zip": "",
    "latitude": 44.463888,
    "longitude": -87.9543025,
    "description": "For dog owners in the Green Bay area, Bellevue Dog Park offers a 4.7-star experience based on 76 reviews. Dog owners frequent this park for its consistent quality and welcoming atmosphere. Looking for more places to take your pup? Willow Creek Park is another popular dog park just 1.1 miles away."
  },
  {
    "name": "Baird Creek Park",
    "street": "506 Peters St",
    "city": "Green Bay",
    "state": "WI",
    "zip": "54302",
    "latitude": 44.5097841,
    "longitude": -87.9644203,
    "description": "At 506 Peters St in Green Bay, Baird Creek Park has built a loyal following—4.7 stars from 11 dog owner reviews. The park serves dog owners well, providing a destination the community values. Nearby, Kennedy Park (0.4 miles) offers dog owners another great spot to explore with their pups."
  },
  {
    "name": "Kaukauna Dog Park",
    "street": "366 Farmland Ct",
    "city": "Green Bay",
    "state": "WI",
    "zip": "54130",
    "latitude": 44.3016791,
    "longitude": -88.2429445,
    "description": "Kaukauna Dog Park (4.6 stars from 373 reviews) is a popular destination for Green Bay dog owners, located at 366 Farmland Ct. Open from 5am to 11pm daily, there's room in the day for dog owners to bring their furry friends. The positive feedback from local dog owners speaks to the park's consistent quality."
  },
  {
    "name": "‍ Meadowbrook Park",
    "street": "670 Hillcrest Heights",
    "city": "Green Bay",
    "state": "WI",
    "zip": "54313",
    "latitude": 44.5590901,
    "longitude": -88.1001074,
    "description": "For dog owners in the Green Bay area, Meadowbrook Park (670 Hillcrest Heights) offers a 4.6-star experience based on 263 reviews. Open from 6am to 10pm daily, the park offers flexibility for dog owners with varying routines. Nearby, Howard Dog Park (2.2 miles) offers dog owners another great spot to explore with their pups."
  },
  {
    "name": "Baird Creek Preservation Found",
    "street": "500 Beverly Rd",
    "city": "Green Bay",
    "state": "WI",
    "zip": "54311",
    "latitude": 44.509774,
    "longitude": -87.950659,
    "description": "Baird Creek Preservation Found at 500 Beverly Rd is well-regarded by Green Bay dog owners, holding 4.6 stars across 188 reviews. Open from 5am to 10pm daily, the park accommodates early risers and evening visitors alike. Nearby, Baird Creek Park (0.7 miles) offers dog owners another great spot to explore with their pups."
  },
  {
    "name": "Mossakowski Family Dog Park",
    "street": "2292 Bellevue St",
    "city": "Green Bay",
    "state": "WI",
    "zip": "54311",
    "latitude": 44.4587424,
    "longitude": -88.0069481,
    "description": "With 4.6 stars from 131 reviews, Mossakowski Family Dog Park at 2292 Bellevue St has become a favorite among Green Bay dog owners. Dog owners frequent this park for its consistent quality and welcoming atmosphere. Other dog parks in the area include Willow Creek Park (1.6 miles) and Bellevue Dog Park (2.6 miles)—both great for exploring with your four-legged friend."
  },
  {
    "name": "Willow Creek Park",
    "street": "1800 Guns St",
    "city": "Green Bay",
    "state": "WI",
    "zip": "54311",
    "latitude": 44.466767,
    "longitude": -87.976049,
    "description": "Willow Creek Park (4.6 stars from 111 reviews) is a popular destination for Green Bay dog owners, located at 1800 Guns St. Open from 7am to 10pm daily, there's room in the day for dog owners to bring their furry friends. Looking for more places to take your pup? Bellevue Dog Park is another popular dog park just 1.1 miles away."
  },
  {
    "name": "De Pere Dog Park",
    "street": "1400 Biotech Way",
    "city": "Green Bay",
    "state": "WI",
    "zip": "54115",
    "latitude": 44.4070967,
    "longitude": -88.1144366,
    "description": "With 4.5 stars from 173 reviews, De Pere Dog Park at 1400 Biotech Way has become a favorite among Green Bay dog owners. Open from 6am to 10pm daily, dog owners have plenty of flexibility to plan a visit. A solid track record makes this a reliable choice for dog owners."
  },
  {
    "name": "Optimist Park",
    "street": "1422 Lawe St",
    "city": "Green Bay",
    "state": "WI",
    "zip": "54301",
    "latitude": 44.4977943,
    "longitude": -88.0010396,
    "description": "For dog owners in Green Bay, Optimist Park at 1422 Lawe St has a 4.3-star rating (32 reviews). The park serves as a gathering spot for dog owners and their four-legged friends in the area. For dog owners who like to explore, Whitney Park (1.2 miles) and Baird Creek Park (2.0 miles) are both nearby parks to try with your dog."
  },
  {
    "name": "Preble Park",
    "street": "Preble Park",
    "city": "Green Bay",
    "state": "WI",
    "zip": "54302",
    "latitude": 44.4931185,
    "longitude": -87.9550091,
    "description": "For dog owners in Green Bay, Preble Park has a 4.4-star rating (213 reviews). Open from 6am to 10pm daily, dog owners have flexibility to plan a visit with their four-legged friends. For dog owners who like to explore, Baird Creek Preservation Found (1.2 miles) and Baird Creek Park (1.2 miles) are both nearby parks to try with your dog."
  },
  {
    "name": "‍ Whitney Park",
    "street": "800 Main St",
    "city": "Green Bay",
    "state": "WI",
    "zip": "54301",
    "latitude": 44.51463,
    "longitude": -88.005334,
    "description": "Dog owners in Green Bay have rated Whitney Park (800 Main St) 4.3 stars across 256 reviews. Open from 6am to 10pm daily, dog owners can stop by when it fits their schedule. Looking to explore more? Optimist Park is another dog-friendly park 1.2 miles from here."
  },
  {
    "name": "Howard Dog Park",
    "street": "1653 Wietor Dr",
    "city": "Green Bay",
    "state": "WI",
    "zip": "54303",
    "latitude": 44.5611916,
    "longitude": -88.0552021,
    "description": "Dog owners in Green Bay have rated Howard Dog Park (1653 Wietor Dr) 4.3 stars across 284 reviews. Local dog owners use this park as a spot to spend time with their furry companions. Looking to explore more? Meadowbrook Park is another dog-friendly park 2.2 miles from here."
  },
  {
    "name": "Kennedy Park",
    "street": "2227 Farlin Ave",
    "city": "Green Bay",
    "state": "WI",
    "zip": "54302",
    "latitude": 44.5148304,
    "longitude": -87.9667145,
    "description": "Dog owners in Green Bay have rated Kennedy Park (2227 Farlin Ave) 4.2 stars across 146 reviews. Open from 8am to 10pm, Monday through Saturday, the park fits conveniently into different routines. For dog owners who like to explore, Baird Creek Park (0.4 miles) and Baird Creek Preservation Found (0.9 miles) are both nearby parks to try with your dog."
  },
  {
    "name": "Paw Print Dog Park",
    "street": "2701 S Oakhill Ave",
    "city": "Janesville",
    "state": "WI",
    "zip": "53546",
    "latitude": 42.6404657,
    "longitude": -89.0405685,
    "description": "With 4.6 stars from 221 reviews, Paw Print Dog Park at 2701 S Oakhill Ave has become a favorite among Janesville dog owners. Open from 7am to 7pm daily, dog owners have plenty of flexibility to plan a visit. Dog owners looking for a dependable spot will find this park lives up to its ratings."
  },
  {
    "name": "Petrifying Springs Park",
    "street": "5555 7th St",
    "city": "Kenosha",
    "state": "WI",
    "zip": "53144",
    "latitude": 42.6541507,
    "longitude": -87.875135,
    "description": "2,887 dog owners have made Petrifying Springs Park (5555 7th St) one of Kenosha's most trusted parks (4.8 stars). Open from 6am to 10pm daily, dog owners have room to work around busy schedules. Looking to mix things up? Carlisle Family Dog Park is a nearby dog park 0.9 miles away that's worth exploring with your pup."
  },
  {
    "name": "Warren Close Bark Park",
    "street": "35610 89th St",
    "city": "Kenosha",
    "state": "WI",
    "zip": "53181",
    "latitude": 42.5455773,
    "longitude": -88.2501181,
    "description": "With 4.7 stars from 118 reviews, Warren Close Bark Park at 35610 89th St has become a favorite among Kenosha dog owners. Open from 7am to 10pm daily, the park accommodates early risers and evening visitors alike. Looking for more places to take your pup? Harris Family Dog Park is another popular dog park just 3.5 miles away."
  },
  {
    "name": "Wolfenbuttel Park",
    "street": "5901 3rd Ave",
    "city": "Kenosha",
    "state": "WI",
    "zip": "53140",
    "latitude": 42.5822285,
    "longitude": -87.8145508,
    "description": "For dog owners in the Kenosha area, Wolfenbuttel Park (5901 3rd Ave) offers a 4.7-star experience based on 718 reviews. Open from 8am to 10pm daily, there's plenty of opportunity for dog owners to find a time that works. Looking for more places to take your pup? K9 Korner Dog Park is another popular dog park just 2.6 miles away."
  },
  {
    "name": "Harris Family Dog Park",
    "street": "24100 75th St",
    "city": "Kenosha",
    "state": "WI",
    "zip": "53168",
    "latitude": 42.5679127,
    "longitude": -88.1881899,
    "description": "For dog owners in the Kenosha area, Harris Family Dog Park (24100 75th St) offers a 4.6-star experience based on 150 reviews. Open from 7am to 10pm daily, dog owners can easily fit a visit into busy schedules. Looking for more places to take your pup? Warren Close Bark Park is another popular dog park just 3.5 miles away."
  },
  {
    "name": "K9 Korner Dog Park",
    "street": "8732 22nd Ave",
    "city": "Kenosha",
    "state": "WI",
    "zip": "53143",
    "latitude": 42.5476162,
    "longitude": -87.8349141,
    "description": "K9 Korner Dog Park (4.5 stars from 111 reviews) is a popular destination for Kenosha dog owners, located at 8732 22nd Ave. Open from 6am to 8pm daily, the park offers flexibility for dog owners with varying routines. Nearby, Wolfenbuttel Park (2.6 miles) offers dog owners another great spot to explore with their pups."
  },
  {
    "name": "‍ Carlisle Family Dog Park",
    "street": "4700 County Highway JR",
    "city": "Kenosha",
    "state": "WI",
    "zip": "53144",
    "latitude": 42.6448957,
    "longitude": -87.8638994,
    "description": "Carlisle Family Dog Park (4.5 stars from 207 reviews) is a popular destination for Kenosha dog owners, located at 4700 County Highway JR. Open from 7am to 10pm daily, there's plenty of opportunity for dog owners to find a time that works. For a change of scenery, Petrifying Springs Park is another dog-friendly destination 0.9 miles from here."
  },
  {
    "name": "Springbrook Park",
    "street": "3519 Springbrook Way",
    "city": "‍ La Crosse",
    "state": "WI",
    "zip": "54601",
    "latitude": 43.7699361,
    "longitude": -91.2047971,
    "description": "Springbrook Park (4.9 stars from 146 reviews) is a popular destination for La Crosse dog owners, located at 3519 Springbrook Way. Dog owners frequent this park for its consistent quality and welcoming atmosphere. Dog owners can also take their pups to nearby Schuh Park (1.6 miles) or Pammel Creek Park (2.0 miles)."
  },
  {
    "name": "Grandad Bluff Park",
    "street": "3020 Grandad Bluff Rd",
    "city": "‍ La Crosse",
    "state": "WI",
    "zip": "54601",
    "latitude": 43.8127369,
    "longitude": -91.2010391,
    "description": "Grandad Bluff Park at 3020 Grandad Bluff Rd is a favorite among La Crosse dog owners, earning 4.8 stars from 1,744 reviews. Open from 6am to 10:30pm daily, dog owners have room to work around busy schedules. Looking to mix things up? Myrick Park is a nearby dog park 1.2 miles away that's worth exploring with your pup."
  },
  {
    "name": "Riverside Park",
    "street": "100 State St",
    "city": "‍ La Crosse",
    "state": "WI",
    "zip": "54601",
    "latitude": 43.81472,
    "longitude": -91.254823,
    "description": "For La Crosse dog owners, Riverside Park at 100 State St has become a reliable favorite—4.7 stars from 2,886 reviews. Open from 6am to 11pm daily, the park is convenient for before work, after work, or weekend adventures. Looking to mix things up? Nelson Park is a nearby dog park 0.2 miles away that's worth exploring with your pup."
  },
  {
    "name": "Viroqua Bark Park",
    "street": "700 Power Dr",
    "city": "‍ La Crosse",
    "state": "WI",
    "zip": "54665",
    "latitude": 43.5731048,
    "longitude": -90.8838435,
    "description": "Located at 700 Power Dr in La Crosse, Viroqua Bark Park earns strong marks from local dog owners—4.7 stars from 25 reviews. The park serves dog owners well, providing a destination the community values. The consistent ratings suggest dog owners know what to expect here."
  },
  {
    "name": "Pettibone Park",
    "street": "700 Pettibone Dr NLa Crosse",
    "city": "‍ La Crosse",
    "state": "WI",
    "zip": "54601",
    "latitude": 43.8145597,
    "longitude": -91.2620304,
    "description": "Located at 700 Pettibone Dr N in La Crosse, Pettibone Park earns strong marks from local dog owners—4.6 stars from 397 reviews. The park serves dog owners well, providing a destination the community values. Nearby, Riverside Park (0.4 miles) offers dog owners another great spot to explore with their pups."
  },
  {
    "name": "Myrick Park",
    "street": "2107 La Crosse St",
    "city": "‍ La Crosse",
    "state": "WI",
    "zip": "54601",
    "latitude": 43.8187275,
    "longitude": -91.2239407,
    "description": "La Crosse dog owners rate Myrick Park at 2107 La Crosse St highly, with 4.6 stars from 966 visits. Open from 6am to 10pm daily, there's room in the day for dog owners to bring their furry friends. Other dog parks in the area include Myrick Park (0.3 miles) and Red Cloud Park (1.1 miles)—both great for exploring with your four-legged friend."
  },
  {
    "name": "Nelson Park",
    "street": "",
    "city": "‍ La Crosse",
    "state": "WI",
    "zip": "",
    "latitude": 43.8122836,
    "longitude": -91.2514355,
    "description": "Nelson Park in La Crosse has 4.4 stars based on 38 reviews from dog owners. The neighborhood benefits from having this park as an option for dog owners and their pups. Dog owners might also enjoy Riverside Park, another dog park just 0.2 miles away."
  },
  {
    "name": "Van Riper Park",
    "street": "206 Riders Club Rd",
    "city": "‍ La Crosse",
    "state": "WI",
    "zip": "54650",
    "latitude": 43.9064724,
    "longitude": -91.2405873,
    "description": "Van Riper Park at 206 Riders Club Rd in La Crosse has 4.4 stars from 61 dog owner reviews. Open from 6am to 11pm daily, dog owners can stop by when it fits their schedule. Dog owners might also enjoy Wittenberg Park, another dog park just 3.9 miles away."
  },
  {
    "name": "Pammel Creek Park",
    "street": "5502 Southdale Dr",
    "city": "‍ La Crosse",
    "state": "WI",
    "zip": "54601",
    "latitude": 43.7927406,
    "longitude": -91.1816005,
    "description": "Pammel Creek Park at 5502 Southdale Dr in La Crosse has 4.4 stars from 80 dog owner reviews. Open from 6am to 10pm daily, the park is accessible for dog owners in the area. More dog parks in the area include Grandad Bluff Park (1.7 miles) and Springbrook Park (2.0 miles)—great options for mixing up your pup's routine."
  },
  {
    "name": "Schuh Park",
    "street": "2225 Horton St",
    "city": "‍ La Crosse",
    "state": "WI",
    "zip": "54601",
    "latitude": 43.7898256,
    "longitude": -91.2216634,
    "description": "In La Crosse, dog owners can find Schuh Park at 2225 Horton St—a local park worth exploring with their furry companions. Open from 6am to 9:30pm daily, local dog owners have time to explore with their furry companions. For pups who want more adventure, Springbrook Park is a nearby dog park worth visiting (1.6 miles)."
  },
  {
    "name": "‍ Red Cloud Park",
    "street": "520 Powell St",
    "city": "‍ La Crosse",
    "state": "WI",
    "zip": "54601",
    "latitude": 43.8330894,
    "longitude": -91.232509,
    "description": "150 dog owners have reviewed Red Cloud Park at 520 Powell St in La Crosse, averaging 4.3 stars. Open from 6am to 11pm daily, dog owners have flexibility to plan a visit with their four-legged friends. For dog owners who like to explore, Myrick Park (1.0 miles) and Myrick Park (1.1 miles) are both nearby parks to try with your dog."
  },
  {
    "name": "Wittenberg Park",
    "street": "George St",
    "city": "‍ La Crosse",
    "state": "WI",
    "zip": "54603",
    "latitude": 43.8496199,
    "longitude": -91.2397709,
    "description": "Wittenberg Park in La Crosse has 4.1 stars based on 67 reviews from dog owners. Open from 6am to 10pm daily, dog owners have a window to spend time with their pups. Dog owners might also enjoy Red Cloud Park, another dog park just 1.2 miles away."
  },
  {
    "name": "Houska Park",
    "street": "1011 Joseph Houska Dr",
    "city": "‍ La Crosse",
    "state": "WI",
    "zip": "54601",
    "latitude": 43.8002637,
    "longitude": -91.2556474,
    "description": "Houska Park at 1011 Joseph Houska Dr provides La Crosse dog owners with a local spot to visit with their pups. Open from 8am to 10pm daily, the park is accessible for dog owners in the area. Looking to explore more? Nelson Park is another dog-friendly park 0.9 miles from here."
  },
  {
    "name": "Prairie Moraine Dog Park",
    "street": "6679 Wesner Ln",
    "city": "Madison",
    "state": "WI",
    "zip": "53593",
    "latitude": 42.9609725,
    "longitude": -89.5096078,
    "description": "Dog owners in Madison have made Prairie Moraine Dog Park at 6679 Wesner Ln a go-to spot, rating it 4.9 stars across 581 reviews. Open from 5am to 10pm daily, dog owners can easily fit a visit into busy schedules. For variety, the neighborhood offers more dog parks to explore: Badger Prairie Dog Park (2.4 miles) and Badger Prairie County Park (2.4 miles)."
  },
  {
    "name": "My Dog and Me",
    "street": "7451 Fankhauser Rd",
    "city": "Madison",
    "state": "WI",
    "zip": "53718",
    "latitude": 43.070784,
    "longitude": -89.252771,
    "description": "My Dog and Me at 7451 Fankhauser Rd is well-regarded by Madison dog owners, holding 5.0 stars across 61 reviews. Open from 6am to 10pm daily, the park accommodates early risers and evening visitors alike. Dog owners can also take their pups to nearby My Dog and Me Private Dog Park (0.0 miles) or North Star Park (1.8 miles)."
  },
  {
    "name": "Capital Springs Dog Park",
    "street": "3398 Lake Farm Rd",
    "city": "Madison",
    "state": "WI",
    "zip": "53711",
    "latitude": 43.021875,
    "longitude": -89.3455972,
    "description": "Capital Springs Dog Park at 3398 Lake Farm Rd is well-regarded by Madison dog owners, holding 4.8 stars across 399 reviews. Open from 5am to 10pm daily, dog owners can easily fit a visit into busy schedules. Other dog parks in the area include Capital Springs Recreation (0.5 miles) and Paunack (A.O.) Park (1.9 miles)—both great for exploring with your four-legged friend."
  },
  {
    "name": "Fly Dog Parks Park",
    "street": "1786 WI-19",
    "city": "Madison",
    "state": "WI",
    "zip": "53559",
    "latitude": 43.1719923,
    "longitude": -89.0742965,
    "description": "Fly Dog Parks Park at 1786 WI-19 is well-regarded by Madison dog owners, holding 4.9 stars across 31 reviews. Open from 6am to 7pm daily, the park works well for dog owners with different schedules. Dog owners looking for a dependable spot will find this park lives up to its ratings."
  },
  {
    "name": "Token Creek Dog Park",
    "street": "Token Creek LnDe",
    "city": "Madison",
    "state": "WI",
    "zip": "53532",
    "latitude": 43.1862599,
    "longitude": -89.3211532,
    "description": "Dog owners in Madison have made Token Creek Dog Park a go-to spot, rating it 4.8 stars across 94 reviews. Open from 5am to 10pm daily, the park works well for dog owners with different schedules. More dog-friendly parks nearby include Token Creek County Park (0.1 miles) and Cherokee Park (3.6 miles)—perfect for pups who love adventure."
  },
  {
    "name": "Good Dog Unleashed Private",
    "street": "4930 Felland Rd",
    "city": "Madison",
    "state": "WI",
    "zip": "53718",
    "latitude": 43.116173,
    "longitude": -89.276238,
    "description": "Madison dog owners rate Good Dog Unleashed Private at 4930 Felland Rd highly, with 5.0 stars from 13 visits. Open from 7am to 8pm daily, the park offers flexibility for dog owners with varying routines. More dog-friendly parks nearby include Sycamore Park (1.3 miles) and Sycamore Park (1.5 miles)—perfect for pups who love adventure."
  },
  {
    "name": "‍ DoggieLand Play Park",
    "street": "4233 W Beltline Hwy",
    "city": "Madison",
    "state": "WI",
    "zip": "53711",
    "latitude": 43.0349627,
    "longitude": -89.4402492,
    "description": "Dog owners in Madison have made DoggieLand Play Park at 4233 W Beltline Hwy a go-to spot, rating it 4.8 stars across 34 reviews. Local dog owners appreciate what this park offers their four-legged friends. For variety, the neighborhood offers more dog parks to explore: Odana Hills Park (1.6 miles) and Odana School Park (1.9 miles)."
  },
  {
    "name": "Viking dog park / dog beach",
    "street": "1582 County Hwy NStoughton",
    "city": "Madison",
    "state": "WI",
    "zip": "53589",
    "latitude": 42.9361094,
    "longitude": -89.2012163,
    "description": "Dog owners in Madison have made Viking dog park / dog beach at 1582 County Hwy N a go-to spot, rating it 4.8 stars across 33 reviews. The park serves dog owners well, providing a destination the community values. For a change of scenery, Viking County Park is another dog-friendly destination 0.5 miles from here."
  },
  {
    "name": "My Dog and Me Private Dog Park",
    "street": "7181 Fankhauser Rd",
    "city": "Madison",
    "state": "WI",
    "zip": "53718",
    "latitude": 43.0707785,
    "longitude": -89.2532809,
    "description": "At 7181 Fankhauser Rd in Madison, My Dog and Me Private Dog Park has built a loyal following—4.8 stars from 22 dog owner reviews. Dog owners looking for a solid destination will find this park delivers. More dog-friendly parks nearby include My Dog and Me (0.0 miles) and North Star Park (1.8 miles)—perfect for pups who love adventure."
  },
  {
    "name": "‍ Vilas (Henry) Park",
    "street": "702 S Randall Ave",
    "city": "Madison",
    "state": "WI",
    "zip": "53715",
    "latitude": 43.0598208,
    "longitude": -89.4104756,
    "description": "Vilas (Henry) Park at 702 S Randall Ave is a favorite among Madison dog owners, earning 4.7 stars from 4,872 reviews. Open from 4am to 10pm daily, the park accommodates a variety of dog owner schedules and routines. For more dog park adventures, explore Edward Klief Park (0.5 miles) or Brittingham Park (0.6 miles) with your furry companion."
  },
  {
    "name": "Badger Prairie Dog Park",
    "street": "",
    "city": "Madison",
    "state": "WI",
    "zip": "",
    "latitude": 42.9905492,
    "longitude": -89.5335575,
    "description": "Madison dog owners rate Badger Prairie Dog Park highly, with 4.7 stars from 410 visits. Open from 6am to 10pm daily, the park offers flexibility for dog owners with varying routines. Nearby, Badger Prairie County Park (1.4 miles) offers dog owners another great spot to explore with their pups."
  },
  {
    "name": "Badger Prairie County Park",
    "street": "4654 Maple Grove Dr",
    "city": "Madison",
    "state": "WI",
    "zip": "53593",
    "latitude": 42.9960861,
    "longitude": -89.5066738,
    "description": "Madison dog owners rate Badger Prairie County Park at 4654 Maple Grove Dr highly, with 4.7 stars from 365 visits. Open from 5am to 10pm daily, dog owners can plan visits around work or their pup's energy level. Dog owners can also take their pups to nearby Badger Prairie Dog Park (1.4 miles) or Prairie Moraine Dog Park (2.4 miles)."
  },
  {
    "name": "The Boneyard",
    "street": "1018 Walsh Rd",
    "city": "Madison",
    "state": "WI",
    "zip": "53714",
    "latitude": 43.1127994,
    "longitude": -89.310198,
    "description": "Dog owners in Madison have made The Boneyard at 1018 Walsh Rd a go-to spot, rating it 4.7 stars across 328 reviews. For dog owners in the area, this park has become a trusted spot for time with their pups. Nearby, Sycamore Park (0.3 miles) offers dog owners another great spot to explore with their pups."
  },
  {
    "name": "Viking County Park",
    "street": "County Hwy NStoughton",
    "city": "Madison",
    "state": "WI",
    "zip": "53589",
    "latitude": 42.9295779,
    "longitude": -89.2011729,
    "description": "With 4.7 stars from 313 reviews, Viking County Park has become a favorite among Madison dog owners. Open from 5am to 10pm daily, there's room in the day for dog owners to bring their furry friends. Nearby, Viking dog park / dog beach (0.5 miles) offers dog owners another great spot to explore with their pups."
  },
  {
    "name": "Warner Park",
    "street": "2301 Sheridan Dr",
    "city": "Madison",
    "state": "WI",
    "zip": "53704",
    "latitude": 43.1248146,
    "longitude": -89.3748704,
    "description": "Madison dog owners rate Warner Park at 2301 Sheridan Dr highly, with 4.7 stars from 276 visits. Open from 4am to 10pm daily, the park works well for dog owners with different schedules. Dog owners exploring the neighborhood can also bring their furry friends to Warner Park (0.6 miles)."
  },
  {
    "name": "‍ Sunnyside Dog Park",
    "street": "5564 Irish Ln",
    "city": "Madison",
    "state": "WI",
    "zip": "53711",
    "latitude": 42.986809,
    "longitude": -89.4279714,
    "description": "Dog owners in Madison have made Sunnyside Dog Park at 5564 Irish Ln a go-to spot, rating it 4.7 stars across 132 reviews. Open from 6am to 10pm daily, there's room in the day for dog owners to bring their furry friends. Looking for more places to take your pup? DoggieLand Play Park is another popular dog park just 3.4 miles away."
  },
  {
    "name": "‍ Speed Weenies on Howell",
    "street": "2455 S Howell Ave",
    "city": "‍ Milwaukee",
    "state": "WI",
    "zip": "53207",
    "latitude": 42.9999129,
    "longitude": -87.9049152,
    "description": "At 2455 S Howell Ave in Milwaukee, Speed Weenies on Howell has built a loyal following—5.0 stars from 56 dog owner reviews. Open from 10am to 9pm, every day except Wednesday and Thursday, the park offers flexibility for dog owners with varying routines. For variety, the neighborhood offers more dog parks to explore: Humboldt Park (0.7 miles) and South Shore Park (1.3 miles)."
  },
  {
    "name": "Grant Park",
    "street": "100 Hawthorne Ave",
    "city": "‍ Milwaukee",
    "state": "WI",
    "zip": "53172",
    "latitude": 42.90858,
    "longitude": -87.843254,
    "description": "With 4.7 stars across 4,229 reviews, Grant Park at 100 Hawthorne Ave has clearly won over Milwaukee dog owners. Open from 6am to 10pm daily, dog owners have plenty of flexibility to visit when it suits their schedule. Dog owners in the area also love bringing their pups to Warnimont Dog Park (1.8 miles) and Rawson Park (2.6 miles)."
  },
  {
    "name": "Lake Park",
    "street": "2975 N Lake Park Rd",
    "city": "‍ Milwaukee",
    "state": "WI",
    "zip": "53211",
    "latitude": 43.0694855,
    "longitude": -87.8718718,
    "description": "With 4.7 stars across 2,563 reviews, Lake Park at 2975 N Lake Park Rd has clearly won over Milwaukee dog owners. Open from 6am to 10pm daily, dog owners have plenty of flexibility to visit when it suits their schedule. For variety, many dog owners also bring their furry friends to Back Bay Park (1.0 miles)—another great dog park in the area."
  },
  {
    "name": "South Shore Park",
    "street": "2900 S Shore Dr",
    "city": "‍ Milwaukee",
    "state": "WI",
    "zip": "53207",
    "latitude": 42.9938302,
    "longitude": -87.8810802,
    "description": "South Shore Park at 2900 S Shore Dr is a favorite among Milwaukee dog owners, earning 4.7 stars from 2,024 reviews. Open from 6am to 10pm daily, dog owners can plan visits around their pup's favorite times to be active. For more dog park adventures, explore Ellen Park (0.6 miles) or Bay View Park (0.8 miles) with your furry companion."
  },
  {
    "name": "Minooka Park",
    "street": "1927 E Sunset Dr",
    "city": "‍ Milwaukee",
    "state": "WI",
    "zip": "53189",
    "latitude": 42.9878335,
    "longitude": -88.1943378,
    "description": "For Milwaukee dog owners, Minooka Park at 1927 E Sunset Dr has become a reliable favorite—4.7 stars from 1,348 reviews. Open from 5am to 10pm daily, dog owners can plan visits around their pup's favorite times to be active. Other popular dog parks nearby include Bethesda Park (2.7 miles) and Dopp Park (3.0 miles)—both favorites among local pup parents."
  },
  {
    "name": "Estabrook Park",
    "street": "4400 Estabrook Pkwy",
    "city": "‍ Milwaukee",
    "state": "WI",
    "zip": "53211",
    "latitude": 43.0993286,
    "longitude": -87.9035777,
    "description": "1,090 dog owners have made Estabrook Park (4400 Estabrook Pkwy) one of Milwaukee's most trusted parks (4.7 stars). Open from 6am to 10pm daily, dog owners have room to work around busy schedules. For more dog park adventures, explore Milwaukee River Greenway (0.1 miles) or Estabrook Dog Park (0.7 miles) with your furry companion."
  },
  {
    "name": "Humboldt Park",
    "street": "3000 S Howell Ave",
    "city": "‍ Milwaukee",
    "state": "WI",
    "zip": "53207",
    "latitude": 42.9907746,
    "longitude": -87.901148,
    "description": "Dog owners in Milwaukee have made Humboldt Park at 3000 S Howell Ave a go-to spot, rating it 4.7 stars across 929 reviews. Open from 6am to 10pm daily, there's plenty of opportunity for dog owners to find a time that works. For a change of scenery, Speed Weenies on Howell is another dog-friendly destination 0.7 miles from here."
  },
  {
    "name": "Hoyt Park",
    "street": "1800 N Swan Blvd",
    "city": "‍ Milwaukee",
    "state": "WI",
    "zip": "53226",
    "latitude": 43.0546241,
    "longitude": -88.0237301,
    "description": "With 4.7 stars from 783 reviews, Hoyt Park at 1800 N Swan Blvd has become a favorite among Milwaukee dog owners. Open from 6am to 10pm daily, dog owners have plenty of flexibility to plan a visit. Other dog parks in the area include Wisconsin Avenue Park (1.4 miles) and Currie Dog Park (2.4 miles)—both great for exploring with your four-legged friend."
  },
  {
    "name": "Bay View Park",
    "street": "3120 S Lake Dr",
    "city": "‍ Milwaukee",
    "state": "WI",
    "zip": "53235",
    "latitude": 42.9854661,
    "longitude": -87.8689602,
    "description": "For dog owners in the Milwaukee area, Bay View Park (3120 S Lake Dr) offers a 4.7-star experience based on 534 reviews. Open from 6am to 10pm daily, dog owners can plan visits around work or their pup's energy level. For a change of scenery, South Shore Park is another dog-friendly destination 0.8 miles from here."
  },
  {
    "name": "The Hounds & Tap",
    "street": "W175N5645 Technology Dr",
    "city": "‍ Milwaukee",
    "state": "WI",
    "zip": "53051",
    "latitude": 43.1196802,
    "longitude": -88.1295866,
    "description": "For dog owners in the Milwaukee area, The Hounds & Tap offers a 4.7-star experience based on 297 reviews. The park serves dog owners well, providing a destination the community values. Other dog parks in the area include Mitchell Park (3.3 miles) and Menomonee Park (3.7 miles)—both great for exploring with your four-legged friend."
  },
  {
    "name": "Muttland Meadows",
    "street": "789 S Green Bay Rd",
    "city": "‍ Milwaukee",
    "state": "WI",
    "zip": "53024",
    "latitude": 43.3059943,
    "longitude": -87.9560899,
    "description": "Muttland Meadows (4.7 stars from 286 reviews) is a popular destination for Milwaukee dog owners, located at 789 S Green Bay Rd. Dog owners frequent this park for its consistent quality and welcoming atmosphere. The positive feedback from local dog owners speaks to the park's consistent quality."
  },
  {
    "name": "Warnimont Park",
    "street": "5400 S Lake Dr",
    "city": "‍ Milwaukee",
    "state": "WI",
    "zip": "53110",
    "latitude": 42.9469055,
    "longitude": -87.8474493,
    "description": "Milwaukee dog owners rate Warnimont Park at 5400 S Lake Dr highly, with 4.7 stars from 221 visits. Open from 6am to 10pm daily, dog owners can easily fit a visit into busy schedules. For a change of scenery, Warnimont Dog Park is another dog-friendly destination 0.9 miles from here."
  },
  {
    "name": "Homestead Howl Dog Park",
    "street": "N120W19809 Freistadt Rd",
    "city": "‍ Milwaukee",
    "state": "WI",
    "zip": "53022",
    "latitude": 43.2351201,
    "longitude": -88.1552813,
    "description": "With 4.6 stars from 104 reviews, Homestead Howl Dog Park has become a favorite among Milwaukee dog owners. Open from 6am to 9pm daily, dog owners can easily fit a visit into busy schedules. For a change of scenery, Menomonee Dog Park is another dog-friendly destination 4.3 miles from here."
  },
  {
    "name": "Back Bay Park",
    "street": "2315 E Back Bay",
    "city": "‍ Milwaukee",
    "state": "WI",
    "zip": "53202",
    "latitude": 43.056439,
    "longitude": -87.8818535,
    "description": "Located at 2315 E Back Bay in Milwaukee, Back Bay Park earns strong marks from local dog owners—4.6 stars from 226 reviews. Open from 6am to 10pm daily, there's plenty of opportunity for dog owners to find a time that works. More dog-friendly parks nearby include Kilbourn Reservoir Park (1.0 miles) and Lake Park (1.0 miles)—perfect for pups who love adventure."
  },
  {
    "name": "‍ Mitchell Park",
    "street": "19900 River Rd",
    "city": "‍ Milwaukee",
    "state": "WI",
    "zip": "53045",
    "latitude": 43.077378,
    "longitude": -88.1592769,
    "description": "At 19900 River Rd in Milwaukee, Mitchell Park has built a loyal following—4.6 stars from 467 dog owner reviews. Dog owners looking for a solid destination will find this park delivers. Dog owners exploring the neighborhood can also bring their furry friends to Fox Brook Park (0.6 miles)."
  },
  {
    "name": "Kilbourn Reservoir Park",
    "street": "2230 N Bremen St",
    "city": "‍ Milwaukee",
    "state": "WI",
    "zip": "53212",
    "latitude": 43.0597221,
    "longitude": -87.9001688,
    "description": "Dog owners in Milwaukee have made Kilbourn Reservoir Park at 2230 N Bremen St a go-to spot, rating it 4.6 stars across 538 reviews. Open from 6am to 10pm daily, dog owners have plenty of flexibility to plan a visit. Dog owners exploring the neighborhood can also bring their furry friends to Marshall Park (0.7 miles)."
  },
  {
    "name": "New Richmond Area Off Leash",
    "street": "2202 185th Ave",
    "city": "New Richmond",
    "state": "WI",
    "zip": "54017",
    "latitude": 45.1299325,
    "longitude": -92.5668447,
    "description": "New Richmond Area Off Leash at 2202 185th Ave is well-regarded by New Richmond dog owners, holding 4.7 stars across 106 reviews. Dog owners in the area consistently choose this park as a go-to destination for their pups. Based on the reviews, dog owners can expect a reliable spot for spending time with their pup."
  },
  {
    "name": "Best Friends Dog Park",
    "street": "501 E County Rd Y",
    "city": "Oshkosh",
    "state": "WI",
    "zip": "54901",
    "latitude": 44.0830409,
    "longitude": -88.5329138,
    "description": "At 501 E County Rd Y in Oshkosh, Best Friends Dog Park has built a loyal following—4.7 stars from 231 dog owner reviews. Open from 6am to 8pm daily, there's room in the day for dog owners to bring their furry friends. Local dog owners have clearly found this to be a worthwhile destination."
  },
  {
    "name": "Caledonia Dog Park",
    "street": "",
    "city": "Racine",
    "state": "WI",
    "zip": "",
    "latitude": 42.7313756,
    "longitude": -87.7834769,
    "description": "Dog owners in Racine have made Caledonia Dog Park a go-to spot, rating it 4.7 stars across 36 reviews. Open from 5am to 10pm daily, there's plenty of opportunity for dog owners to find a time that works. Dog owners exploring the neighborhood can also bring their furry friends to Island Park (0.4 miles)."
  },
  {
    "name": "‍ Karen A. Nelson Memorial Dog",
    "street": "3800 Northwestern Ave",
    "city": "Racine",
    "state": "WI",
    "zip": "53404",
    "latitude": 42.7492115,
    "longitude": -87.8209206,
    "description": "Located at 3800 Northwestern Ave in Racine, Karen A. Nelson Memorial Dog earns strong marks from local dog owners—4.6 stars from 219 reviews. Open from 5am to 9pm daily, the park offers flexibility for dog owners with varying routines. Looking for more places to take your pup? Quarry Lake Park is another popular dog park just 0.0 miles away."
  },
  {
    "name": "Sturtevant Dog Park",
    "street": "8500 Broadway Dr",
    "city": "Racine",
    "state": "WI",
    "zip": "53177",
    "latitude": 42.6904524,
    "longitude": -87.8892956,
    "description": "Located at 8500 Broadway Dr, Sturtevant Dog Park in Racine is rated 4.4 stars by 48 dog owners. Open from 6am to 10pm daily, dog owners have flexibility to plan a visit with their four-legged friends. For dog owners who like to explore, Petrifying Springs Park (2.6 miles) and Carlisle Family Dog Park (3.4 miles) are both nearby parks to try with your dog."
  },
  {
    "name": "Island Park",
    "street": "1700 Liberty St",
    "city": "Racine",
    "state": "WI",
    "zip": "53404",
    "latitude": 42.7307638,
    "longitude": -87.7917196,
    "description": "At 1700 Liberty St, Island Park has 4.4 stars based on 225 reviews from Racine dog owners. Open from 6am to 10pm daily, the park gives dog owners in the neighborhood time to bring their pups. Nearby dog parks worth exploring with your pup include Caledonia Dog Park (0.4 miles) and Karen A. Nelson Memorial Dog (2.0 miles)."
  },
  {
    "name": "Quarry Lake Park",
    "street": "3533 Northwestern Ave",
    "city": "Racine",
    "state": "WI",
    "zip": "53404",
    "latitude": 42.7498694,
    "longitude": -87.8208836,
    "description": "Quarry Lake Park (4.4 stars from 505 reviews) is a popular destination for Racine dog owners, located at 3533 Northwestern Ave. For dog owners in the area, this park has become a trusted spot for time with their pups. Other dog parks in the area include Karen A. Nelson Memorial Dog (0.0 miles) and Island Park (2.0 miles)—both great for exploring with your four-legged friend."
  },
  {
    "name": "N. Owen Davies Park",
    "street": "1829 West Blvd",
    "city": "Racine",
    "state": "WI",
    "zip": "53405",
    "latitude": 42.7087181,
    "longitude": -87.8160077,
    "description": "At 1829 West Blvd, N. Owen Davies Park has 4.3 stars based on 85 reviews from Racine dog owners. The neighborhood benefits from having this park as an option for dog owners and their pups. More dog parks in the area include Island Park (2.0 miles) and Caledonia Dog Park (2.3 miles)—great options for mixing up your pup's routine."
  },
  {
    "name": "‍ Retzer Nature Center",
    "street": "S14 W28167 Madison St",
    "city": "‍ Waukesha",
    "state": "WI",
    "zip": "53188",
    "latitude": 43.0153978,
    "longitude": -88.3115645,
    "description": "Dog owners in Waukesha have made Retzer Nature Center a go-to spot, rating it 4.8 stars across 986 reviews. Open from 6am to 10pm daily, dog owners have plenty of flexibility to plan a visit. Other dog parks in the area include Meadowview Park (2.0 miles) and Dopp Park (3.4 miles)—both great for exploring with your four-legged friend."
  },
  {
    "name": "Mukwonago Dog Exercise Park",
    "street": "W325 S9925 Beulah Rd",
    "city": "‍ Waukesha",
    "state": "WI",
    "zip": "53149",
    "latitude": 42.8628624,
    "longitude": -88.3963016,
    "description": "With 4.7 stars from 282 reviews, Mukwonago Dog Exercise Park has become a favorite among Waukesha dog owners. Open from 5am to 10pm daily, the park accommodates early risers and evening visitors alike. Nearby, Mukwonago Park (2.5 miles) offers dog owners another great spot to explore with their pups."
  },
  {
    "name": "‍ Mukwonago Park",
    "street": "S100 W31900",
    "city": "Mukwonago",
    "state": "WI",
    "zip": "53149",
    "latitude": 42.8674684,
    "longitude": -88.3480781,
    "description": "Mukwonago Park is well-regarded by Waukesha dog owners, holding 4.6 stars across 370 reviews. Open from 5am to 10pm daily, there's room in the day for dog owners to bring their furry friends. Nearby, Mukwonago Dog Exercise Park (2.5 miles) offers dog owners another great spot to explore with their pups."
  },
  {
    "name": "Menomonee Park",
    "street": "W220 N7884",
    "city": "Menomonee Falls",
    "state": "WI",
    "zip": "53051",
    "latitude": 43.1578558,
    "longitude": -88.1812698,
    "description": "Menomonee Park is a favorite among Waukesha dog owners, earning 4.6 stars from 1,019 reviews. Open from 5am to 10pm daily, dog owners can easily fit a visit into their day, whether morning or evening. Nearby, Menomonee Dog Park (3.6 miles) is another dog park favorite where you can take your four-legged friend."
  },
  {
    "name": "Fox Brook Park",
    "street": "2925 N Barker Rd",
    "city": "‍ Waukesha",
    "state": "WI",
    "zip": "53045",
    "latitude": 43.0737341,
    "longitude": -88.1694207,
    "description": "At 2925 N Barker Rd in Waukesha, Fox Brook Park stands out with 4.6 stars from 1,238 happy dog owners. Open from 6am to 10pm daily, dog owners can easily fit a visit into their day, whether morning or evening. Other popular dog parks nearby include Mitchell Park (0.6 miles) and The Hounds & Tap (3.8 miles)—both favorites among local pup parents."
  },
  {
    "name": "Menomonee Dog Park",
    "street": "",
    "city": "‍ Waukesha",
    "state": "WI",
    "zip": "",
    "latitude": 43.1790768,
    "longitude": -88.1170784,
    "description": "For dog owners in the Waukesha area, Menomonee Dog Park offers a 4.5-star experience based on 70 reviews. Open from 5am to 10pm daily, the park accommodates early risers and evening visitors alike. Other dog parks in the area include Menomonee Park (3.6 miles) and Granville Dog Park (3.8 miles)—both great for exploring with your four-legged friend."
  },
  {
    "name": "Meadowview Park",
    "street": "Northview Rd",
    "city": "‍ Waukesha",
    "state": "WI",
    "zip": "53188",
    "latitude": 43.0365197,
    "longitude": -88.2853304,
    "description": "Meadowview Park (4.5 stars from 118 reviews) is a popular destination for Waukesha dog owners. Open from 6am to 10pm daily, dog owners can easily fit a visit into busy schedules. Nearby, Retzer Nature Center (2.0 miles) offers dog owners another great spot to explore with their pups."
  },
  {
    "name": "Bethesda Park",
    "street": "560 Dunbar Ave",
    "city": "‍ Waukesha",
    "state": "WI",
    "zip": "53186",
    "latitude": 43.0065583,
    "longitude": -88.240234,
    "description": "With 4.5 stars from 174 reviews, Bethesda Park at 560 Dunbar Ave has become a favorite among Waukesha dog owners. Open from 6am to 10pm daily, dog owners can plan visits around work or their pup's energy level. More dog-friendly parks nearby include Dopp Park (0.3 miles) and Minooka Park (2.7 miles)—perfect for pups who love adventure."
  },
  {
    "name": "Dopp Park",
    "street": "429 S Washington Ave",
    "city": "‍ Waukesha",
    "state": "WI",
    "zip": "53188",
    "latitude": 43.0092013,
    "longitude": -88.2453442,
    "description": "Dopp Park at 429 S Washington Ave in Waukesha has 4.3 stars from 78 dog owner reviews. For dog owners in the neighborhood, this park offers a place to take their pups. For dog owners who like to explore, Bethesda Park (0.3 miles) and Meadowview Park (2.8 miles) are both nearby parks to try with your dog."
  }
]