[
  {
    "name": "‍ Platte River Trails At The",
    "street": "1775 W 1st St",
    "city": "Casper",
    "state": "WY",
    "zip": "82604",
    "latitude": 42.8466104,
    "longitude": -106.3446388,
    "description": "Located at 1775 W 1st St in Casper, Platte River Trails At The earns strong marks from local dog owners—4.7 stars from 159 reviews. Open from 9am to 5pm daily, the park offers flexibility for dog owners with varying routines. For variety, the neighborhood offers more dog parks to explore: Amoco Park (0.0 miles) and Goodstein Park (0.6 miles)."
  },
  {
    "name": "Amoco Park",
    "street": "1007 W 1st St",
    "city": "Casper",
    "state": "WY",
    "zip": "82604",
    "latitude": 42.8465678,
    "longitude": -106.3441043,
    "description": "With 4.7 stars from 108 reviews, Amoco Park at 1007 W 1st St has become a favorite among Casper dog owners. Open from 6am to 12am daily, dog owners can plan visits around work or their pup's energy level. Dog owners exploring the neighborhood can also bring their furry friends to Platte River Trails At The (0.0 miles)."
  },
  {
    "name": "Bear Trap County Park",
    "street": "",
    "city": "Casper",
    "state": "WY",
    "zip": "",
    "latitude": 42.8501191,
    "longitude": -106.325138,
    "description": "Bear Trap County Park (4.6 stars from 239 reviews) is a popular destination for Casper dog owners. Open from 7am to 9pm daily, the park offers flexibility for dog owners with varying routines. For a change of scenery, Veteran's Park is another dog-friendly destination 0.3 miles from here."
  },
  {
    "name": "Crossroads Park",
    "street": "1101 N Poplar St",
    "city": "Casper",
    "state": "WY",
    "zip": "82601",
    "latitude": 42.8624164,
    "longitude": -106.3324382,
    "description": "At 1101 N Poplar St in Casper, Crossroads Park has built a loyal following—4.6 stars from 225 dog owner reviews. Open from 6:30am to 12am daily, dog owners have plenty of flexibility to plan a visit. More dog-friendly parks nearby include Bear Trap County Park (0.9 miles) and Riverview Park (1.0 miles)—perfect for pups who love adventure."
  },
  {
    "name": "Nancy English Park",
    "street": "1250 W 23rd St",
    "city": "Casper",
    "state": "WY",
    "zip": "82604",
    "latitude": 42.8280854,
    "longitude": -106.3403053,
    "description": "Nancy English Park (4.6 stars from 172 reviews) is a popular destination for Casper dog owners, located at 1250 W 23rd St. Open from 6am to 12am daily, there's room in the day for dog owners to bring their furry friends. Dog owners exploring the neighborhood can also bring their furry friends to Garden Creek Park (0.1 miles)."
  },
  {
    "name": "Fun Valley Park",
    "street": "3631 E 21st St",
    "city": "Casper",
    "state": "WY",
    "zip": "82609",
    "latitude": 42.8286917,
    "longitude": -106.2782599,
    "description": "Dog owners in Casper have made Fun Valley Park at 3631 E 21st St a go-to spot, rating it 4.6 stars across 111 reviews. Dog owners frequent this park for its consistent quality and welcoming atmosphere. More dog-friendly parks nearby include Sage Park (0.7 miles) and Verda James Park (1.1 miles)—perfect for pups who love adventure."
  },
  {
    "name": "Verda James Park",
    "street": "801 Carriage Ln",
    "city": "Casper",
    "state": "WY",
    "zip": "82609",
    "latitude": 42.842979,
    "longitude": -106.267743,
    "description": "For dog owners in the Casper area, Verda James Park (801 Carriage Ln) offers a 4.7-star experience based on 25 reviews. Open from 6am to 12am daily, there's room in the day for dog owners to bring their furry friends. For a change of scenery, Huber Park is another dog-friendly destination 1.0 miles from here."
  },
  {
    "name": "Morad Park",
    "street": "2800 Wyoming Blvd SW",
    "city": "Casper",
    "state": "WY",
    "zip": "82604",
    "latitude": 42.819696,
    "longitude": -106.3686939,
    "description": "Casper dog owners rate Morad Park at 2800 Wyoming Blvd SW highly, with 4.5 stars from 313 visits. Open from 6am to 12am daily, the park offers flexibility for dog owners with varying routines. For variety, the neighborhood offers more dog parks to explore: Green Meadow Park (0.6 miles) and Centennial Park (1.2 miles)."
  },
  {
    "name": "Paradise Valley Park",
    "street": "31 Begonia St",
    "city": "Casper",
    "state": "WY",
    "zip": "82604",
    "latitude": 42.8292841,
    "longitude": -106.4042571,
    "description": "Located at 31 Begonia St in Casper, Paradise Valley Park earns strong marks from local dog owners—4.5 stars from 126 reviews. Open from 6am to 12am daily, dog owners can plan visits around work or their pup's energy level. Other dog parks in the area include Buckboard Park (1.3 miles) and Centennial Park (1.8 miles)—both great for exploring with your four-legged friend."
  },
  {
    "name": "‍ Garden Creek Park",
    "street": "2361 S Coffman Ave",
    "city": "Casper",
    "state": "WY",
    "zip": "82604",
    "latitude": 42.8259967,
    "longitude": -106.339888,
    "description": "31 dog owners have reviewed Garden Creek Park at 2361 S Coffman Ave in Casper, averaging 4.4 stars. Local dog owners use this park as a spot to spend time with their furry companions. Dog owners in the neighborhood can also take their furry friends to Nancy English Park, 0.1 miles away."
  },
  {
    "name": "Veteran's Park",
    "street": "510 E 2nd St",
    "city": "Casper",
    "state": "WY",
    "zip": "82601",
    "latitude": 42.8488045,
    "longitude": -106.3192149,
    "description": "At 510 E 2nd St, Veteran's Park has 4.4 stars based on 50 reviews from Casper dog owners. Open from 6am to 12am daily, the park is accessible for dog owners in the area. For pups who want more adventure, Bear Trap County Park is a nearby dog park worth visiting (0.3 miles)."
  },
  {
    "name": "Green Meadow Park",
    "street": "1600 W 39th St",
    "city": "Casper",
    "state": "WY",
    "zip": "82604",
    "latitude": 42.8111718,
    "longitude": -106.373943,
    "description": "Dog owners in Casper have rated Green Meadow Park (1600 W 39th St) 4.3 stars across 32 reviews. Open from 6am to 12am daily, local dog owners have time to explore with their furry companions. Nearby dog parks worth exploring with your pup include Morad Park (0.6 miles) and Adams Park (1.7 miles)."
  },
  {
    "name": "Alta Vista Park",
    "street": "2400 S Jackson St",
    "city": "Casper",
    "state": "WY",
    "zip": "82601",
    "latitude": 42.8487199,
    "longitude": -106.3110157,
    "description": "At 2400 S Jackson St, Alta Vista Park has 4.3 stars based on 43 reviews from Casper dog owners. Dog owners in the area appreciate having a local spot to bring their pups. Dog owners in the neighborhood can also take their furry friends to Veteran's Park, 0.4 miles away."
  },
  {
    "name": "Sage Park",
    "street": "2930 E 15th St",
    "city": "Casper",
    "state": "WY",
    "zip": "82609",
    "latitude": 42.8354562,
    "longitude": -106.2877392,
    "description": "Dog owners in Casper have rated Sage Park (2930 E 15th St) 4.3 stars across 67 reviews. Local dog owners use this park as a spot to spend time with their furry companions. Looking to explore more? Huber Park is another dog-friendly park 0.6 miles from here."
  },
  {
    "name": "Adams Park",
    "street": "2925 S Coffman Ave",
    "city": "Casper",
    "state": "WY",
    "zip": "82604",
    "latitude": 42.8194578,
    "longitude": -106.3419298,
    "description": "93 dog owners have reviewed Adams Park at 2925 S Coffman Ave in Casper, averaging 4.3 stars. Open from 6am to 12am daily, the park gives dog owners in the neighborhood time to bring their pups. For pups who want more adventure, Garden Creek Park is a nearby dog park worth visiting (0.5 miles)."
  },
  {
    "name": "Patterson-Zonta Park",
    "street": "3800 W 13th St",
    "city": "Casper",
    "state": "WY",
    "zip": "82604",
    "latitude": 42.8365195,
    "longitude": -106.3684128,
    "description": "For dog owners in Casper, Patterson-Zonta Park at 3800 W 13th St has a 4.1-star rating (13 reviews). Open from 6am to 12am daily, local dog owners have time to explore with their furry companions. Dog owners in the neighborhood can also take their furry friends to Centennial Park, 0.1 miles away."
  },
  {
    "name": "Southeast Wyoming Welcome",
    "street": "5611 High Plains Road",
    "city": "Cheyenne",
    "state": "WY",
    "zip": "82007",
    "latitude": 41.0581163,
    "longitude": -104.8797997,
    "description": "With 4.7 stars across 2,977 reviews, Southeast Wyoming Welcome at 5611 High Plains Road has clearly won over Cheyenne dog owners. Dog owners in the area know they can count on this park for quality time with their pups. For variety, many dog owners also bring their furry friends to Dog Park (4.1 miles)—another great dog park in the area."
  },
  {
    "name": "Cheyenne - Parks Division Park",
    "street": "4603 Lions Park Dr",
    "city": "Cheyenne",
    "state": "WY",
    "zip": "82001",
    "latitude": 41.1584626,
    "longitude": -104.831709,
    "description": "Dog owners in Cheyenne have made Cheyenne - Parks Division Park at 4603 Lions Park Dr a go-to spot, rating it 4.7 stars across 153 reviews. Open from 5am to 12am daily, the park accommodates early risers and evening visitors alike. For a change of scenery, Optimist Park is another dog-friendly destination 2.4 miles from here."
  },
  {
    "name": "‍ Holliday Park",
    "street": "19th Morrie Ave",
    "city": "Cheyenne",
    "state": "WY",
    "zip": "82001",
    "latitude": 41.1309102,
    "longitude": -104.8002284,
    "description": "With 4.6 stars across 1,038 reviews, Holliday Park at 19th Morrie Ave has clearly won over Cheyenne dog owners. Open from 5am to 12am daily, the park accommodates a variety of dog owner schedules and routines. Dog owners in the area also love bringing their pups to Optimist Park (0.7 miles) and Cheyenne - Parks Division Park (2.5 miles)."
  },
  {
    "name": "Dog Park",
    "street": "800 Southwest Dr",
    "city": "Cheyenne",
    "state": "WY",
    "zip": "82007",
    "latitude": 41.1116642,
    "longitude": -104.8455523,
    "description": "Dog owners in Cheyenne have made Dog Park at 800 Southwest Dr a go-to spot, rating it 4.5 stars across 130 reviews. For dog owners in the area, this park has become a trusted spot for time with their pups. Other dog parks in the area include Optimist Park (2.0 miles) and Holliday Park (2.7 miles)—both great for exploring with your four-legged friend."
  },
  {
    "name": "Optimist Park",
    "street": "908 Carey Ave",
    "city": "Cheyenne",
    "state": "WY",
    "zip": "82007",
    "latitude": 41.1262473,
    "longitude": -104.8125707,
    "description": "Dog owners in Cheyenne have rated Optimist Park (908 Carey Ave) 4.2 stars across 53 reviews. Open from 5am to 12am daily, the park fits conveniently into different routines. Dog owners in the neighborhood can also take their furry friends to Holliday Park, 0.7 miles away."
  },
  {
    "name": "‍ Hat Six Travel Center",
    "street": "6985 Nugget",
    "city": "Evansville",
    "state": "WY",
    "zip": "82636",
    "latitude": 42.8474356,
    "longitude": -106.2150971,
    "description": "Dog owners in Evansville have made Hat Six Travel Center at 6985 Nugget a go-to spot, rating it 4.4 stars across 2,435 reviews. Dog owners looking for a solid destination will find this park delivers. Looking for more places to take your pup? Verda James Park is another popular dog park just 2.7 miles away."
  },
  {
    "name": "Bittercreek Bark Park",
    "street": "850 Center St",
    "city": "Rock Springs",
    "state": "WY",
    "zip": "82901",
    "latitude": 41.5827198,
    "longitude": -109.2261922,
    "description": "Bittercreek Bark Park at 850 Center St is well-regarded by Rock Springs dog owners, holding 4.7 stars across 269 reviews. Open from 7am to 9pm daily, the park accommodates early risers and evening visitors alike. Local dog owners have clearly found this to be a worthwhile destination."
  }
]